{"area_comune": "[{\"type\": \"Feature\", \"properties\": {}, \"geometry\": {\"type\": \"Polygon\", \"coordinates\": [[[11.801816069947366, 45.380987721215085], [11.80543827832458, 45.377416886910204], [11.80746885927139, 45.376579637590346], [11.809783603043975, 45.375352486387335], [11.810053807298145, 45.374877762212996], [11.809517792386757, 45.373081672994516], [11.808955002715589, 45.372033356274265], [11.809781644761875, 45.37093283353627], [11.816533668584881, 45.367003800635004], [11.832752558383355, 45.3583390491963], [11.836390927741043, 45.3570515507384], [11.832168827666594, 45.35047746959451], [11.818293817116473, 45.332259986522956], [11.817433947425682, 45.330876991501476], [11.815330826555961, 45.332150839646545], [11.813235572586834, 45.33500195922155], [11.813372683931863, 45.335450900822075], [11.81382774099547, 45.335941513747095], [11.8137656017669, 45.33668341286911], [11.810451310917774, 45.340374657107375], [11.809447182814743, 45.34097547357482], [11.800621089511997, 45.34414712494691], [11.790619253638729, 45.34744136386108], [11.778753016720954, 45.34514298518263], [11.77537622403542, 45.344284502701214], [11.775068037303782, 45.34398594844678], [11.777666811386343, 45.33814155801502], [11.77913589710005, 45.33608271977115], [11.779874014451371, 45.33558316470336], [11.772221681154953, 45.33699799921952], [11.763227754515968, 45.33989853810375], [11.760864538220755, 45.34641875862974], [11.762429300656551, 45.346308883788225], [11.761543239808034, 45.350660013517334], [11.75832616495059, 45.35170996274586], [11.75752493610962, 45.35203537369184], [11.757345464209125, 45.35228274810895], [11.757057157154843, 45.356070308588244], [11.758172886566832, 45.363262481844075], [11.759351040861134, 45.36674454982901], [11.759772250917845, 45.36726544951279], [11.761669041761033, 45.367930677219086], [11.762383208364964, 45.368435474840375], [11.764462670176423, 45.371274575747606], [11.768291006211522, 45.379193020217876], [11.767518784832651, 45.379857597744866], [11.77739329739591, 45.382836181555966], [11.796560765197258, 45.381996357516186], [11.801816069947366, 45.380987721215085]]]}}]", "comune": "abano-terme", "buffer_1": "[{\"type\": \"Feature\", \"properties\": {}, \"geometry\": {\"type\": \"Polygon\", \"coordinates\": [[[11.792492885448882, 45.334326847050406], [11.792325934711851, 45.333633969454155], [11.791986610946978, 45.33276452624364], [11.791525594433569, 45.33192341019421], [11.790947521988452, 45.33111907159997], [11.790258205714998, 45.33035959093924], [11.789464574463832, 45.32965259775133], [11.78857460411498, 45.329005194051916], [11.787597237385766, 45.32842388305384], [11.786542293972124, 45.327914503905696], [11.78542037192626, 45.32748217310102], [11.784242741259622, 45.32713123314315], [11.783021230836448, 45.326865208978695], [11.781768109688903, 45.3266867726346], [11.780495963939298, 45.32659771641178], [11.779217570557947, 45.326598934903195], [11.777945769216002, 45.32669041601559], [11.776693333511396, 45.326871241085016], [11.775472842852013, 45.32713959408508], [11.7588286635822, 45.331454280335535], [11.757661181418248, 45.331804215494294], [11.756548738757642, 45.33223420885437], [11.755502336667233, 45.332740008819066], [11.75453232402177, 45.333316614086876], [11.753648295211914, 45.333958323045344], [11.75285899527025, 45.33465879008865], [11.752172233352473, 45.33541108830573], [11.751594805430178, 45.336207777921466], [11.751132426962272, 45.337040979817395], [11.745247733404572, 45.34942462678953], [11.744914052681189, 45.35025772696491], [11.744695472000421, 45.35110958404181], [11.744594020467362, 45.35197231059582], [11.744610642838026, 45.3528379181984], [11.744745190573774, 45.35369839138063], [11.744996423017934, 45.35454576186083], [11.755164245832047, 45.3821218348954], [11.755536240212713, 45.38295985376239], [11.756022406626263, 45.38376832256942], [11.75661811735335, 45.3845395378729], [11.75731770021046, 45.385266150909025], [11.758114492475997, 45.385941237668014], [11.759000904290547, 45.38655836492736], [11.7599684909301, 45.387111651613], [11.761008033264948, 45.387595824900465], [11.762109625637398, 45.3880062705191], [11.763262770319214, 45.388339076777065], [11.764456477645462, 45.3885910718854], [11.765679370866062, 45.38875985422327], [11.766919794710121, 45.388843815254], [11.801222525790672, 45.3899739873646], [11.802534886644175, 45.38996944148958], [11.803839647645137, 45.38986997799578], [11.805123016032473, 45.38967664848072], [11.806371425550461, 45.389391496788406], [11.807571680042027, 45.38901753736777], [11.808711093101234, 45.38855872335939], [11.809777622300174, 45.388019904749314], [11.810759996564405, 45.387406777036375], [11.84533472865618, 45.36346791638942], [11.846177598345808, 45.36282414253486], [11.846927623453887, 45.36212562063534], [11.847577692467528, 45.361378977293725], [11.84812164285313, 45.360591295332306], [11.848554319399263, 45.35977004655596], [11.84887162297222, 45.358923020834816], [11.849070549227006, 45.35805825218105], [11.849149216912906, 45.35718394252265], [11.849106885512283, 45.356308383898096], [11.848943962053013, 45.35543987981078], [11.848661997037917, 45.35458666648908], [11.848263669537737, 45.35375683479841], [11.847752761596713, 45.35295825354498], [11.828792092247363, 45.326785659617826], [11.828185871972194, 45.32603887875507], [11.827481288441266, 45.32533637068309], [11.826684790746162, 45.32468456212975], [11.825803668078553, 45.32408941582032], [11.824845983006492, 45.323556375981155], [11.82382049771057, 45.32309031858786], [11.822736593854346, 45.32269550681054], [11.821604186820435, 45.32237555206197], [11.820433635093892, 45.32213338100239], [11.819235645617882, 45.32197120880138], [11.81802117598242, 45.32189051889978], [11.816801334335162, 45.32189204945553], [11.815587277923607, 45.32197578659706], [11.814390111190052, 45.3221409645452], [11.813220784344919, 45.32238607260316], [11.81208999333964, 45.32270886895081], [11.811008082148069, 45.323106401118544], [11.809984948244827, 45.32357503295449], [11.809029952140659, 45.32411047784036], [11.792492885448882, 45.334326847050406]]]}}]", "buffer_3": "[{\"type\": \"Feature\", \"properties\": {}, \"geometry\": {\"type\": \"Polygon\", \"coordinates\": [[[11.79288516118353, 45.31020704857729], [11.7893129447722, 45.30942907102761], [11.785554715730505, 45.308893899844186], [11.781739476328394, 45.308626786161064], [11.77790550950685, 45.30863041155843], [11.774091285691046, 45.30890474096197], [11.770335078411007, 45.30944702294106], [11.766674581841325, 45.31025181715102], [11.750034562025368, 45.31456513014347], [11.746532922543354, 45.315614612811146], [11.74319620885456, 45.31690422273445], [11.740057399916191, 45.31842121971173], [11.737147526656061, 45.32015061572032], [11.73449536571738, 45.32207532247256], [11.732127155097025, 45.32417631971728], [11.730066334478373, 45.32643284265103], [11.728333312831953, 45.32882258661395], [11.726945265603547, 45.33132192707335], [11.721055768918896, 45.34370444668182], [11.720053712271264, 45.34620355706594], [11.719396863871456, 45.34875901086138], [11.719091351893326, 45.35134715014624], [11.719140053362398, 45.35394401114047], [11.719542565740086, 45.3565255460403], [11.720295208861433, 45.35906784575103], [11.730452029639075, 45.38664636230046], [11.731567060625727, 45.389160677613354], [11.733024763122344, 45.39158640083383], [11.734811284309135, 45.39390040959083], [11.736909630915475, 45.3960806437973], [11.73929983010871, 45.398106316396685], [11.741959119107726, 45.39995811203499], [11.744862161740333, 45.401618371740945], [11.747981289892943, 45.40307126182964], [11.751286767549445, 45.404302925394646], [11.75474707488672, 45.405301614920525], [11.758329209689483, 45.40605780472953], [11.761999003169656, 45.40656428217056], [11.7657214471274, 45.40681621666492], [11.800035077808964, 45.407946486392746], [11.803973409443138, 45.40793281461348], [11.807888903990248, 45.4076343016041], [11.811740132038645, 45.407054107329856], [11.815486347439103, 45.406198372008724], [11.819087920086524, 45.40507615081983], [11.822506756635756, 45.4036993176625], [11.82570670462255, 45.40208243900623], [11.828653935651282, 45.4002426191941], [11.863228408665382, 45.376298376398864], [11.865756882096479, 45.37436664548722], [11.868006596796532, 45.372270690197276], [11.869956231924155, 45.37003040509159], [11.87158732157534, 45.36766705207985], [11.87288442898654, 45.365203058199555], [11.873835291704331, 45.362661802424405], [11.874430936391962, 45.36006739354108], [11.874665762240602, 45.357444441216074], [11.874537592258562, 45.3548178224343], [11.874047692021396, 45.352212445530824], [11.873200755776912, 45.34965301405488], [11.872004860108428, 45.34716379270181], [11.87047138566433, 45.34476837752458], [11.851503347515003, 45.31859971563389], [11.84968413516585, 45.3163597366797], [11.847570037016617, 45.31425260377871], [11.84518041298744, 45.312297582831555], [11.842537135394187, 45.31051254724611], [11.839664388607604, 45.308913814987065], [11.836588447886104, 45.30751599985644], [11.833337439400726, 45.306331878344366], [11.829941083631137, 45.305372273247045], [11.826430424452578, 45.3046459550981], [11.822837546354345, 45.30415956229768], [11.81919528233041, 45.30391754065672], [11.815536915061013, 45.30392210289868], [11.811895874060397, 45.30417320848298], [11.808305431499912, 45.30466856393174], [11.804798399427057, 45.30540364365906], [11.801406831089905, 45.30637173111728], [11.798161729042572, 45.30756397989399], [11.79509276265119, 45.30896949421352], [11.79288516118353, 45.31020704857729]]]}}]", "buffer_5": "[{\"type\": \"Feature\", \"properties\": {}, \"geometry\": {\"type\": \"Polygon\", \"coordinates\": [[[11.788066729691833, 45.2910118390168], [11.782982474052234, 45.290655811044616], [11.77659454965248, 45.29066180324734], [11.770239475175048, 45.291118829206674], [11.763980961225347, 45.29202231078863], [11.757881758150685, 45.29336319360924], [11.741245895286113, 45.29767513473196], [11.735411173863445, 45.29942373502264], [11.729851008118755, 45.30157246851279], [11.724620322582792, 45.30410012579002], [11.719770809266166, 45.306981753230886], [11.715350418272266, 45.310188897890356], [11.711402884302474, 45.31368988692269], [11.70796729370405, 45.317450138849026], [11.705077696355131, 45.32143250367276], [11.702762766282543, 45.325597628555094], [11.696868470972293, 45.3379790190715], [11.69519668708291, 45.342143885495595], [11.694100096723922, 45.34640277866466], [11.693588981541064, 45.3507162760087], [11.693668207805015, 45.35504444045712], [11.694337176422831, 45.35934719006336], [11.695589823513275, 45.363584669305546], [11.705735633703362, 45.391165624989945], [11.707592430262185, 45.39535658109871], [11.710020604765363, 45.39939998070646], [11.712997119892826, 45.40325726648243], [11.71649369248528, 45.40689164862723], [11.720477060196208, 45.410268456990856], [11.724909296522615, 45.413355473146325], [11.729748171285165, 45.416123239187684], [11.734947553156735, 45.418545340239206], [11.740457850397457, 45.42059865791257], [11.7462264855504, 45.422263592228134], [11.752198399490236, 45.42352424982147], [11.758316579902363, 45.42436859658497], [11.764522609006907, 45.42478857324332], [11.79884714952512, 45.42591894103728], [11.80541311933273, 45.42589609780632], [11.811940964664425, 45.425398371718835], [11.81836155111228, 45.42443103802545], [11.824606889310328, 45.42300434493777], [11.830610859587813, 45.421133404193164], [11.836309916102774, 45.41883802981396], [11.841643762782596, 45.416142526831436], [11.846555993738948, 45.413075432288494], [11.881130197429501, 45.38912580493646], [11.885344092264479, 45.385905570941404], [11.889093013980325, 45.38241166275473], [11.892341450818302, 45.37867726258828], [11.895058662590316, 45.374737829364925], [11.897218969628033, 45.37063076083775], [11.898801992891142, 45.36639503753937], [11.899792843089253, 45.3620708519894], [11.900182257182568, 45.3576992267186], [11.899966681146038, 45.35332162476145], [11.899148298405425, 45.34897955632793], [11.897735003875246, 45.34471418538791], [11.895740324043475, 45.340565939888165], [11.893183284050982, 45.33657412927555], [11.874207889454768, 45.31040940130645], [11.871174951483205, 45.30667670928618], [11.867650877042129, 45.303165473298066], [11.863667953598862, 45.29990777938488], [11.859262642791064, 45.296933391973376], [11.854475246252465, 45.29426948318543], [11.849349537215797, 45.29194038586295], [11.843932361248658, 45.28996737250595], [11.838273209727943, 45.28836846208868], [11.832423769877265, 45.28715825646818], [11.82643745537835, 45.28634780783533], [11.820368921721252, 45.28594451838298], [11.814273570578525, 45.28595207307993], [11.808207047575204, 45.28637040614803], [11.802224737878683, 45.28719570154168], [11.796381264050849, 45.28842042743003], [11.79072999058835, 45.290033404382235], [11.788066729691833, 45.2910118390168]]]}}]", "centroid": "[{\"type\": \"Feature\", \"properties\": {}, \"geometry\": {\"type\": \"Point\", \"coordinates\": [11.794660123002696, 45.35608777983399]}}]", "Benzina": {"1": [{"Gestore": "F.B. S.R.L.", "Bandiera": "Repsol", "Tipo impianto": "Altro", "Indirizzo": "VIA ROMANA APONENSE 131 35142", "Nome impianto": "Repsol", "Comune": "PADOVA", "idImpianto": 50380, "points": [{"type": "Feature", "properties": {}, "geometry": {"type": "Point", "coordinates": [11.826863132840275, 45.36690713510697]}}], "price": 1.829, "ultima_rilevazione": "16/05/2022 19:05:07"}, {"Gestore": "MARINA S.N.C. DI CASOTTO TIZIANO, LUCIANO E MARINA", "Bandiera": "Esso", "Tipo impianto": "Altro", "Indirizzo": "VIA C. BATTISTI 201 35031", "Nome impianto": "Soc. Marina dei f.lli Casotto", "Comune": "ABANO TERME", "idImpianto": 13207, "points": [{"type": "Feature", "properties": {}, "geometry": {"type": "Point", "coordinates": [11.795975390502576, 45.37727712362688]}}], "price": 1.809, "ultima_rilevazione": "10/05/2022 08:06:18"}, {"Gestore": "EUROPAM S.R.L.", "Bandiera": "Europam", "Tipo impianto": "Altro", "Indirizzo": "Via Caposeda 31 35036", "Nome impianto": "EUROPAM - MONTEGROTTO", "Comune": "MONTEGROTTO TERME", "idImpianto": 44440, "points": [{"type": "Feature", "properties": {}, "geometry": {"type": "Point", "coordinates": [11.7763708194351, 45.33309360230461]}}], "price": 1.837, "ultima_rilevazione": "10/05/2022 08:34:19"}, {"Gestore": "ENERGIA S.R.L.", "Bandiera": "BC", "Tipo impianto": "Altro", "Indirizzo": "VIA ARMANDO DIAZ 80 35031", "Nome impianto": "BC ABANO", "Comune": "ABANO TERME", "idImpianto": 28223, "points": [{"type": "Feature", "properties": {}, "geometry": {"type": "Point", "coordinates": [11.796976450262491, 45.36178478694226]}}], "price": 1.817, "ultima_rilevazione": "14/05/2022 08:50:02"}, {"Gestore": "BRIXIA FINANZIARIA S.R.L.", "Bandiera": "Agip Eni", "Tipo impianto": "Altro", "Indirizzo": "Via Battaglia 201 35020", "Nome impianto": "BRIXIA FINANZIARIA SRL - Albignasego", "Comune": "ALBIGNASEGO", "idImpianto": 44063, "points": [{"type": "Feature", "properties": {}, "geometry": {"type": "Point", "coordinates": [11.825482588532054, 45.340783699483]}}], "price": 1.879, "ultima_rilevazione": "16/05/2022 09:00:15"}, {"Gestore": "IP SERVICES S.R.L.", "Bandiera": "Api-Ip", "Tipo impianto": "Altro", "Indirizzo": "VIA DEI COLLI 42 35031", "Nome impianto": "ABANO TERME - DEI COLLI", "Comune": "ABANO TERME", "idImpianto": 24431, "points": [{"type": "Feature", "properties": {}, "geometry": {"type": "Point", "coordinates": [11.772494635582008, 45.35366607243927]}}], "price": 1.799, "ultima_rilevazione": "16/05/2022 12:02:02"}, {"Gestore": "BORTOLAMEI SRL", "Bandiera": "Benza", "Tipo impianto": "Altro", "Indirizzo": "VIA EUGANEA 167 35030", "Nome impianto": "BENZA - SELVAZZANO DENTRO (PD)", "Comune": "SELVAZZANO DENTRO", "idImpianto": 37666, "points": [{"type": "Feature", "properties": {}, "geometry": {"type": "Point", "coordinates": [11.781540848934924, 45.38391919137528]}}], "price": 1.829, "ultima_rilevazione": "16/05/2022 13:17:48"}, {"Gestore": "SERVIZI & GESTIONI ITALIA S.R.L.", "Bandiera": "Q8", "Tipo impianto": "Altro", "Indirizzo": "VIA DEI COLLI S/N 35031", "Nome impianto": "ABANO TERME-VIA DEI COLLI", "Comune": "ABANO TERME", "idImpianto": 11756, "points": [{"type": "Feature", "properties": {}, "geometry": {"type": "Point", "coordinates": [11.777090844249756, 45.35857328239278]}}], "price": 1.839, "ultima_rilevazione": "17/05/2022 01:40:04"}, {"Gestore": "TERME CARBURANTI S.R.L.", "Bandiera": "Repsol", "Tipo impianto": "Altro", "Indirizzo": "VIALE DELL'ARTIGIANATO 1/A 35036", "Nome impianto": "REPSOL", "Comune": "MONTEGROTTO TERME", "idImpianto": 12821, "points": [{"type": "Feature", "properties": {}, "geometry": {"type": "Point", "coordinates": [11.767309606075289, 45.335528406205285]}}], "price": 1.829, "ultima_rilevazione": "17/05/2022 07:32:09"}, {"Gestore": "TISO ANDREA", "Bandiera": "Tamoil", "Tipo impianto": "Altro", "Indirizzo": "VIA ROMA 108/A 35036", "Nome impianto": "Tiso Andrea", "Comune": "MONTEGROTTO TERME", "idImpianto": 10729, "points": [{"type": "Feature", "properties": {}, "geometry": {"type": "Point", "coordinates": [11.794179796364574, 45.33994198164693]}}], "price": 1.869, "ultima_rilevazione": "17/05/2022 07:34:06"}, {"Gestore": "VIOLATTO RANIERI", "Bandiera": "Agip Eni", "Tipo impianto": "Altro", "Indirizzo": "VIA MONTANARA 8 35031", "Nome impianto": "AREA DI SERVIZIO AGIP", "Comune": "ABANO TERME", "idImpianto": 51134, "points": [{"type": "Feature", "properties": {}, "geometry": {"type": "Point", "coordinates": [11.771294111422057, 45.38081588178324]}}], "price": 1.854, "ultima_rilevazione": "17/05/2022 07:47:15"}, {"Gestore": "B. & D. SERVICE DI BRUNINO & C. SNC", "Bandiera": "Tamoil", "Tipo impianto": "Altro", "Indirizzo": "VIA DEI COLLI 20 35031", "Nome impianto": "B&D Service \"Tamoil Abano T.\"", "Comune": "ABANO TERME", "idImpianto": 15435, "points": [{"type": "Feature", "properties": {}, "geometry": {"type": "Point", "coordinates": [11.782422392095896, 45.363295335443205]}}], "price": 1.869, "ultima_rilevazione": "17/05/2022 07:48:11"}, {"Gestore": "TISO ANDREA", "Bandiera": "Tamoil", "Tipo impianto": "Altro", "Indirizzo": "VIA ROMA 108/A 35036", "Nome impianto": "Tiso Andrea", "Comune": "MONTEGROTTO TERME", "idImpianto": 10729, "points": [{"type": "Feature", "properties": {}, "geometry": {"type": "Point", "coordinates": [11.794179796364574, 45.33994198164693]}}], "price": 2.019, "ultima_rilevazione": "17/05/2022 07:34:06"}, {"Gestore": "B. & D. SERVICE DI BRUNINO & C. SNC", "Bandiera": "Tamoil", "Tipo impianto": "Altro", "Indirizzo": "VIA DEI COLLI 20 35031", "Nome impianto": "B&D Service \"Tamoil Abano T.\"", "Comune": "ABANO TERME", "idImpianto": 15435, "points": [{"type": "Feature", "properties": {}, "geometry": {"type": "Point", "coordinates": [11.782422392095896, 45.363295335443205]}}], "price": 2.019, "ultima_rilevazione": "17/05/2022 07:48:11"}], "3": [{"Gestore": "P.G.M. CARBURANTI S.A.S. DI PIERANTONI MARIA & C.", "Bandiera": "Agip Eni", "Tipo impianto": "Altro", "Indirizzo": "VIA SCAPACCHIO' EST 43/A 35030", "Nome impianto": "PGMCARBURANTI SAS", "Comune": "SACCOLONGO", "idImpianto": 19355, "points": [{"type": "Feature", "properties": {}, "geometry": {"type": "Point", "coordinates": [11.762642562389374, 45.3973267214879]}}], "price": 1.819, "ultima_rilevazione": "13/05/2022 19:43:04"}, {"Gestore": "BELLUCO S.N.C. DI BELLUCO ANTONIO & C.", "Bandiera": "Q8", "Tipo impianto": "Autostradale", "Indirizzo": "Autostrada A13 BOLOGNA-PADOVA, Km. 98, dir. padova 35020", "Nome impianto": "S.PELAGIO EST", "Comune": "DUE CARRARE", "idImpianto": 29434, "points": [{"type": "Feature", "properties": {}, "geometry": {"type": "Point", "coordinates": [11.827602982521055, 45.31608475216657]}}], "price": 1.918, "ultima_rilevazione": "14/05/2022 04:30:04"}, {"Gestore": "BERTOCCO ROBERTO", "Bandiera": "Agip Eni", "Tipo impianto": "Altro", "Indirizzo": "VIA ROMA 270 35020", "Nome impianto": "ENI DI BERTOCCO ROBERTO", "Comune": "ALBIGNASEGO", "idImpianto": 21792, "points": [{"type": "Feature", "properties": {}, "geometry": {"type": "Point", "coordinates": [11.866609677672386, 45.3420815402777]}}], "price": 1.854, "ultima_rilevazione": "15/05/2022 12:39:00"}, {"Gestore": "EGI-2GO S.R.L.", "Bandiera": "Esso", "Tipo impianto": "Altro", "Indirizzo": "VIA GUIZZA 378 35125", "Nome impianto": "PD-Guizza", "Comune": "PADOVA", "idImpianto": 48797, "points": [{"type": "Feature", "properties": {}, "geometry": {"type": "Point", "coordinates": [11.870645063823702, 45.36272869262199]}}], "price": 1.829, "ultima_rilevazione": "16/05/2022 08:22:45"}, {"Gestore": "A.F. PETROLI S.P.A.", "Bandiera": "AF Petroli", "Tipo impianto": "Strada Statale", "Indirizzo": "16 Adriatica, Km. 11+376 lato sx, padova 35020", "Nome impianto": "A.F PETROLI", "Comune": "DUE CARRARE", "idImpianto": 45952, "points": [{"type": "Feature", "properties": {}, "geometry": {"type": "Point", "coordinates": [11.80961704008746, 45.321071393694496]}}], "price": 1.837, "ultima_rilevazione": "16/05/2022 19:04:26"}, {"Gestore": "SAN MARCO PETROLI DISTRIBUZIONE S.R.L.", "Bandiera": "San Marco Petroli", "Tipo impianto": "Altro", "Indirizzo": "VIA DEI COLLI 81 35143", "Nome impianto": "SMP PADOVA, Via dei Colli 81", "Comune": "PADOVA", "idImpianto": 5191, "points": [{"type": "Feature", "properties": {}, "geometry": {"type": "Point", "coordinates": [11.831001341342926, 45.39633227212849]}}], "price": 1.869, "ultima_rilevazione": "17/05/2022 00:08:07"}, {"Gestore": "SAN MARCO PETROLI DISTRIBUZIONE S.R.L.", "Bandiera": "San Marco Petroli", "Tipo impianto": "Altro", "Indirizzo": "VIA MONTEGROTTO 164/A 35038", "Nome impianto": "SMP TORREGLIA", "Comune": "TORREGLIA", "idImpianto": 5192, "points": [{"type": "Feature", "properties": {}, "geometry": {"type": "Point", "coordinates": [11.751162707805634, 45.33410674470022]}}], "price": 1.889, "ultima_rilevazione": "17/05/2022 07:44:09"}, {"Gestore": "SERVIZI & GESTIONI ITALIA S.R.L.", "Bandiera": "Q8", "Tipo impianto": "Altro", "Indirizzo": "STRADA BATTAGLIA SS. 16 S/N 35020", "Nome impianto": "ALBIGNASEGO-STRADA BATTAGLIA SS. 16", "Comune": "ALBIGNASEGO", "idImpianto": 11754, "points": [{"type": "Feature", "properties": {}, "geometry": {"type": "Point", "coordinates": [11.855596559524542, 45.38029970199889]}}], "price": 1.849, "ultima_rilevazione": "17/05/2022 01:40:04"}, {"Gestore": "ENI FUEL S.P.A.", "Bandiera": "Agip Eni", "Tipo impianto": "Autostradale", "Indirizzo": "Autostrada A13 BOLOGNA-PADOVA, Km. 98+200, dir. Sud 35020", "Nome impianto": "S.PELAGIO OVEST", "Comune": "DUE CARRARE", "idImpianto": 3862, "points": [{"type": "Feature", "properties": {}, "geometry": {"type": "Point", "coordinates": [11.825741529464722, 45.31577731437248]}}], "price": 1.879, "ultima_rilevazione": "17/05/2022 05:38:01"}, {"Gestore": "VALESERVICE DI VALERIA BEZZE & C. SAS", "Bandiera": "Tamoil", "Tipo impianto": "Altro", "Indirizzo": "VIA EUGANEA 1 35030", "Nome impianto": "TAMOIL", "Comune": "SELVAZZANO DENTRO", "idImpianto": 19859, "points": [{"type": "Feature", "properties": {}, "geometry": {"type": "Point", "coordinates": [11.805598209212349, 45.39035631031464]}}], "price": 1.869, "ultima_rilevazione": "17/05/2022 06:46:03"}, {"Gestore": "SERVIZI & GESTIONI ITALIA S.R.L.", "Bandiera": "Q8", "Tipo impianto": "Altro", "Indirizzo": "CORSO BOSTON 51 35142", "Nome impianto": "PADOVA-CORSO BOSTON 51", "Comune": "PADOVA", "idImpianto": 11757, "points": [{"type": "Feature", "properties": {}, "geometry": {"type": "Point", "coordinates": [11.840413212776184, 45.377970989535946]}}], "price": 1.849, "ultima_rilevazione": "17/05/2022 07:09:17"}, {"Gestore": "SAN MARCO PETROLI DISTRIBUZIONE S.R.L.", "Bandiera": "San Marco Petroli", "Tipo impianto": "Altro", "Indirizzo": "VIA GIOVANNI FALCONE  35036", "Nome impianto": "SMP MONTEGROTTO TERME", "Comune": "MONTEGROTTO TERME", "idImpianto": 46395, "points": [{"type": "Feature", "properties": {}, "geometry": {"type": "Point", "coordinates": [11.803982739958997, 45.32008961965416]}}], "price": 1.899, "ultima_rilevazione": "17/05/2022 07:26:15"}, {"Gestore": "BLU S.N.C. DI ZANARDI ANDREA & C.", "Bandiera": "Agip Eni", "Tipo impianto": "Altro", "Indirizzo": "VIA ARMISTIZIO 180 35142", "Nome impianto": "eni blusnc", "Comune": "PADOVA", "idImpianto": 17621, "points": [{"type": "Feature", "properties": {}, "geometry": {"type": "Point", "coordinates": [11.849324852228165, 45.37718797071251]}}], "price": 1.874, "ultima_rilevazione": "17/05/2022 07:32:05"}, {"Gestore": "VALESERVICE DI VALERIA BEZZE & C. SAS", "Bandiera": "Tamoil", "Tipo impianto": "Altro", "Indirizzo": "VIA EUGANEA 1 35030", "Nome impianto": "TAMOIL", "Comune": "SELVAZZANO DENTRO", "idImpianto": 19859, "points": [{"type": "Feature", "properties": {}, "geometry": {"type": "Point", "coordinates": [11.805598209212349, 45.39035631031464]}}], "price": 2.019, "ultima_rilevazione": "17/05/2022 06:46:03"}], "5": [{"Gestore": "CECCARELLO VALTER", "Bandiera": "Api-Ip", "Tipo impianto": "Altro", "Indirizzo": "VIA L. BENEDETTI 37 35030", "Nome impianto": "IP", "Comune": "GALZIGNANO TERME", "idImpianto": 19592, "points": [{"type": "Feature", "properties": {}, "geometry": {"type": "Point", "coordinates": [11.729530021548271, 45.30969592746091]}}], "price": 1.899, "ultima_rilevazione": "11/02/2022 11:37:56"}, {"Gestore": "DEFA S.A.S. DI FAVARATO BRUNO MORENO & C. CON SIGLA \"DEFA S.A.S.\"", "Bandiera": "Esso", "Tipo impianto": "Altro", "Indirizzo": "VIA GOITO 116 35142", "Nome impianto": "STAZ.SERVIZIO ESSO DE.FA SAS", "Comune": "PADOVA", "idImpianto": 22936, "points": [{"type": "Feature", "properties": {}, "geometry": {"type": "Point", "coordinates": [11.86686000793452, 45.38946737393962]}}], "price": 2.249, "ultima_rilevazione": "16/05/2022 09:37:39"}, {"Gestore": "SIMIONATO PAOLO & C. S.N.C.", "Bandiera": "Agip Eni", "Tipo impianto": "Altro", "Indirizzo": "VIA TRE PONTI 13/C 35136", "Nome impianto": "eni", "Comune": "PADOVA", "idImpianto": 21478, "points": [{"type": "Feature", "properties": {}, "geometry": {"type": "Point", "coordinates": [11.826000793917842, 45.41287906057255]}}], "price": 2.214, "ultima_rilevazione": "17/05/2022 07:51:42"}, {"Gestore": "COSTANTIN DISTRIBUZIONE E SERVIZI SRL", "Bandiera": "Costantin", "Tipo impianto": "Altro", "Indirizzo": "via dell'industria  2/a 35020", "Nome impianto": "COSTANTIN DUE CARRARE", "Comune": "DUE CARRARE", "idImpianto": 35289, "points": [{"type": "Feature", "properties": {}, "geometry": {"type": "Point", "coordinates": [11.85749553143978, 45.30036348994487]}}], "price": 1.789, "ultima_rilevazione": "16/05/2022 12:25:09"}, {"Gestore": "HASSAN PETROLI SNC DI HASSAN MUHAMMAD & C.", "Bandiera": "Esso", "Tipo impianto": "Altro", "Indirizzo": "VIA CHIESANUOVA 146 35136", "Nome impianto": "S.S. Esso Hassan Petroli SNC", "Comune": "PADOVA", "idImpianto": 45785, "points": [{"type": "Feature", "properties": {}, "geometry": {"type": "Point", "coordinates": [11.831731948313518, 45.41592268517871]}}], "price": 1.789, "ultima_rilevazione": "09/05/2022 07:59:57"}, {"Gestore": "EUROPAM S.R.L.", "Bandiera": "Europam", "Tipo impianto": "Altro", "Indirizzo": "VIA SQUERO 12, S.S.16 35041", "Nome impianto": "EUROPAM BATTAGLIA TERME", "Comune": "BATTAGLIA TERME", "idImpianto": 47938, "points": [{"type": "Feature", "properties": {}, "geometry": {"type": "Point", "coordinates": [11.788187930059442, 45.293498113132095]}}], "price": 1.837, "ultima_rilevazione": "10/05/2022 09:04:32"}, {"Gestore": "MIX S.N.C. DI BUSINARO LUCA & C.", "Bandiera": "Major", "Tipo impianto": "Altro", "Indirizzo": "VIA MINCANA 24/A 35020", "Nome impianto": "Major", "Comune": "DUE CARRARE", "idImpianto": 13637, "points": [{"type": "Feature", "properties": {}, "geometry": {"type": "Point", "coordinates": [11.814011847885126, 45.29269102343213]}}], "price": 1.824, "ultima_rilevazione": "12/05/2022 12:10:10"}, {"Gestore": "BRAGHETTA S.A.S. DI BRAGHETTA LUIGI & C.", "Bandiera": "Major", "Tipo impianto": "Altro", "Indirizzo": "VIA CONSELVANA 59 35020", "Nome impianto": "Major 1014 Maser\u00e0 Via Conselvana", "Comune": "MASERA' DI PADOVA", "idImpianto": 50812, "points": [{"type": "Feature", "properties": {}, "geometry": {"type": "Point", "coordinates": [11.863865781943634, 45.322509765001975]}}], "price": 1.819, "ultima_rilevazione": "13/05/2022 15:21:01"}, {"Gestore": "MAZZINI CRISTIANA", "Bandiera": "Q8", "Tipo impianto": "Altro", "Indirizzo": "VIA CONSELVANA 38 35020", "Nome impianto": "Stazione di servizio Q8", "Comune": "MASERA' DI PADOVA", "idImpianto": 40219, "points": [{"type": "Feature", "properties": {}, "geometry": {"type": "Point", "coordinates": [11.863984844180322, 45.32492805633712]}}], "price": 1.819, "ultima_rilevazione": "14/05/2022 06:07:00"}, {"Gestore": "ENSA CAR WASH DI MERLIN ENRICO", "Bandiera": "Q8", "Tipo impianto": "Altro", "Indirizzo": "VIALE DELLE TERME 3/A 35030", "Nome impianto": "STAZIONE SERVIZIO Q8", "Comune": "GALZIGNANO TERME", "idImpianto": 48447, "points": [{"type": "Feature", "properties": {}, "geometry": {"type": "Point", "coordinates": [11.746368857186884, 45.30380470316841]}}], "price": 1.799, "ultima_rilevazione": "14/05/2022 07:49:51"}, {"Gestore": "ENERGIA S.R.L.", "Bandiera": "BC", "Tipo impianto": "Altro", "Indirizzo": "VIA BEMBO ANGOLO VIA SALUTATI 104 35124", "Nome impianto": "BC BEMBO", "Comune": "PADOVA", "idImpianto": 39569, "points": [{"type": "Feature", "properties": {}, "geometry": {"type": "Point", "coordinates": [11.887574513491812, 45.3722903435151]}}], "price": 1.816, "ultima_rilevazione": "14/05/2022 09:40:02"}, {"Gestore": "GONDAL PETROLI DI ZAFAR ZILLE HUSNAIN", "Bandiera": "Agip Eni", "Tipo impianto": "Altro", "Indirizzo": "VIA PIETRO BEMBO 200 35124", "Nome impianto": "STAZIONE DI SERVIZIO ENI", "Comune": "PADOVA", "idImpianto": 50931, "points": [{"type": "Feature", "properties": {}, "geometry": {"type": "Point", "coordinates": [11.896019614428337, 45.35413328500809]}}], "price": 1.869, "ultima_rilevazione": "14/05/2022 12:04:37"}, {"Gestore": "METANO PADOVA SNC DI GRIGOLETTO ROBERTO & C.", "Bandiera": "Pompe Bianche", "Tipo impianto": "Altro", "Indirizzo": "VIA ADRIATICA 71 35125", "Nome impianto": "METANO", "Comune": "PADOVA", "idImpianto": 28450, "points": [{"type": "Feature", "properties": {}, "geometry": {"type": "Point", "coordinates": [11.861318349838257, 45.38346688882248]}}], "price": 1.839, "ultima_rilevazione": "15/05/2022 10:14:50"}, {"Gestore": "SATTIN MAURO", "Bandiera": "Agip Eni", "Tipo impianto": "Altro", "Indirizzo": "CORSO AUSTRALIA 76 35136", "Nome impianto": "Eni55291", "Comune": "PADOVA", "idImpianto": 8812, "points": [{"type": "Feature", "properties": {}, "geometry": {"type": "Point", "coordinates": [11.84851884841919, 45.40503348773557]}}], "price": 1.854, "ultima_rilevazione": "16/05/2022 07:40:23"}, {"Gestore": "PITTON FABRIZIO S.N.C. DI MATTEO PITTON E C.", "Bandiera": "Q8", "Tipo impianto": "Altro", "Indirizzo": "VIA PIETRO BEMBO 80 35124", "Nome impianto": "PITTON FABRIZIO S.N.C DI MATTEO PITTON & C", "Comune": "PADOVA", "idImpianto": 30807, "points": [{"type": "Feature", "properties": {}, "geometry": {"type": "Point", "coordinates": [11.885796190509614, 45.37638649868096]}}], "price": 1.854, "ultima_rilevazione": "16/05/2022 08:07:14"}, {"Gestore": "ENI FUEL S.P.A.", "Bandiera": "Agip Eni", "Tipo impianto": "Altro", "Indirizzo": "VIA CHIESANUOVA SNC 35136", "Nome impianto": "57909 Chiesa Nuova", "Comune": "PADOVA", "idImpianto": 32532, "points": [{"type": "Feature", "properties": {}, "geometry": {"type": "Point", "coordinates": [11.842031779098534, 45.41179839675553]}}], "price": 1.859, "ultima_rilevazione": "16/05/2022 09:08:09"}, {"Gestore": "IP SERVICES S.R.L.", "Bandiera": "Api-Ip", "Tipo impianto": "Altro", "Indirizzo": "Via Chiesa Nuova 28 35136", "Nome impianto": "CHIESA NUOVA", "Comune": "PADOVA", "idImpianto": 5533, "points": [{"type": "Feature", "properties": {}, "geometry": {"type": "Point", "coordinates": [11.845740542327915, 45.4114644682442]}}], "price": 1.749, "ultima_rilevazione": "16/05/2022 12:06:05"}, {"Gestore": "C.D.A. DI DANTE CLAUDIO", "Bandiera": "Oil Italia", "Tipo impianto": "Altro", "Indirizzo": "VIA CHIESANUOVA 14 35136", "Nome impianto": "C.D.A di Dante Claudio", "Comune": "PADOVA", "idImpianto": 38428, "points": [{"type": "Feature", "properties": {}, "geometry": {"type": "Point", "coordinates": [11.8479300022384, 45.41113129351639]}}], "price": 1.799, "ultima_rilevazione": "16/05/2022 16:47:53"}, {"Gestore": "A.F. PETROLI S.P.A.", "Bandiera": "AF Petroli", "Tipo impianto": "Altro", "Indirizzo": "VIA GUIZZA 367 35125", "Nome impianto": "A.F. PETROLI", "Comune": "PADOVA", "idImpianto": 12363, "points": [{"type": "Feature", "properties": {}, "geometry": {"type": "Point", "coordinates": [11.872090436770575, 45.36736623925516]}}], "price": 1.839, "ultima_rilevazione": "16/05/2022 18:52:00"}, {"Gestore": "ENERGIA S.R.L.", "Bandiera": "Q8", "Tipo impianto": "Altro", "Indirizzo": "VIA MINCANA 79 35020", "Nome impianto": "BC duecarrare", "Comune": "DUE CARRARE", "idImpianto": 28480, "points": [{"type": "Feature", "properties": {}, "geometry": {"type": "Point", "coordinates": [11.799256152114822, 45.29581679266476]}}], "price": 1.837, "ultima_rilevazione": "16/05/2022 18:55:02"}, {"Gestore": "ENERGIA S.R.L.", "Bandiera": "BC", "Tipo impianto": "Altro", "Indirizzo": "Via Pelosa , 14ter  ", "Nome impianto": "BC", "Comune": "SELVAZZANO DENTRO", "idImpianto": 10409, "points": [{"type": "Feature", "properties": {}, "geometry": {"type": "Point", "coordinates": [11.79563558844916, 45.41539856460397]}}], "price": 1.837, "ultima_rilevazione": "16/05/2022 19:00:02"}, {"Gestore": "A.F. PETROLI S.P.A.", "Bandiera": "AF Petroli", "Tipo impianto": "Altro", "Indirizzo": "VIA BIBANO 11 35030", "Nome impianto": "A.F. PETROLI", "Comune": "RUBANO", "idImpianto": 12364, "points": [{"type": "Feature", "properties": {}, "geometry": {"type": "Point", "coordinates": [11.78819032446745, 45.41360368762956]}}], "price": 1.837, "ultima_rilevazione": "16/05/2022 19:05:56"}, {"Gestore": "ZUIN SERVIZI S.R.L.", "Bandiera": "Pompe Bianche", "Tipo impianto": "Altro", "Indirizzo": "Via Della Croce  24 35030", "Nome impianto": "Zuin Servizi S.r.l.", "Comune": "CERVARESE SANTA CROCE", "idImpianto": 13116, "points": [{"type": "Feature", "properties": {}, "geometry": {"type": "Point", "coordinates": [11.708055403515573, 45.38903340673024]}}], "price": 1.829, "ultima_rilevazione": "16/05/2022 20:43:32"}, {"Gestore": "CARRARO GIANCARLO", "Bandiera": "Agip Eni", "Tipo impianto": "Altro", "Indirizzo": "VIA SORIO 44 35141", "Nome impianto": "CARRARO GIANCARLO - ENI DISTRIBUTORE", "Comune": "PADOVA", "idImpianto": 51051, "points": [{"type": "Feature", "properties": {}, "geometry": {"type": "Point", "coordinates": [11.858607550926196, 45.40199167482786]}}], "price": 1.854, "ultima_rilevazione": "16/05/2022 20:54:12"}, {"Gestore": "F.M. DI MASIN FRANCO & C. SNC", "Bandiera": "Api-Ip", "Tipo impianto": "Altro", "Indirizzo": "via Goito 54 35142", "Nome impianto": "IP di Masin Franco goito", "Comune": "PADOVA", "idImpianto": 49977, "points": [{"type": "Feature", "properties": {}, "geometry": {"type": "Point", "coordinates": [11.865779121995391, 45.39420106941464]}}], "price": 1.839, "ultima_rilevazione": "16/05/2022 21:59:42"}, {"Gestore": "SERVIZI & GESTIONI ITALIA S.R.L.", "Bandiera": "Q8", "Tipo impianto": "Altro", "Indirizzo": "VIA DEI COLLI 41 35143", "Nome impianto": "VIA DEI COLLI 41 - PADOVA", "Comune": "PADOVA", "idImpianto": 29396, "points": [{"type": "Feature", "properties": {}, "geometry": {"type": "Point", "coordinates": [11.83477316197127, 45.39715575074703]}}], "price": 1.869, "ultima_rilevazione": "17/05/2022 01:40:03"}, {"Gestore": "SERVIZI & GESTIONI ITALIA srl", "Bandiera": "Q8", "Tipo impianto": "Altro", "Indirizzo": "VIA DEI COLLI SNC 35100", "Nome impianto": "PADOVA VIA DEI COLLI", "Comune": "PADOVA", "idImpianto": 6498, "points": [{"type": "Feature", "properties": {}, "geometry": {"type": "Point", "coordinates": [11.83367943617634, 45.39718637586125]}}], "price": 1.869, "ultima_rilevazione": "17/05/2022 01:40:04"}, {"Gestore": "GESTIONI INNOVATIVE ITALIA S.R.L.", "Bandiera": "Agip Eni", "Tipo impianto": "Altro", "Indirizzo": "VIA GUIZZA 268, 35125", "Nome impianto": "PV 55948", "Comune": "PADOVA", "idImpianto": 24933, "points": [{"type": "Feature", "properties": {}, "geometry": {"type": "Point", "coordinates": [11.870287656784058, 45.37471600175528]}}], "price": 1.879, "ultima_rilevazione": "17/05/2022 06:02:06"}, {"Gestore": "T.D.M. S.R.L.", "Bandiera": "Tamoil", "Tipo impianto": "Altro", "Indirizzo": "SR.11 PADANA SUP. DA KM. 378+215 A378+221 LATO SX  35030", "Nome impianto": "7909", "Comune": "RUBANO", "idImpianto": 45499, "points": [{"type": "Feature", "properties": {}, "geometry": {"type": "Point", "coordinates": [11.803287574205, 45.42275753281246]}}], "price": 1.859, "ultima_rilevazione": "17/05/2022 07:32:07"}, {"Gestore": "MARTINELLO CESARINO & MASSIMO SNC", "Bandiera": "Esso", "Tipo impianto": "Altro", "Indirizzo": "VIA COSTA SENZA N.C. 35124", "Nome impianto": "ESSO MARTINELLO CESARINO E MASSIMO SNC", "Comune": "PADOVA", "idImpianto": 14279, "points": [{"type": "Feature", "properties": {}, "geometry": {"type": "Point", "coordinates": [11.870895100086273, 45.38992420750324]}}], "price": 1.849, "ultima_rilevazione": "17/05/2022 07:47:45"}]}, "Gasolio": {"1": [{"Gestore": "MARINA S.N.C. DI CASOTTO TIZIANO, LUCIANO E MARINA", "Bandiera": "Esso", "Tipo impianto": "Altro", "Indirizzo": "VIA C. BATTISTI 201 35031", "Nome impianto": "Soc. Marina dei f.lli Casotto", "Comune": "ABANO TERME", "idImpianto": 13207, "points": [{"type": "Feature", "properties": {}, "geometry": {"type": "Point", "coordinates": [11.795975390502576, 45.37727712362688]}}], "price": 1.859, "ultima_rilevazione": "10/05/2022 08:06:18"}, {"Gestore": "EUROPAM S.R.L.", "Bandiera": "Europam", "Tipo impianto": "Altro", "Indirizzo": "Via Caposeda 31 35036", "Nome impianto": "EUROPAM - MONTEGROTTO", "Comune": "MONTEGROTTO TERME", "idImpianto": 44440, "points": [{"type": "Feature", "properties": {}, "geometry": {"type": "Point", "coordinates": [11.7763708194351, 45.33309360230461]}}], "price": 1.837, "ultima_rilevazione": "10/05/2022 08:34:19"}, {"Gestore": "ENERGIA S.R.L.", "Bandiera": "BC", "Tipo impianto": "Altro", "Indirizzo": "VIA ARMANDO DIAZ 80 35031", "Nome impianto": "BC ABANO", "Comune": "ABANO TERME", "idImpianto": 28223, "points": [{"type": "Feature", "properties": {}, "geometry": {"type": "Point", "coordinates": [11.796976450262491, 45.36178478694226]}}], "price": 1.818, "ultima_rilevazione": "14/05/2022 08:50:02"}, {"Gestore": "BRIXIA FINANZIARIA S.R.L.", "Bandiera": "Agip Eni", "Tipo impianto": "Altro", "Indirizzo": "Via Battaglia 201 35020", "Nome impianto": "BRIXIA FINANZIARIA SRL - Albignasego", "Comune": "ALBIGNASEGO", "idImpianto": 44063, "points": [{"type": "Feature", "properties": {}, "geometry": {"type": "Point", "coordinates": [11.825482588532054, 45.340783699483]}}], "price": 1.829, "ultima_rilevazione": "16/05/2022 09:00:15"}, {"Gestore": "IP SERVICES S.R.L.", "Bandiera": "Api-Ip", "Tipo impianto": "Altro", "Indirizzo": "VIA DEI COLLI 42 35031", "Nome impianto": "ABANO TERME - DEI COLLI", "Comune": "ABANO TERME", "idImpianto": 24431, "points": [{"type": "Feature", "properties": {}, "geometry": {"type": "Point", "coordinates": [11.772494635582008, 45.35366607243927]}}], "price": 1.849, "ultima_rilevazione": "16/05/2022 12:02:02"}, {"Gestore": "BORTOLAMEI SRL", "Bandiera": "Benza", "Tipo impianto": "Altro", "Indirizzo": "VIA EUGANEA 167 35030", "Nome impianto": "BENZA - SELVAZZANO DENTRO (PD)", "Comune": "SELVAZZANO DENTRO", "idImpianto": 37666, "points": [{"type": "Feature", "properties": {}, "geometry": {"type": "Point", "coordinates": [11.781540848934924, 45.38391919137528]}}], "price": 1.829, "ultima_rilevazione": "16/05/2022 13:17:48"}, {"Gestore": "F.B. S.R.L.", "Bandiera": "Repsol", "Tipo impianto": "Altro", "Indirizzo": "VIA ROMANA APONENSE 131 35142", "Nome impianto": "Repsol", "Comune": "PADOVA", "idImpianto": 50380, "points": [{"type": "Feature", "properties": {}, "geometry": {"type": "Point", "coordinates": [11.826863132840275, 45.36690713510697]}}], "price": 1.829, "ultima_rilevazione": "16/05/2022 19:05:07"}, {"Gestore": "SERVIZI & GESTIONI ITALIA S.R.L.", "Bandiera": "Q8", "Tipo impianto": "Altro", "Indirizzo": "VIA DEI COLLI S/N 35031", "Nome impianto": "ABANO TERME-VIA DEI COLLI", "Comune": "ABANO TERME", "idImpianto": 11756, "points": [{"type": "Feature", "properties": {}, "geometry": {"type": "Point", "coordinates": [11.777090844249756, 45.35857328239278]}}], "price": 1.819, "ultima_rilevazione": "17/05/2022 01:40:04"}, {"Gestore": "TERME CARBURANTI S.R.L.", "Bandiera": "Repsol", "Tipo impianto": "Altro", "Indirizzo": "VIALE DELL'ARTIGIANATO 1/A 35036", "Nome impianto": "REPSOL", "Comune": "MONTEGROTTO TERME", "idImpianto": 12821, "points": [{"type": "Feature", "properties": {}, "geometry": {"type": "Point", "coordinates": [11.767309606075289, 45.335528406205285]}}], "price": 1.829, "ultima_rilevazione": "17/05/2022 07:32:09"}, {"Gestore": "TISO ANDREA", "Bandiera": "Tamoil", "Tipo impianto": "Altro", "Indirizzo": "VIA ROMA 108/A 35036", "Nome impianto": "Tiso Andrea", "Comune": "MONTEGROTTO TERME", "idImpianto": 10729, "points": [{"type": "Feature", "properties": {}, "geometry": {"type": "Point", "coordinates": [11.794179796364574, 45.33994198164693]}}], "price": 1.819, "ultima_rilevazione": "17/05/2022 07:34:06"}, {"Gestore": "VIOLATTO RANIERI", "Bandiera": "Agip Eni", "Tipo impianto": "Altro", "Indirizzo": "VIA MONTANARA 8 35031", "Nome impianto": "AREA DI SERVIZIO AGIP", "Comune": "ABANO TERME", "idImpianto": 51134, "points": [{"type": "Feature", "properties": {}, "geometry": {"type": "Point", "coordinates": [11.771294111422057, 45.38081588178324]}}], "price": 1.824, "ultima_rilevazione": "17/05/2022 07:47:15"}, {"Gestore": "B. & D. SERVICE DI BRUNINO & C. SNC", "Bandiera": "Tamoil", "Tipo impianto": "Altro", "Indirizzo": "VIA DEI COLLI 20 35031", "Nome impianto": "B&D Service \"Tamoil Abano T.\"", "Comune": "ABANO TERME", "idImpianto": 15435, "points": [{"type": "Feature", "properties": {}, "geometry": {"type": "Point", "coordinates": [11.782422392095896, 45.363295335443205]}}], "price": 1.819, "ultima_rilevazione": "17/05/2022 07:48:11"}], "3": [{"Gestore": "A.F. PETROLI S.P.A.", "Bandiera": "AF Petroli", "Tipo impianto": "Strada Statale", "Indirizzo": "16 Adriatica, Km. 11+376 lato sx, padova 35020", "Nome impianto": "A.F PETROLI", "Comune": "DUE CARRARE", "idImpianto": 45952, "points": [{"type": "Feature", "properties": {}, "geometry": {"type": "Point", "coordinates": [11.80961704008746, 45.321071393694496]}}], "price": 1.817, "ultima_rilevazione": "16/05/2022 19:04:26"}, {"Gestore": "BELLUCO S.N.C. DI BELLUCO ANTONIO & C.", "Bandiera": "Q8", "Tipo impianto": "Autostradale", "Indirizzo": "Autostrada A13 BOLOGNA-PADOVA, Km. 98, dir. padova 35020", "Nome impianto": "S.PELAGIO EST", "Comune": "DUE CARRARE", "idImpianto": 29434, "points": [{"type": "Feature", "properties": {}, "geometry": {"type": "Point", "coordinates": [11.827602982521055, 45.31608475216657]}}], "price": 1.899, "ultima_rilevazione": "14/05/2022 04:30:04"}, {"Gestore": "P.G.M. CARBURANTI S.A.S. DI PIERANTONI MARIA & C.", "Bandiera": "Agip Eni", "Tipo impianto": "Altro", "Indirizzo": "VIA SCAPACCHIO' EST 43/A 35030", "Nome impianto": "PGMCARBURANTI SAS", "Comune": "SACCOLONGO", "idImpianto": 19355, "points": [{"type": "Feature", "properties": {}, "geometry": {"type": "Point", "coordinates": [11.762642562389374, 45.3973267214879]}}], "price": 1.799, "ultima_rilevazione": "13/05/2022 19:43:04"}, {"Gestore": "BERTOCCO ROBERTO", "Bandiera": "Agip Eni", "Tipo impianto": "Altro", "Indirizzo": "VIA ROMA 270 35020", "Nome impianto": "ENI DI BERTOCCO ROBERTO", "Comune": "ALBIGNASEGO", "idImpianto": 21792, "points": [{"type": "Feature", "properties": {}, "geometry": {"type": "Point", "coordinates": [11.866609677672386, 45.3420815402777]}}], "price": 1.824, "ultima_rilevazione": "15/05/2022 12:39:00"}, {"Gestore": "EGI-2GO S.R.L.", "Bandiera": "Esso", "Tipo impianto": "Altro", "Indirizzo": "VIA GUIZZA 378 35125", "Nome impianto": "PD-Guizza", "Comune": "PADOVA", "idImpianto": 48797, "points": [{"type": "Feature", "properties": {}, "geometry": {"type": "Point", "coordinates": [11.870645063823702, 45.36272869262199]}}], "price": 1.809, "ultima_rilevazione": "16/05/2022 08:22:45"}, {"Gestore": "SAN MARCO PETROLI DISTRIBUZIONE S.R.L.", "Bandiera": "San Marco Petroli", "Tipo impianto": "Altro", "Indirizzo": "VIA DEI COLLI 81 35143", "Nome impianto": "SMP PADOVA, Via dei Colli 81", "Comune": "PADOVA", "idImpianto": 5191, "points": [{"type": "Feature", "properties": {}, "geometry": {"type": "Point", "coordinates": [11.831001341342926, 45.39633227212849]}}], "price": 1.819, "ultima_rilevazione": "17/05/2022 00:08:07"}, {"Gestore": "SAN MARCO PETROLI DISTRIBUZIONE S.R.L.", "Bandiera": "San Marco Petroli", "Tipo impianto": "Altro", "Indirizzo": "VIA MONTEGROTTO 164/A 35038", "Nome impianto": "SMP TORREGLIA", "Comune": "TORREGLIA", "idImpianto": 5192, "points": [{"type": "Feature", "properties": {}, "geometry": {"type": "Point", "coordinates": [11.751162707805634, 45.33410674470022]}}], "price": 1.829, "ultima_rilevazione": "17/05/2022 07:44:09"}, {"Gestore": "BLU S.N.C. DI ZANARDI ANDREA & C.", "Bandiera": "Agip Eni", "Tipo impianto": "Altro", "Indirizzo": "VIA ARMISTIZIO 180 35142", "Nome impianto": "eni blusnc", "Comune": "PADOVA", "idImpianto": 17621, "points": [{"type": "Feature", "properties": {}, "geometry": {"type": "Point", "coordinates": [11.849324852228165, 45.37718797071251]}}], "price": 1.824, "ultima_rilevazione": "17/05/2022 07:32:05"}, {"Gestore": "SERVIZI & GESTIONI ITALIA S.R.L.", "Bandiera": "Q8", "Tipo impianto": "Altro", "Indirizzo": "STRADA BATTAGLIA SS. 16 S/N 35020", "Nome impianto": "ALBIGNASEGO-STRADA BATTAGLIA SS. 16", "Comune": "ALBIGNASEGO", "idImpianto": 11754, "points": [{"type": "Feature", "properties": {}, "geometry": {"type": "Point", "coordinates": [11.855596559524542, 45.38029970199889]}}], "price": 1.808, "ultima_rilevazione": "17/05/2022 01:40:04"}, {"Gestore": "ENI FUEL S.P.A.", "Bandiera": "Agip Eni", "Tipo impianto": "Autostradale", "Indirizzo": "Autostrada A13 BOLOGNA-PADOVA, Km. 98+200, dir. Sud 35020", "Nome impianto": "S.PELAGIO OVEST", "Comune": "DUE CARRARE", "idImpianto": 3862, "points": [{"type": "Feature", "properties": {}, "geometry": {"type": "Point", "coordinates": [11.825741529464722, 45.31577731437248]}}], "price": 1.869, "ultima_rilevazione": "17/05/2022 05:38:01"}, {"Gestore": "VALESERVICE DI VALERIA BEZZE & C. SAS", "Bandiera": "Tamoil", "Tipo impianto": "Altro", "Indirizzo": "VIA EUGANEA 1 35030", "Nome impianto": "TAMOIL", "Comune": "SELVAZZANO DENTRO", "idImpianto": 19859, "points": [{"type": "Feature", "properties": {}, "geometry": {"type": "Point", "coordinates": [11.805598209212349, 45.39035631031464]}}], "price": 1.819, "ultima_rilevazione": "17/05/2022 06:46:03"}, {"Gestore": "SERVIZI & GESTIONI ITALIA S.R.L.", "Bandiera": "Q8", "Tipo impianto": "Altro", "Indirizzo": "CORSO BOSTON 51 35142", "Nome impianto": "PADOVA-CORSO BOSTON 51", "Comune": "PADOVA", "idImpianto": 11757, "points": [{"type": "Feature", "properties": {}, "geometry": {"type": "Point", "coordinates": [11.840413212776184, 45.377970989535946]}}], "price": 1.799, "ultima_rilevazione": "17/05/2022 07:09:17"}, {"Gestore": "SAN MARCO PETROLI DISTRIBUZIONE S.R.L.", "Bandiera": "San Marco Petroli", "Tipo impianto": "Altro", "Indirizzo": "VIA GIOVANNI FALCONE  35036", "Nome impianto": "SMP MONTEGROTTO TERME", "Comune": "MONTEGROTTO TERME", "idImpianto": 46395, "points": [{"type": "Feature", "properties": {}, "geometry": {"type": "Point", "coordinates": [11.803982739958997, 45.32008961965416]}}], "price": 1.819, "ultima_rilevazione": "17/05/2022 07:26:15"}], "5": [{"Gestore": "CECCARELLO VALTER", "Bandiera": "Api-Ip", "Tipo impianto": "Altro", "Indirizzo": "VIA L. BENEDETTI 37 35030", "Nome impianto": "IP", "Comune": "GALZIGNANO TERME", "idImpianto": 19592, "points": [{"type": "Feature", "properties": {}, "geometry": {"type": "Point", "coordinates": [11.729530021548271, 45.30969592746091]}}], "price": 1.798, "ultima_rilevazione": "11/02/2022 11:37:56"}, {"Gestore": "DEFA S.A.S. DI FAVARATO BRUNO MORENO & C. CON SIGLA \"DEFA S.A.S.\"", "Bandiera": "Esso", "Tipo impianto": "Altro", "Indirizzo": "VIA GOITO 116 35142", "Nome impianto": "STAZ.SERVIZIO ESSO DE.FA SAS", "Comune": "PADOVA", "idImpianto": 22936, "points": [{"type": "Feature", "properties": {}, "geometry": {"type": "Point", "coordinates": [11.86686000793452, 45.38946737393962]}}], "price": 2.239, "ultima_rilevazione": "16/05/2022 09:37:39"}, {"Gestore": "SIMIONATO PAOLO & C. S.N.C.", "Bandiera": "Agip Eni", "Tipo impianto": "Altro", "Indirizzo": "VIA TRE PONTI 13/C 35136", "Nome impianto": "eni", "Comune": "PADOVA", "idImpianto": 21478, "points": [{"type": "Feature", "properties": {}, "geometry": {"type": "Point", "coordinates": [11.826000793917842, 45.41287906057255]}}], "price": 2.184, "ultima_rilevazione": "17/05/2022 07:51:42"}, {"Gestore": "COSTANTIN DISTRIBUZIONE E SERVIZI SRL", "Bandiera": "Costantin", "Tipo impianto": "Altro", "Indirizzo": "via dell'industria  2/a 35020", "Nome impianto": "COSTANTIN DUE CARRARE", "Comune": "DUE CARRARE", "idImpianto": 35289, "points": [{"type": "Feature", "properties": {}, "geometry": {"type": "Point", "coordinates": [11.85749553143978, 45.30036348994487]}}], "price": 1.839, "ultima_rilevazione": "16/05/2022 12:25:09"}, {"Gestore": "HASSAN PETROLI SNC DI HASSAN MUHAMMAD & C.", "Bandiera": "Esso", "Tipo impianto": "Altro", "Indirizzo": "VIA CHIESANUOVA 146 35136", "Nome impianto": "S.S. Esso Hassan Petroli SNC", "Comune": "PADOVA", "idImpianto": 45785, "points": [{"type": "Feature", "properties": {}, "geometry": {"type": "Point", "coordinates": [11.831731948313518, 45.41592268517871]}}], "price": 1.799, "ultima_rilevazione": "09/05/2022 07:59:57"}, {"Gestore": "EUROPAM S.R.L.", "Bandiera": "Europam", "Tipo impianto": "Altro", "Indirizzo": "VIA SQUERO 12, S.S.16 35041", "Nome impianto": "EUROPAM BATTAGLIA TERME", "Comune": "BATTAGLIA TERME", "idImpianto": 47938, "points": [{"type": "Feature", "properties": {}, "geometry": {"type": "Point", "coordinates": [11.788187930059442, 45.293498113132095]}}], "price": 1.837, "ultima_rilevazione": "10/05/2022 09:04:32"}, {"Gestore": "A.F. PETROLI S.P.A.", "Bandiera": "AF Petroli", "Tipo impianto": "Altro", "Indirizzo": "VIA GUIZZA 367 35125", "Nome impianto": "A.F. PETROLI", "Comune": "PADOVA", "idImpianto": 12363, "points": [{"type": "Feature", "properties": {}, "geometry": {"type": "Point", "coordinates": [11.872090436770575, 45.36736623925516]}}], "price": 1.807, "ultima_rilevazione": "16/05/2022 18:52:00"}, {"Gestore": "MIX S.N.C. DI BUSINARO LUCA & C.", "Bandiera": "Major", "Tipo impianto": "Altro", "Indirizzo": "VIA MINCANA 24/A 35020", "Nome impianto": "Major", "Comune": "DUE CARRARE", "idImpianto": 13637, "points": [{"type": "Feature", "properties": {}, "geometry": {"type": "Point", "coordinates": [11.814011847885126, 45.29269102343213]}}], "price": 1.804, "ultima_rilevazione": "12/05/2022 12:10:10"}, {"Gestore": "BRAGHETTA S.A.S. DI BRAGHETTA LUIGI & C.", "Bandiera": "Major", "Tipo impianto": "Altro", "Indirizzo": "VIA CONSELVANA 59 35020", "Nome impianto": "Major 1014 Maser\u00e0 Via Conselvana", "Comune": "MASERA' DI PADOVA", "idImpianto": 50812, "points": [{"type": "Feature", "properties": {}, "geometry": {"type": "Point", "coordinates": [11.863865781943634, 45.322509765001975]}}], "price": 1.809, "ultima_rilevazione": "13/05/2022 15:21:01"}, {"Gestore": "MAZZINI CRISTIANA", "Bandiera": "Q8", "Tipo impianto": "Altro", "Indirizzo": "VIA CONSELVANA 38 35020", "Nome impianto": "Stazione di servizio Q8", "Comune": "MASERA' DI PADOVA", "idImpianto": 40219, "points": [{"type": "Feature", "properties": {}, "geometry": {"type": "Point", "coordinates": [11.863984844180322, 45.32492805633712]}}], "price": 1.839, "ultima_rilevazione": "14/05/2022 06:07:00"}, {"Gestore": "ENSA CAR WASH DI MERLIN ENRICO", "Bandiera": "Q8", "Tipo impianto": "Altro", "Indirizzo": "VIALE DELLE TERME 3/A 35030", "Nome impianto": "STAZIONE SERVIZIO Q8", "Comune": "GALZIGNANO TERME", "idImpianto": 48447, "points": [{"type": "Feature", "properties": {}, "geometry": {"type": "Point", "coordinates": [11.746368857186884, 45.30380470316841]}}], "price": 1.799, "ultima_rilevazione": "14/05/2022 07:49:51"}, {"Gestore": "ENERGIA S.R.L.", "Bandiera": "BC", "Tipo impianto": "Altro", "Indirizzo": "VIA BEMBO ANGOLO VIA SALUTATI 104 35124", "Nome impianto": "BC BEMBO", "Comune": "PADOVA", "idImpianto": 39569, "points": [{"type": "Feature", "properties": {}, "geometry": {"type": "Point", "coordinates": [11.887574513491812, 45.3722903435151]}}], "price": 1.806, "ultima_rilevazione": "14/05/2022 09:40:02"}, {"Gestore": "GONDAL PETROLI DI ZAFAR ZILLE HUSNAIN", "Bandiera": "Agip Eni", "Tipo impianto": "Altro", "Indirizzo": "VIA PIETRO BEMBO 200 35124", "Nome impianto": "STAZIONE DI SERVIZIO ENI", "Comune": "PADOVA", "idImpianto": 50931, "points": [{"type": "Feature", "properties": {}, "geometry": {"type": "Point", "coordinates": [11.896019614428337, 45.35413328500809]}}], "price": 1.839, "ultima_rilevazione": "14/05/2022 12:04:37"}, {"Gestore": "METANO PADOVA SNC DI GRIGOLETTO ROBERTO & C.", "Bandiera": "Pompe Bianche", "Tipo impianto": "Altro", "Indirizzo": "VIA ADRIATICA 71 35125", "Nome impianto": "METANO", "Comune": "PADOVA", "idImpianto": 28450, "points": [{"type": "Feature", "properties": {}, "geometry": {"type": "Point", "coordinates": [11.861318349838257, 45.38346688882248]}}], "price": 1.799, "ultima_rilevazione": "15/05/2022 10:14:50"}, {"Gestore": "SATTIN MAURO", "Bandiera": "Agip Eni", "Tipo impianto": "Altro", "Indirizzo": "CORSO AUSTRALIA 76 35136", "Nome impianto": "Eni55291", "Comune": "PADOVA", "idImpianto": 8812, "points": [{"type": "Feature", "properties": {}, "geometry": {"type": "Point", "coordinates": [11.84851884841919, 45.40503348773557]}}], "price": 1.824, "ultima_rilevazione": "16/05/2022 07:40:23"}, {"Gestore": "A.F. PETROLI S.P.A.", "Bandiera": "AF Petroli", "Tipo impianto": "Altro", "Indirizzo": "VIA BIBANO 11 35030", "Nome impianto": "A.F. PETROLI", "Comune": "RUBANO", "idImpianto": 12364, "points": [{"type": "Feature", "properties": {}, "geometry": {"type": "Point", "coordinates": [11.78819032446745, 45.41360368762956]}}], "price": 1.807, "ultima_rilevazione": "16/05/2022 19:05:56"}, {"Gestore": "PITTON FABRIZIO S.N.C. DI MATTEO PITTON E C.", "Bandiera": "Q8", "Tipo impianto": "Altro", "Indirizzo": "VIA PIETRO BEMBO 80 35124", "Nome impianto": "PITTON FABRIZIO S.N.C DI MATTEO PITTON & C", "Comune": "PADOVA", "idImpianto": 30807, "points": [{"type": "Feature", "properties": {}, "geometry": {"type": "Point", "coordinates": [11.885796190509614, 45.37638649868096]}}], "price": 1.863, "ultima_rilevazione": "16/05/2022 08:07:14"}, {"Gestore": "ENERGIA S.R.L.", "Bandiera": "BC", "Tipo impianto": "Altro", "Indirizzo": "Via Pelosa , 14ter  ", "Nome impianto": "BC", "Comune": "SELVAZZANO DENTRO", "idImpianto": 10409, "points": [{"type": "Feature", "properties": {}, "geometry": {"type": "Point", "coordinates": [11.79563558844916, 45.41539856460397]}}], "price": 1.807, "ultima_rilevazione": "16/05/2022 19:00:02"}, {"Gestore": "ENI FUEL S.P.A.", "Bandiera": "Agip Eni", "Tipo impianto": "Altro", "Indirizzo": "VIA CHIESANUOVA SNC 35136", "Nome impianto": "57909 Chiesa Nuova", "Comune": "PADOVA", "idImpianto": 32532, "points": [{"type": "Feature", "properties": {}, "geometry": {"type": "Point", "coordinates": [11.842031779098534, 45.41179839675553]}}], "price": 1.829, "ultima_rilevazione": "16/05/2022 09:08:09"}, {"Gestore": "IP SERVICES S.R.L.", "Bandiera": "Api-Ip", "Tipo impianto": "Altro", "Indirizzo": "Via Chiesa Nuova 28 35136", "Nome impianto": "CHIESA NUOVA", "Comune": "PADOVA", "idImpianto": 5533, "points": [{"type": "Feature", "properties": {}, "geometry": {"type": "Point", "coordinates": [11.845740542327915, 45.4114644682442]}}], "price": 1.799, "ultima_rilevazione": "16/05/2022 12:06:05"}, {"Gestore": "ENERGIA S.R.L.", "Bandiera": "Q8", "Tipo impianto": "Altro", "Indirizzo": "VIA MINCANA 79 35020", "Nome impianto": "BC duecarrare", "Comune": "DUE CARRARE", "idImpianto": 28480, "points": [{"type": "Feature", "properties": {}, "geometry": {"type": "Point", "coordinates": [11.799256152114822, 45.29581679266476]}}], "price": 1.817, "ultima_rilevazione": "16/05/2022 18:55:02"}, {"Gestore": "C.D.A. DI DANTE CLAUDIO", "Bandiera": "Oil Italia", "Tipo impianto": "Altro", "Indirizzo": "VIA CHIESANUOVA 14 35136", "Nome impianto": "C.D.A di Dante Claudio", "Comune": "PADOVA", "idImpianto": 38428, "points": [{"type": "Feature", "properties": {}, "geometry": {"type": "Point", "coordinates": [11.8479300022384, 45.41113129351639]}}], "price": 1.795, "ultima_rilevazione": "16/05/2022 16:47:53"}, {"Gestore": "ZUIN SERVIZI S.R.L.", "Bandiera": "Pompe Bianche", "Tipo impianto": "Altro", "Indirizzo": "Via Della Croce  24 35030", "Nome impianto": "Zuin Servizi S.r.l.", "Comune": "CERVARESE SANTA CROCE", "idImpianto": 13116, "points": [{"type": "Feature", "properties": {}, "geometry": {"type": "Point", "coordinates": [11.708055403515573, 45.38903340673024]}}], "price": 1.799, "ultima_rilevazione": "16/05/2022 20:43:32"}, {"Gestore": "CARRARO GIANCARLO", "Bandiera": "Agip Eni", "Tipo impianto": "Altro", "Indirizzo": "VIA SORIO 44 35141", "Nome impianto": "CARRARO GIANCARLO - ENI DISTRIBUTORE", "Comune": "PADOVA", "idImpianto": 51051, "points": [{"type": "Feature", "properties": {}, "geometry": {"type": "Point", "coordinates": [11.858607550926196, 45.40199167482786]}}], "price": 1.824, "ultima_rilevazione": "16/05/2022 20:54:12"}, {"Gestore": "F.M. DI MASIN FRANCO & C. SNC", "Bandiera": "Api-Ip", "Tipo impianto": "Altro", "Indirizzo": "via Goito 54 35142", "Nome impianto": "IP di Masin Franco goito", "Comune": "PADOVA", "idImpianto": 49977, "points": [{"type": "Feature", "properties": {}, "geometry": {"type": "Point", "coordinates": [11.865779121995391, 45.39420106941464]}}], "price": 1.829, "ultima_rilevazione": "16/05/2022 21:59:42"}, {"Gestore": "SERVIZI & GESTIONI ITALIA S.R.L.", "Bandiera": "Q8", "Tipo impianto": "Altro", "Indirizzo": "VIA DEI COLLI 41 35143", "Nome impianto": "VIA DEI COLLI 41 - PADOVA", "Comune": "PADOVA", "idImpianto": 29396, "points": [{"type": "Feature", "properties": {}, "geometry": {"type": "Point", "coordinates": [11.83477316197127, 45.39715575074703]}}], "price": 1.819, "ultima_rilevazione": "17/05/2022 01:40:03"}, {"Gestore": "SERVIZI & GESTIONI ITALIA srl", "Bandiera": "Q8", "Tipo impianto": "Altro", "Indirizzo": "VIA DEI COLLI SNC 35100", "Nome impianto": "PADOVA VIA DEI COLLI", "Comune": "PADOVA", "idImpianto": 6498, "points": [{"type": "Feature", "properties": {}, "geometry": {"type": "Point", "coordinates": [11.83367943617634, 45.39718637586125]}}], "price": 1.819, "ultima_rilevazione": "17/05/2022 01:40:04"}, {"Gestore": "GESTIONI INNOVATIVE ITALIA S.R.L.", "Bandiera": "Agip Eni", "Tipo impianto": "Altro", "Indirizzo": "VIA GUIZZA 268, 35125", "Nome impianto": "PV 55948", "Comune": "PADOVA", "idImpianto": 24933, "points": [{"type": "Feature", "properties": {}, "geometry": {"type": "Point", "coordinates": [11.870287656784058, 45.37471600175528]}}], "price": 1.829, "ultima_rilevazione": "17/05/2022 06:02:06"}, {"Gestore": "T.D.M. S.R.L.", "Bandiera": "Tamoil", "Tipo impianto": "Altro", "Indirizzo": "SR.11 PADANA SUP. DA KM. 378+215 A378+221 LATO SX  35030", "Nome impianto": "7909", "Comune": "RUBANO", "idImpianto": 45499, "points": [{"type": "Feature", "properties": {}, "geometry": {"type": "Point", "coordinates": [11.803287574205, 45.42275753281246]}}], "price": 1.819, "ultima_rilevazione": "17/05/2022 07:32:07"}, {"Gestore": "MARTINELLO CESARINO & MASSIMO SNC", "Bandiera": "Esso", "Tipo impianto": "Altro", "Indirizzo": "VIA COSTA SENZA N.C. 35124", "Nome impianto": "ESSO MARTINELLO CESARINO E MASSIMO SNC", "Comune": "PADOVA", "idImpianto": 14279, "points": [{"type": "Feature", "properties": {}, "geometry": {"type": "Point", "coordinates": [11.870895100086273, 45.38992420750324]}}], "price": 1.819, "ultima_rilevazione": "17/05/2022 07:47:45"}]}, "Metano": {"1": [{"Gestore": "BRIXIA FINANZIARIA S.R.L.", "Bandiera": "Agip Eni", "Tipo impianto": "Altro", "Indirizzo": "Via Battaglia 201 35020", "Nome impianto": "BRIXIA FINANZIARIA SRL - Albignasego", "Comune": "ALBIGNASEGO", "idImpianto": 44063, "points": [{"type": "Feature", "properties": {}, "geometry": {"type": "Point", "coordinates": [11.825482588532054, 45.340783699483]}}], "price": 1.779, "ultima_rilevazione": "16/05/2022 09:00:15"}, {"Gestore": "F.B. S.R.L.", "Bandiera": "Repsol", "Tipo impianto": "Altro", "Indirizzo": "VIA ROMANA APONENSE 131 35142", "Nome impianto": "Repsol", "Comune": "PADOVA", "idImpianto": 50380, "points": [{"type": "Feature", "properties": {}, "geometry": {"type": "Point", "coordinates": [11.826863132840275, 45.36690713510697]}}], "price": 1.829, "ultima_rilevazione": "16/05/2022 19:05:07"}], "3": [{"Gestore": "ENI FUEL S.P.A.", "Bandiera": "Agip Eni", "Tipo impianto": "Autostradale", "Indirizzo": "Autostrada A13 BOLOGNA-PADOVA, Km. 98+200, dir. Sud 35020", "Nome impianto": "S.PELAGIO OVEST", "Comune": "DUE CARRARE", "idImpianto": 3862, "points": [{"type": "Feature", "properties": {}, "geometry": {"type": "Point", "coordinates": [11.825741529464722, 45.31577731437248]}}], "price": 2.223, "ultima_rilevazione": "17/05/2022 05:38:01"}], "5": [{"Gestore": "A.F. PETROLI S.P.A.", "Bandiera": "AF Petroli", "Tipo impianto": "Altro", "Indirizzo": "VIA GUIZZA 367 35125", "Nome impianto": "A.F. PETROLI", "Comune": "PADOVA", "idImpianto": 12363, "points": [{"type": "Feature", "properties": {}, "geometry": {"type": "Point", "coordinates": [11.872090436770575, 45.36736623925516]}}], "price": 1.939, "ultima_rilevazione": "16/05/2022 18:52:00"}, {"Gestore": "ENERGIA S.R.L.", "Bandiera": "BC", "Tipo impianto": "Altro", "Indirizzo": "VIA BEMBO ANGOLO VIA SALUTATI 104 35124", "Nome impianto": "BC BEMBO", "Comune": "PADOVA", "idImpianto": 39569, "points": [{"type": "Feature", "properties": {}, "geometry": {"type": "Point", "coordinates": [11.887574513491812, 45.3722903435151]}}], "price": 1.938, "ultima_rilevazione": "14/05/2022 09:40:02"}, {"Gestore": "GONDAL PETROLI DI ZAFAR ZILLE HUSNAIN", "Bandiera": "Agip Eni", "Tipo impianto": "Altro", "Indirizzo": "VIA PIETRO BEMBO 200 35124", "Nome impianto": "STAZIONE DI SERVIZIO ENI", "Comune": "PADOVA", "idImpianto": 50931, "points": [{"type": "Feature", "properties": {}, "geometry": {"type": "Point", "coordinates": [11.896019614428337, 45.35413328500809]}}], "price": 2.237, "ultima_rilevazione": "14/05/2022 12:04:37"}, {"Gestore": "METANO PADOVA SNC DI GRIGOLETTO ROBERTO & C.", "Bandiera": "Pompe Bianche", "Tipo impianto": "Altro", "Indirizzo": "VIA ADRIATICA 71 35125", "Nome impianto": "METANO", "Comune": "PADOVA", "idImpianto": 28450, "points": [{"type": "Feature", "properties": {}, "geometry": {"type": "Point", "coordinates": [11.861318349838257, 45.38346688882248]}}], "price": 2.099, "ultima_rilevazione": "15/05/2022 10:14:50"}, {"Gestore": "ENERGIA S.R.L.", "Bandiera": "BC", "Tipo impianto": "Altro", "Indirizzo": "Via Pelosa , 14ter  ", "Nome impianto": "BC", "Comune": "SELVAZZANO DENTRO", "idImpianto": 10409, "points": [{"type": "Feature", "properties": {}, "geometry": {"type": "Point", "coordinates": [11.79563558844916, 45.41539856460397]}}], "price": 2.147, "ultima_rilevazione": "16/05/2022 19:00:02"}, {"Gestore": "ZUIN SERVIZI S.R.L.", "Bandiera": "Pompe Bianche", "Tipo impianto": "Altro", "Indirizzo": "Via Della Croce  24 35030", "Nome impianto": "Zuin Servizi S.r.l.", "Comune": "CERVARESE SANTA CROCE", "idImpianto": 13116, "points": [{"type": "Feature", "properties": {}, "geometry": {"type": "Point", "coordinates": [11.708055403515573, 45.38903340673024]}}], "price": 1.859, "ultima_rilevazione": "16/05/2022 20:43:32"}]}, "GPL": {"1": [{"Gestore": "BRIXIA FINANZIARIA S.R.L.", "Bandiera": "Agip Eni", "Tipo impianto": "Altro", "Indirizzo": "Via Battaglia 201 35020", "Nome impianto": "BRIXIA FINANZIARIA SRL - Albignasego", "Comune": "ALBIGNASEGO", "idImpianto": 44063, "points": [{"type": "Feature", "properties": {}, "geometry": {"type": "Point", "coordinates": [11.825482588532054, 45.340783699483]}}], "price": 0.799, "ultima_rilevazione": "16/05/2022 09:00:15"}, {"Gestore": "BORTOLAMEI SRL", "Bandiera": "Benza", "Tipo impianto": "Altro", "Indirizzo": "VIA EUGANEA 167 35030", "Nome impianto": "BENZA - SELVAZZANO DENTRO (PD)", "Comune": "SELVAZZANO DENTRO", "idImpianto": 37666, "points": [{"type": "Feature", "properties": {}, "geometry": {"type": "Point", "coordinates": [11.781540848934924, 45.38391919137528]}}], "price": 0.799, "ultima_rilevazione": "16/05/2022 13:17:48"}, {"Gestore": "F.B. S.R.L.", "Bandiera": "Repsol", "Tipo impianto": "Altro", "Indirizzo": "VIA ROMANA APONENSE 131 35142", "Nome impianto": "Repsol", "Comune": "PADOVA", "idImpianto": 50380, "points": [{"type": "Feature", "properties": {}, "geometry": {"type": "Point", "coordinates": [11.826863132840275, 45.36690713510697]}}], "price": 0.849, "ultima_rilevazione": "16/05/2022 19:05:07"}, {"Gestore": "TISO ANDREA", "Bandiera": "Tamoil", "Tipo impianto": "Altro", "Indirizzo": "VIA ROMA 108/A 35036", "Nome impianto": "Tiso Andrea", "Comune": "MONTEGROTTO TERME", "idImpianto": 10729, "points": [{"type": "Feature", "properties": {}, "geometry": {"type": "Point", "coordinates": [11.794179796364574, 45.33994198164693]}}], "price": 0.829, "ultima_rilevazione": "17/05/2022 07:34:06"}, {"Gestore": "VIOLATTO RANIERI", "Bandiera": "Agip Eni", "Tipo impianto": "Altro", "Indirizzo": "VIA MONTANARA 8 35031", "Nome impianto": "AREA DI SERVIZIO AGIP", "Comune": "ABANO TERME", "idImpianto": 51134, "points": [{"type": "Feature", "properties": {}, "geometry": {"type": "Point", "coordinates": [11.771294111422057, 45.38081588178324]}}], "price": 0.822, "ultima_rilevazione": "17/05/2022 07:47:15"}], "3": [{"Gestore": "A.F. PETROLI S.P.A.", "Bandiera": "AF Petroli", "Tipo impianto": "Strada Statale", "Indirizzo": "16 Adriatica, Km. 11+376 lato sx, padova 35020", "Nome impianto": "A.F PETROLI", "Comune": "DUE CARRARE", "idImpianto": 45952, "points": [{"type": "Feature", "properties": {}, "geometry": {"type": "Point", "coordinates": [11.80961704008746, 45.321071393694496]}}], "price": 0.797, "ultima_rilevazione": "16/05/2022 19:04:26"}, {"Gestore": "P.G.M. CARBURANTI S.A.S. DI PIERANTONI MARIA & C.", "Bandiera": "Agip Eni", "Tipo impianto": "Altro", "Indirizzo": "VIA SCAPACCHIO' EST 43/A 35030", "Nome impianto": "PGMCARBURANTI SAS", "Comune": "SACCOLONGO", "idImpianto": 19355, "points": [{"type": "Feature", "properties": {}, "geometry": {"type": "Point", "coordinates": [11.762642562389374, 45.3973267214879]}}], "price": 0.789, "ultima_rilevazione": "13/05/2022 19:43:04"}, {"Gestore": "BELLUCO S.N.C. DI BELLUCO ANTONIO & C.", "Bandiera": "Q8", "Tipo impianto": "Autostradale", "Indirizzo": "Autostrada A13 BOLOGNA-PADOVA, Km. 98, dir. padova 35020", "Nome impianto": "S.PELAGIO EST", "Comune": "DUE CARRARE", "idImpianto": 29434, "points": [{"type": "Feature", "properties": {}, "geometry": {"type": "Point", "coordinates": [11.827602982521055, 45.31608475216657]}}], "price": 0.843, "ultima_rilevazione": "14/05/2022 04:30:04"}, {"Gestore": "ENI FUEL S.P.A.", "Bandiera": "Agip Eni", "Tipo impianto": "Autostradale", "Indirizzo": "Autostrada A13 BOLOGNA-PADOVA, Km. 98+200, dir. Sud 35020", "Nome impianto": "S.PELAGIO OVEST", "Comune": "DUE CARRARE", "idImpianto": 3862, "points": [{"type": "Feature", "properties": {}, "geometry": {"type": "Point", "coordinates": [11.825741529464722, 45.31577731437248]}}], "price": 0.855, "ultima_rilevazione": "17/05/2022 05:38:01"}, {"Gestore": "SAN MARCO PETROLI DISTRIBUZIONE S.R.L.", "Bandiera": "San Marco Petroli", "Tipo impianto": "Altro", "Indirizzo": "VIA GIOVANNI FALCONE  35036", "Nome impianto": "SMP MONTEGROTTO TERME", "Comune": "MONTEGROTTO TERME", "idImpianto": 46395, "points": [{"type": "Feature", "properties": {}, "geometry": {"type": "Point", "coordinates": [11.803982739958997, 45.32008961965416]}}], "price": 0.819, "ultima_rilevazione": "17/05/2022 07:26:15"}, {"Gestore": "BLU S.N.C. DI ZANARDI ANDREA & C.", "Bandiera": "Agip Eni", "Tipo impianto": "Altro", "Indirizzo": "VIA ARMISTIZIO 180 35142", "Nome impianto": "eni blusnc", "Comune": "PADOVA", "idImpianto": 17621, "points": [{"type": "Feature", "properties": {}, "geometry": {"type": "Point", "coordinates": [11.849324852228165, 45.37718797071251]}}], "price": 0.822, "ultima_rilevazione": "17/05/2022 07:32:05"}, {"Gestore": "SAN MARCO PETROLI DISTRIBUZIONE S.R.L.", "Bandiera": "San Marco Petroli", "Tipo impianto": "Altro", "Indirizzo": "VIA MONTEGROTTO 164/A 35038", "Nome impianto": "SMP TORREGLIA", "Comune": "TORREGLIA", "idImpianto": 5192, "points": [{"type": "Feature", "properties": {}, "geometry": {"type": "Point", "coordinates": [11.751162707805634, 45.33410674470022]}}], "price": 0.829, "ultima_rilevazione": "17/05/2022 07:44:09"}], "5": [{"Gestore": "ENSA CAR WASH DI MERLIN ENRICO", "Bandiera": "Q8", "Tipo impianto": "Altro", "Indirizzo": "VIALE DELLE TERME 3/A 35030", "Nome impianto": "STAZIONE SERVIZIO Q8", "Comune": "GALZIGNANO TERME", "idImpianto": 48447, "points": [{"type": "Feature", "properties": {}, "geometry": {"type": "Point", "coordinates": [11.746368857186884, 45.30380470316841]}}], "price": 0.819, "ultima_rilevazione": "14/05/2022 07:49:51"}, {"Gestore": "ENERGIA S.R.L.", "Bandiera": "BC", "Tipo impianto": "Altro", "Indirizzo": "VIA BEMBO ANGOLO VIA SALUTATI 104 35124", "Nome impianto": "BC BEMBO", "Comune": "PADOVA", "idImpianto": 39569, "points": [{"type": "Feature", "properties": {}, "geometry": {"type": "Point", "coordinates": [11.887574513491812, 45.3722903435151]}}], "price": 0.796, "ultima_rilevazione": "14/05/2022 09:40:02"}, {"Gestore": "GONDAL PETROLI DI ZAFAR ZILLE HUSNAIN", "Bandiera": "Agip Eni", "Tipo impianto": "Altro", "Indirizzo": "VIA PIETRO BEMBO 200 35124", "Nome impianto": "STAZIONE DI SERVIZIO ENI", "Comune": "PADOVA", "idImpianto": 50931, "points": [{"type": "Feature", "properties": {}, "geometry": {"type": "Point", "coordinates": [11.896019614428337, 45.35413328500809]}}], "price": 0.799, "ultima_rilevazione": "14/05/2022 12:04:37"}, {"Gestore": "METANO PADOVA SNC DI GRIGOLETTO ROBERTO & C.", "Bandiera": "Pompe Bianche", "Tipo impianto": "Altro", "Indirizzo": "VIA ADRIATICA 71 35125", "Nome impianto": "METANO", "Comune": "PADOVA", "idImpianto": 28450, "points": [{"type": "Feature", "properties": {}, "geometry": {"type": "Point", "coordinates": [11.861318349838257, 45.38346688882248]}}], "price": 0.797, "ultima_rilevazione": "15/05/2022 10:14:50"}, {"Gestore": "A.F. PETROLI S.P.A.", "Bandiera": "AF Petroli", "Tipo impianto": "Altro", "Indirizzo": "VIA BIBANO 11 35030", "Nome impianto": "A.F. PETROLI", "Comune": "RUBANO", "idImpianto": 12364, "points": [{"type": "Feature", "properties": {}, "geometry": {"type": "Point", "coordinates": [11.78819032446745, 45.41360368762956]}}], "price": 0.793, "ultima_rilevazione": "16/05/2022 19:05:56"}, {"Gestore": "ENERGIA S.R.L.", "Bandiera": "BC", "Tipo impianto": "Altro", "Indirizzo": "Via Pelosa , 14ter  ", "Nome impianto": "BC", "Comune": "SELVAZZANO DENTRO", "idImpianto": 10409, "points": [{"type": "Feature", "properties": {}, "geometry": {"type": "Point", "coordinates": [11.79563558844916, 45.41539856460397]}}], "price": 0.797, "ultima_rilevazione": "16/05/2022 19:00:02"}, {"Gestore": "A.F. PETROLI S.P.A.", "Bandiera": "AF Petroli", "Tipo impianto": "Altro", "Indirizzo": "VIA GUIZZA 367 35125", "Nome impianto": "A.F. PETROLI", "Comune": "PADOVA", "idImpianto": 12363, "points": [{"type": "Feature", "properties": {}, "geometry": {"type": "Point", "coordinates": [11.872090436770575, 45.36736623925516]}}], "price": 0.797, "ultima_rilevazione": "16/05/2022 18:52:00"}, {"Gestore": "ENERGIA S.R.L.", "Bandiera": "Q8", "Tipo impianto": "Altro", "Indirizzo": "VIA MINCANA 79 35020", "Nome impianto": "BC duecarrare", "Comune": "DUE CARRARE", "idImpianto": 28480, "points": [{"type": "Feature", "properties": {}, "geometry": {"type": "Point", "coordinates": [11.799256152114822, 45.29581679266476]}}], "price": 0.797, "ultima_rilevazione": "16/05/2022 18:55:02"}, {"Gestore": "ZUIN SERVIZI S.R.L.", "Bandiera": "Pompe Bianche", "Tipo impianto": "Altro", "Indirizzo": "Via Della Croce  24 35030", "Nome impianto": "Zuin Servizi S.r.l.", "Comune": "CERVARESE SANTA CROCE", "idImpianto": 13116, "points": [{"type": "Feature", "properties": {}, "geometry": {"type": "Point", "coordinates": [11.708055403515573, 45.38903340673024]}}], "price": 0.799, "ultima_rilevazione": "16/05/2022 20:43:32"}, {"Gestore": "T.D.M. S.R.L.", "Bandiera": "Tamoil", "Tipo impianto": "Altro", "Indirizzo": "SR.11 PADANA SUP. DA KM. 378+215 A378+221 LATO SX  35030", "Nome impianto": "7909", "Comune": "RUBANO", "idImpianto": 45499, "points": [{"type": "Feature", "properties": {}, "geometry": {"type": "Point", "coordinates": [11.803287574205, 45.42275753281246]}}], "price": 0.809, "ultima_rilevazione": "17/05/2022 07:32:07"}]}, "Blue Diesel": {"1": [{"Gestore": "BRIXIA FINANZIARIA S.R.L.", "Bandiera": "Agip Eni", "Tipo impianto": "Altro", "Indirizzo": "Via Battaglia 201 35020", "Nome impianto": "BRIXIA FINANZIARIA SRL - Albignasego", "Comune": "ALBIGNASEGO", "idImpianto": 44063, "points": [{"type": "Feature", "properties": {}, "geometry": {"type": "Point", "coordinates": [11.825482588532054, 45.340783699483]}}], "price": 1.929, "ultima_rilevazione": "16/05/2022 09:00:15"}, {"Gestore": "VIOLATTO RANIERI", "Bandiera": "Agip Eni", "Tipo impianto": "Altro", "Indirizzo": "VIA MONTANARA 8 35031", "Nome impianto": "AREA DI SERVIZIO AGIP", "Comune": "ABANO TERME", "idImpianto": 51134, "points": [{"type": "Feature", "properties": {}, "geometry": {"type": "Point", "coordinates": [11.771294111422057, 45.38081588178324]}}], "price": 1.924, "ultima_rilevazione": "17/05/2022 07:47:15"}], "3": [{"Gestore": "BERTOCCO ROBERTO", "Bandiera": "Agip Eni", "Tipo impianto": "Altro", "Indirizzo": "VIA ROMA 270 35020", "Nome impianto": "ENI DI BERTOCCO ROBERTO", "Comune": "ALBIGNASEGO", "idImpianto": 21792, "points": [{"type": "Feature", "properties": {}, "geometry": {"type": "Point", "coordinates": [11.866609677672386, 45.3420815402777]}}], "price": 2.004, "ultima_rilevazione": "15/05/2022 12:39:00"}, {"Gestore": "ENI FUEL S.P.A.", "Bandiera": "Agip Eni", "Tipo impianto": "Autostradale", "Indirizzo": "Autostrada A13 BOLOGNA-PADOVA, Km. 98+200, dir. Sud 35020", "Nome impianto": "S.PELAGIO OVEST", "Comune": "DUE CARRARE", "idImpianto": 3862, "points": [{"type": "Feature", "properties": {}, "geometry": {"type": "Point", "coordinates": [11.825741529464722, 45.31577731437248]}}], "price": 2.029, "ultima_rilevazione": "17/05/2022 05:38:01"}, {"Gestore": "BLU S.N.C. DI ZANARDI ANDREA & C.", "Bandiera": "Agip Eni", "Tipo impianto": "Altro", "Indirizzo": "VIA ARMISTIZIO 180 35142", "Nome impianto": "eni blusnc", "Comune": "PADOVA", "idImpianto": 17621, "points": [{"type": "Feature", "properties": {}, "geometry": {"type": "Point", "coordinates": [11.849324852228165, 45.37718797071251]}}], "price": 2.024, "ultima_rilevazione": "17/05/2022 07:32:05"}, {"Gestore": "BERTOCCO ROBERTO", "Bandiera": "Agip Eni", "Tipo impianto": "Altro", "Indirizzo": "VIA ROMA 270 35020", "Nome impianto": "ENI DI BERTOCCO ROBERTO", "Comune": "ALBIGNASEGO", "idImpianto": 21792, "points": [{"type": "Feature", "properties": {}, "geometry": {"type": "Point", "coordinates": [11.866609677672386, 45.3420815402777]}}], "price": 1.924, "ultima_rilevazione": "15/05/2022 12:39:00"}, {"Gestore": "BLU S.N.C. DI ZANARDI ANDREA & C.", "Bandiera": "Agip Eni", "Tipo impianto": "Altro", "Indirizzo": "VIA ARMISTIZIO 180 35142", "Nome impianto": "eni blusnc", "Comune": "PADOVA", "idImpianto": 17621, "points": [{"type": "Feature", "properties": {}, "geometry": {"type": "Point", "coordinates": [11.849324852228165, 45.37718797071251]}}], "price": 1.924, "ultima_rilevazione": "17/05/2022 07:32:05"}, {"Gestore": "ENI FUEL S.P.A.", "Bandiera": "Agip Eni", "Tipo impianto": "Autostradale", "Indirizzo": "Autostrada A13 BOLOGNA-PADOVA, Km. 98+200, dir. Sud 35020", "Nome impianto": "S.PELAGIO OVEST", "Comune": "DUE CARRARE", "idImpianto": 3862, "points": [{"type": "Feature", "properties": {}, "geometry": {"type": "Point", "coordinates": [11.825741529464722, 45.31577731437248]}}], "price": 1.969, "ultima_rilevazione": "17/05/2022 05:38:01"}], "5": [{"Gestore": "SIMIONATO PAOLO & C. S.N.C.", "Bandiera": "Agip Eni", "Tipo impianto": "Altro", "Indirizzo": "VIA TRE PONTI 13/C 35136", "Nome impianto": "eni", "Comune": "PADOVA", "idImpianto": 21478, "points": [{"type": "Feature", "properties": {}, "geometry": {"type": "Point", "coordinates": [11.826000793917842, 45.41287906057255]}}], "price": 2.364, "ultima_rilevazione": "17/05/2022 07:51:42"}, {"Gestore": "GONDAL PETROLI DI ZAFAR ZILLE HUSNAIN", "Bandiera": "Agip Eni", "Tipo impianto": "Altro", "Indirizzo": "VIA PIETRO BEMBO 200 35124", "Nome impianto": "STAZIONE DI SERVIZIO ENI", "Comune": "PADOVA", "idImpianto": 50931, "points": [{"type": "Feature", "properties": {}, "geometry": {"type": "Point", "coordinates": [11.896019614428337, 45.35413328500809]}}], "price": 1.979, "ultima_rilevazione": "14/05/2022 12:04:37"}, {"Gestore": "SATTIN MAURO", "Bandiera": "Agip Eni", "Tipo impianto": "Altro", "Indirizzo": "CORSO AUSTRALIA 76 35136", "Nome impianto": "Eni55291", "Comune": "PADOVA", "idImpianto": 8812, "points": [{"type": "Feature", "properties": {}, "geometry": {"type": "Point", "coordinates": [11.84851884841919, 45.40503348773557]}}], "price": 2.004, "ultima_rilevazione": "16/05/2022 07:40:23"}, {"Gestore": "SIMIONATO PAOLO & C. S.N.C.", "Bandiera": "Agip Eni", "Tipo impianto": "Altro", "Indirizzo": "VIA TRE PONTI 13/C 35136", "Nome impianto": "eni", "Comune": "PADOVA", "idImpianto": 21478, "points": [{"type": "Feature", "properties": {}, "geometry": {"type": "Point", "coordinates": [11.826000793917842, 45.41287906057255]}}], "price": 2.284, "ultima_rilevazione": "17/05/2022 07:51:42"}, {"Gestore": "GONDAL PETROLI DI ZAFAR ZILLE HUSNAIN", "Bandiera": "Agip Eni", "Tipo impianto": "Altro", "Indirizzo": "VIA PIETRO BEMBO 200 35124", "Nome impianto": "STAZIONE DI SERVIZIO ENI", "Comune": "PADOVA", "idImpianto": 50931, "points": [{"type": "Feature", "properties": {}, "geometry": {"type": "Point", "coordinates": [11.896019614428337, 45.35413328500809]}}], "price": 1.939, "ultima_rilevazione": "14/05/2022 12:04:37"}, {"Gestore": "SATTIN MAURO", "Bandiera": "Agip Eni", "Tipo impianto": "Altro", "Indirizzo": "CORSO AUSTRALIA 76 35136", "Nome impianto": "Eni55291", "Comune": "PADOVA", "idImpianto": 8812, "points": [{"type": "Feature", "properties": {}, "geometry": {"type": "Point", "coordinates": [11.84851884841919, 45.40503348773557]}}], "price": 1.924, "ultima_rilevazione": "16/05/2022 07:40:23"}, {"Gestore": "ENI FUEL S.P.A.", "Bandiera": "Agip Eni", "Tipo impianto": "Altro", "Indirizzo": "VIA CHIESANUOVA SNC 35136", "Nome impianto": "57909 Chiesa Nuova", "Comune": "PADOVA", "idImpianto": 32532, "points": [{"type": "Feature", "properties": {}, "geometry": {"type": "Point", "coordinates": [11.842031779098534, 45.41179839675553]}}], "price": 1.929, "ultima_rilevazione": "16/05/2022 09:08:09"}, {"Gestore": "GESTIONI INNOVATIVE ITALIA S.R.L.", "Bandiera": "Agip Eni", "Tipo impianto": "Altro", "Indirizzo": "VIA GUIZZA 268, 35125", "Nome impianto": "PV 55948", "Comune": "PADOVA", "idImpianto": 24933, "points": [{"type": "Feature", "properties": {}, "geometry": {"type": "Point", "coordinates": [11.870287656784058, 45.37471600175528]}}], "price": 1.929, "ultima_rilevazione": "17/05/2022 06:02:06"}]}, "Diesel High Quality": {"1": [], "3": [{"Gestore": "BELLUCO S.N.C. DI BELLUCO ANTONIO & C.", "Bandiera": "Q8", "Tipo impianto": "Autostradale", "Indirizzo": "Autostrada A13 BOLOGNA-PADOVA, Km. 98, dir. padova 35020", "Nome impianto": "S.PELAGIO EST", "Comune": "DUE CARRARE", "idImpianto": 29434, "points": [{"type": "Feature", "properties": {}, "geometry": {"type": "Point", "coordinates": [11.827602982521055, 45.31608475216657]}}], "price": 2.134, "ultima_rilevazione": "14/05/2022 04:30:04"}, {"Gestore": "SERVIZI & GESTIONI ITALIA S.R.L.", "Bandiera": "Q8", "Tipo impianto": "Altro", "Indirizzo": "CORSO BOSTON 51 35142", "Nome impianto": "PADOVA-CORSO BOSTON 51", "Comune": "PADOVA", "idImpianto": 11757, "points": [{"type": "Feature", "properties": {}, "geometry": {"type": "Point", "coordinates": [11.840413212776184, 45.377970989535946]}}], "price": 2.099, "ultima_rilevazione": "17/05/2022 07:09:17"}, {"Gestore": "BELLUCO S.N.C. DI BELLUCO ANTONIO & C.", "Bandiera": "Q8", "Tipo impianto": "Autostradale", "Indirizzo": "Autostrada A13 BOLOGNA-PADOVA, Km. 98, dir. padova 35020", "Nome impianto": "S.PELAGIO EST", "Comune": "DUE CARRARE", "idImpianto": 29434, "points": [{"type": "Feature", "properties": {}, "geometry": {"type": "Point", "coordinates": [11.827602982521055, 45.31608475216657]}}], "price": 2.146, "ultima_rilevazione": "14/05/2022 04:30:04"}, {"Gestore": "SERVIZI & GESTIONI ITALIA S.R.L.", "Bandiera": "Q8", "Tipo impianto": "Altro", "Indirizzo": "CORSO BOSTON 51 35142", "Nome impianto": "PADOVA-CORSO BOSTON 51", "Comune": "PADOVA", "idImpianto": 11757, "points": [{"type": "Feature", "properties": {}, "geometry": {"type": "Point", "coordinates": [11.840413212776184, 45.377970989535946]}}], "price": 2.149, "ultima_rilevazione": "17/05/2022 07:09:17"}, {"Gestore": "EGI-2GO S.R.L.", "Bandiera": "Esso", "Tipo impianto": "Altro", "Indirizzo": "VIA GUIZZA 378 35125", "Nome impianto": "PD-Guizza", "Comune": "PADOVA", "idImpianto": 48797, "points": [{"type": "Feature", "properties": {}, "geometry": {"type": "Point", "coordinates": [11.870645063823702, 45.36272869262199]}}], "price": 1.959, "ultima_rilevazione": "16/05/2022 08:22:45"}], "5": [{"Gestore": "MAZZINI CRISTIANA", "Bandiera": "Q8", "Tipo impianto": "Altro", "Indirizzo": "VIA CONSELVANA 38 35020", "Nome impianto": "Stazione di servizio Q8", "Comune": "MASERA' DI PADOVA", "idImpianto": 40219, "points": [{"type": "Feature", "properties": {}, "geometry": {"type": "Point", "coordinates": [11.863984844180322, 45.32492805633712]}}], "price": 2.149, "ultima_rilevazione": "14/05/2022 06:07:00"}, {"Gestore": "ENSA CAR WASH DI MERLIN ENRICO", "Bandiera": "Q8", "Tipo impianto": "Altro", "Indirizzo": "VIALE DELLE TERME 3/A 35030", "Nome impianto": "STAZIONE SERVIZIO Q8", "Comune": "GALZIGNANO TERME", "idImpianto": 48447, "points": [{"type": "Feature", "properties": {}, "geometry": {"type": "Point", "coordinates": [11.746368857186884, 45.30380470316841]}}], "price": 2.049, "ultima_rilevazione": "14/05/2022 07:49:51"}, {"Gestore": "PITTON FABRIZIO S.N.C. DI MATTEO PITTON E C.", "Bandiera": "Q8", "Tipo impianto": "Altro", "Indirizzo": "VIA PIETRO BEMBO 80 35124", "Nome impianto": "PITTON FABRIZIO S.N.C DI MATTEO PITTON & C", "Comune": "PADOVA", "idImpianto": 30807, "points": [{"type": "Feature", "properties": {}, "geometry": {"type": "Point", "coordinates": [11.885796190509614, 45.37638649868096]}}], "price": 2.084, "ultima_rilevazione": "16/05/2022 08:07:14"}, {"Gestore": "PITTON FABRIZIO S.N.C. DI MATTEO PITTON E C.", "Bandiera": "Q8", "Tipo impianto": "Altro", "Indirizzo": "VIA PIETRO BEMBO 80 35124", "Nome impianto": "PITTON FABRIZIO S.N.C DI MATTEO PITTON & C", "Comune": "PADOVA", "idImpianto": 30807, "points": [{"type": "Feature", "properties": {}, "geometry": {"type": "Point", "coordinates": [11.885796190509614, 45.37638649868096]}}], "price": 2.094, "ultima_rilevazione": "16/05/2022 08:07:14"}, {"Gestore": "HASSAN PETROLI SNC DI HASSAN MUHAMMAD & C.", "Bandiera": "Esso", "Tipo impianto": "Altro", "Indirizzo": "VIA CHIESANUOVA 146 35136", "Nome impianto": "S.S. Esso Hassan Petroli SNC", "Comune": "PADOVA", "idImpianto": 45785, "points": [{"type": "Feature", "properties": {}, "geometry": {"type": "Point", "coordinates": [11.831731948313518, 45.41592268517871]}}], "price": 1.949, "ultima_rilevazione": "09/05/2022 07:59:57"}, {"Gestore": "DEFA S.A.S. DI FAVARATO BRUNO MORENO & C. CON SIGLA \"DEFA S.A.S.\"", "Bandiera": "Esso", "Tipo impianto": "Altro", "Indirizzo": "VIA GOITO 116 35142", "Nome impianto": "STAZ.SERVIZIO ESSO DE.FA SAS", "Comune": "PADOVA", "idImpianto": 22936, "points": [{"type": "Feature", "properties": {}, "geometry": {"type": "Point", "coordinates": [11.86686000793452, 45.38946737393962]}}], "price": 1.969, "ultima_rilevazione": "16/05/2022 09:37:39"}]}, "Gasolio High Quality": {"1": [{"Gestore": "BORTOLAMEI SRL", "Bandiera": "Benza", "Tipo impianto": "Altro", "Indirizzo": "VIA EUGANEA 167 35030", "Nome impianto": "BENZA - SELVAZZANO DENTRO (PD)", "Comune": "SELVAZZANO DENTRO", "idImpianto": 37666, "points": [{"type": "Feature", "properties": {}, "geometry": {"type": "Point", "coordinates": [11.781540848934924, 45.38391919137528]}}], "price": 1.909, "ultima_rilevazione": "16/05/2022 13:17:48"}], "3": [{"Gestore": "A.F. PETROLI S.P.A.", "Bandiera": "AF Petroli", "Tipo impianto": "Strada Statale", "Indirizzo": "16 Adriatica, Km. 11+376 lato sx, padova 35020", "Nome impianto": "A.F PETROLI", "Comune": "DUE CARRARE", "idImpianto": 45952, "points": [{"type": "Feature", "properties": {}, "geometry": {"type": "Point", "coordinates": [11.80961704008746, 45.321071393694496]}}], "price": 1.917, "ultima_rilevazione": "16/05/2022 19:04:26"}, {"Gestore": "P.G.M. CARBURANTI S.A.S. DI PIERANTONI MARIA & C.", "Bandiera": "Agip Eni", "Tipo impianto": "Altro", "Indirizzo": "VIA SCAPACCHIO' EST 43/A 35030", "Nome impianto": "PGMCARBURANTI SAS", "Comune": "SACCOLONGO", "idImpianto": 19355, "points": [{"type": "Feature", "properties": {}, "geometry": {"type": "Point", "coordinates": [11.762642562389374, 45.3973267214879]}}], "price": 2.059, "ultima_rilevazione": "13/05/2022 19:43:04"}], "5": [{"Gestore": "MARTINELLO CESARINO & MASSIMO SNC", "Bandiera": "Esso", "Tipo impianto": "Altro", "Indirizzo": "VIA COSTA SENZA N.C. 35124", "Nome impianto": "ESSO MARTINELLO CESARINO E MASSIMO SNC", "Comune": "PADOVA", "idImpianto": 14279, "points": [{"type": "Feature", "properties": {}, "geometry": {"type": "Point", "coordinates": [11.870895100086273, 45.38992420750324]}}], "price": 2.009, "ultima_rilevazione": "17/05/2022 07:47:45"}, {"Gestore": "COSTANTIN DISTRIBUZIONE E SERVIZI SRL", "Bandiera": "Costantin", "Tipo impianto": "Altro", "Indirizzo": "via dell'industria  2/a 35020", "Nome impianto": "COSTANTIN DUE CARRARE", "Comune": "DUE CARRARE", "idImpianto": 35289, "points": [{"type": "Feature", "properties": {}, "geometry": {"type": "Point", "coordinates": [11.85749553143978, 45.30036348994487]}}], "price": 1.889, "ultima_rilevazione": "16/05/2022 12:25:09"}, {"Gestore": "A.F. PETROLI S.P.A.", "Bandiera": "AF Petroli", "Tipo impianto": "Altro", "Indirizzo": "VIA GUIZZA 367 35125", "Nome impianto": "A.F. PETROLI", "Comune": "PADOVA", "idImpianto": 12363, "points": [{"type": "Feature", "properties": {}, "geometry": {"type": "Point", "coordinates": [11.872090436770575, 45.36736623925516]}}], "price": 1.907, "ultima_rilevazione": "16/05/2022 18:52:00"}, {"Gestore": "MIX S.N.C. DI BUSINARO LUCA & C.", "Bandiera": "Major", "Tipo impianto": "Altro", "Indirizzo": "VIA MINCANA 24/A 35020", "Nome impianto": "Major", "Comune": "DUE CARRARE", "idImpianto": 13637, "points": [{"type": "Feature", "properties": {}, "geometry": {"type": "Point", "coordinates": [11.814011847885126, 45.29269102343213]}}], "price": 2.004, "ultima_rilevazione": "12/05/2022 12:10:10"}, {"Gestore": "BRAGHETTA S.A.S. DI BRAGHETTA LUIGI & C.", "Bandiera": "Major", "Tipo impianto": "Altro", "Indirizzo": "VIA CONSELVANA 59 35020", "Nome impianto": "Major 1014 Maser\u00e0 Via Conselvana", "Comune": "MASERA' DI PADOVA", "idImpianto": 50812, "points": [{"type": "Feature", "properties": {}, "geometry": {"type": "Point", "coordinates": [11.863865781943634, 45.322509765001975]}}], "price": 2.039, "ultima_rilevazione": "13/05/2022 15:21:01"}, {"Gestore": "ENERGIA S.R.L.", "Bandiera": "BC", "Tipo impianto": "Altro", "Indirizzo": "VIA BEMBO ANGOLO VIA SALUTATI 104 35124", "Nome impianto": "BC BEMBO", "Comune": "PADOVA", "idImpianto": 39569, "points": [{"type": "Feature", "properties": {}, "geometry": {"type": "Point", "coordinates": [11.887574513491812, 45.3722903435151]}}], "price": 1.906, "ultima_rilevazione": "14/05/2022 09:40:02"}, {"Gestore": "A.F. PETROLI S.P.A.", "Bandiera": "AF Petroli", "Tipo impianto": "Altro", "Indirizzo": "VIA BIBANO 11 35030", "Nome impianto": "A.F. PETROLI", "Comune": "RUBANO", "idImpianto": 12364, "points": [{"type": "Feature", "properties": {}, "geometry": {"type": "Point", "coordinates": [11.78819032446745, 45.41360368762956]}}], "price": 1.907, "ultima_rilevazione": "16/05/2022 19:05:56"}, {"Gestore": "ENERGIA S.R.L.", "Bandiera": "BC", "Tipo impianto": "Altro", "Indirizzo": "Via Pelosa , 14ter  ", "Nome impianto": "BC", "Comune": "SELVAZZANO DENTRO", "idImpianto": 10409, "points": [{"type": "Feature", "properties": {}, "geometry": {"type": "Point", "coordinates": [11.79563558844916, 45.41539856460397]}}], "price": 1.857, "ultima_rilevazione": "16/05/2022 19:00:02"}, {"Gestore": "ZUIN SERVIZI S.R.L.", "Bandiera": "Pompe Bianche", "Tipo impianto": "Altro", "Indirizzo": "Via Della Croce  24 35030", "Nome impianto": "Zuin Servizi S.r.l.", "Comune": "CERVARESE SANTA CROCE", "idImpianto": 13116, "points": [{"type": "Feature", "properties": {}, "geometry": {"type": "Point", "coordinates": [11.708055403515573, 45.38903340673024]}}], "price": 1.899, "ultima_rilevazione": "16/05/2022 20:43:32"}]}, "null": {}}