{"area_comune": "[{\"type\": \"Feature\", \"properties\": {}, \"geometry\": {\"type\": \"Polygon\", \"coordinates\": [[[9.25755242883226, 45.66368497145255], [9.265495393217886, 45.65710517690792], [9.265779920992356, 45.65593779026474], [9.265247544749462, 45.654339814728516], [9.262573058388332, 45.65353269643773], [9.260494175324602, 45.65357992803588], [9.246371742842193, 45.64723948011261], [9.242889676001774, 45.64303317214653], [9.242767865744566, 45.64156629047749], [9.238031575118711, 45.64170741285991], [9.237066934649794, 45.64238171391866], [9.240078841062598, 45.64563430426454], [9.24098068137069, 45.64686623350011], [9.240897002560764, 45.647600824366016], [9.239217335517196, 45.6506229671816], [9.23811356161417, 45.651835721917216], [9.236855104221092, 45.65201316234318], [9.2385643646682, 45.654788779675755], [9.248022709788236, 45.662517934296005], [9.252683432969958, 45.665431540094], [9.254032440584487, 45.66779272070096], [9.25755242883226, 45.66368497145255]]]}}]", "comune": "albiate", "buffer_1": "[{\"type\": \"Feature\", \"properties\": {}, \"geometry\": {\"type\": \"Polygon\", \"coordinates\": [[[9.268557041458166, 45.66831980766261], [9.268669773595546, 45.668185592403084], [9.27636364961667, 45.65883969710348], [9.276952164777265, 45.65803351470013], [9.277422152598996, 45.65718993874905], [9.277768859276469, 45.656317511546305], [9.27798877992294, 45.65542506714322], [9.278079693838867, 45.65452164186069], [9.278040686757091, 45.65361638277163], [9.277872159849041, 45.652718455079196], [9.27757582541092, 45.65183694932909], [9.277154689283732, 45.65098078939518], [9.276613020194954, 45.65015864216889], [9.275956306341378, 45.64937882986542], [9.27519119966068, 45.648649245832075], [9.274325448362516, 45.64797727470877], [9.273367818407078, 45.6473697177456], [9.272328004729124, 45.646832724030496], [9.245114092865473, 45.634201988080314], [9.244018809597028, 45.63374653225645], [9.242864587688207, 45.633369467306345], [9.24166279028932, 45.63307450506027], [9.240425248257939, 45.63286454908092], [9.239164143830592, 45.63274166611895], [9.237891890859203, 45.63270706579619], [9.236621012783466, 45.6327610887148], [9.235364019532053, 45.63290320310879], [9.23413328455571, 45.63313201007065], [9.232940923194128, 45.63344525730202], [9.231798673565681, 45.633839861253854], [9.230717781145028, 45.63431193743989], [9.229708888158356, 45.63485683862688], [9.228781928879902, 45.63546920052792], [9.227946031856812, 45.63614299455201], [9.227209430022908, 45.636871587093225], [9.22657937958605, 45.63764780477899], [9.226062088489156, 45.638464005037854], [9.225662655152497, 45.63931215129509], [9.225385018105268, 45.6401838920581], [9.22523191700866, 45.64107064311527], [9.225204865461711, 45.641963672040625], [9.2257346718162, 45.655045103732846], [9.225827439945636, 45.65589933532046], [9.226035602756903, 45.65674351210296], [9.22635727942314, 45.65756998579146], [9.226789560330916, 45.65837126815895], [9.227328533274482, 45.65914009891252], [9.227969318754292, 45.65986951151094], [9.228706114065153, 45.66055289632954], [9.24417350590902, 45.67355816035266], [9.245046298105889, 45.67422118154218], [9.24600940695103, 45.67481961063788], [9.247053155118161, 45.675347432959796], [9.24816705387101, 45.67579934332631], [9.249339908524847, 45.67617079943809], [9.250559931046217, 45.67645806759013], [9.251814858654535, 45.67665826024933], [9.253092077227361, 45.67676936511801], [9.254378748261491, 45.67679026538859], [9.255661938105252, 45.67672075098507], [9.256928748153918, 45.67656152067718], [9.25816644469015, 45.67631417504584], [9.259362587055088, 45.67598120037136], [9.260505152852998, 45.67556594360731], [9.261582658923048, 45.67507257869338], [9.262584276855556, 45.67450606454806], [9.263499941886385, 45.67387209516624], [9.264320454071441, 45.673177042325904], [9.26503757072267, 45.6724278914834], [9.268557041458166, 45.66831980766261]]]}}]", "buffer_3": "[{\"type\": \"Feature\", \"properties\": {}, \"geometry\": {\"type\": \"Polygon\", \"coordinates\": [[[9.290571706659746, 45.67758627543474], [9.290909798755967, 45.67718356505253], [9.29860119147764, 45.66783619295479], [9.300366007976725, 45.66541729829854], [9.301775056570575, 45.6628862808987], [9.302814112852674, 45.660268779334736], [9.303472705176434, 45.65759130463586], [9.303744218719421, 45.65488097146666], [9.30362596030652, 45.65216522334561], [9.303119183422803, 45.649471554688624], [9.302229073253972, 45.64682723249606], [9.300964691997487, 45.6442590204983], [9.299338885086355, 45.64179290854446], [9.29736814935658, 45.63945384995882], [9.295072464564397, 45.63726550950484], [9.292475090017655, 45.63525002448342], [9.289602328423566, 45.63342778135657], [9.286483259370065, 45.631817210127444], [9.259273464374568, 45.61918980395323], [9.25598820403296, 45.61782380726127], [9.252526326989457, 45.61669293531237], [9.248921891717808, 45.61580831092921], [9.245210353217573, 45.61517863450808], [9.241428215503094, 45.61481009878883], [9.23761267398676, 45.61470632819834], [9.233801251204858, 45.61486834335172], [9.23003142939393, 45.61529455105362], [9.226340283453718, 45.61598075989567], [9.222764117829477, 45.61692022130042], [9.219338110811323, 45.61810369561643], [9.216095969681914, 45.619519542628], [9.213069600046353, 45.62115383560697], [9.210288792550324, 45.62299049780647], [9.207780930035101, 45.62501146007773], [9.205570717992083, 45.627196838085816], [9.203679940966108, 45.62952512740753], [9.202127247317653, 45.63197341461883], [9.200927964490692, 45.634517602319804], [9.200093946647424, 45.6371326459062], [9.199633456225738, 45.63979279977703], [9.199551080652254, 45.642471870570816], [9.200074920248353, 45.65555343005855], [9.200352065572226, 45.65811618843348], [9.20097544991264, 45.66064885739326], [9.201939470732228, 45.66312848707126], [9.203235435713491, 45.66553260525269], [9.204851640018221, 45.667839421262734], [9.206773471030441, 45.67002802377276], [9.208983539681162, 45.67207857071804], [9.22444955859215, 45.68508648118948], [9.22706783926578, 45.68707597272788], [9.229957317524002, 45.68887168580744], [9.233088955338749, 45.69045555929993], [9.236431270751428, 45.69181166134209], [9.239950654887343, 45.69292635014341], [9.24361171074985, 45.69378841172105], [9.247377610345463, 45.694389173150455], [9.251210466492182, 45.694722590170834], [9.255071715503377, 45.69478530824616], [9.258922506820912, 45.694576696454945], [9.26272409559507, 45.694098853860496], [9.26643823417671, 45.693356588296815], [9.27002755849904, 45.692357367787785], [9.27345596538236, 45.691111245099364], [9.27668897689446, 45.68963075619927], [9.279694088040554, 45.6879307936662], [9.282441094237951, 45.68602845634608], [9.28490239524969, 45.68394287679505], [9.287053272505117, 45.68169502827316], [9.290571706659746, 45.67758627543474]]]}}]", "buffer_5": "[{\"type\": \"Feature\", \"properties\": {}, \"geometry\": {\"type\": \"Polygon\", \"coordinates\": [[[9.312593625446334, 45.68684846694127], [9.313156938075869, 45.68617717532903], [9.32084584281945, 45.67682832690537], [9.323785986747463, 45.67279625704021], [9.326132874529783, 45.66857741263869], [9.327862860663833, 45.66421454412293], [9.328958564223006, 45.659751851289336], [9.329409039383071, 45.65523453469298], [9.329209880265765, 45.650708337301886], [9.328363259280664, 45.646219081090074], [9.326877898830668, 45.64181220327131], [9.324768976921854, 45.63753229686187], [9.322057967878065, 45.63342266019951], [9.318772419998309, 45.62952485993768], [9.314945672605152, 45.62587831188461], [9.310616515509796, 45.62251988386208], [9.305828794460137, 45.619483524527524], [9.300630966638009, 45.61679992183292], [9.273425290282619, 45.6041758426875], [9.267950838880708, 45.60189979894665], [9.26218235777457, 45.6000155499839], [9.256176559502975, 45.598541612779044], [9.249992473200365, 45.59749247088868], [9.243690867860188, 45.59687843306341], [9.23733365908575, 45.596705532640165], [9.23098330496752, 45.5969754686653], [9.224702196816871, 45.59768558930693], [9.21855205052913, 45.5988289177147], [9.212593304343745, 45.600394220081796], [9.20688452871623, 45.60236611526437], [9.201481853915318, 45.60472522491804], [9.196438420810136, 45.60744836272489], [9.191803860116227, 45.61050876091026], [9.187623805127036, 45.61387633188969], [9.183939442669642, 45.61751796254587], [9.180787106691508, 45.62139783831677], [9.178197918510325, 45.62547779398222], [9.176197477343587, 45.62971768776976], [9.174805604280742, 45.63407579516404], [9.174036142371548, 45.63850921860171], [9.173896814982761, 45.64297430906485], [9.174414687334764, 45.65605599373827], [9.174874664014512, 45.66032736287894], [9.175911796849402, 45.664548708063194], [9.177516814922782, 45.66868177122727], [9.179675292017661, 45.672689086161725], [9.182367773168028, 45.676534318774486], [9.185569947298799, 45.68018259735506], [9.189252864522196, 45.683600829808306], [9.204717504109558, 45.69661138732988], [9.20908114383682, 45.69992792009486], [9.213897192697564, 45.70292148528791], [9.21911724399604, 45.70556195249955], [9.22468880160408, 45.70782274137033], [9.230555809363405, 45.70968109070239], [9.236659217400847, 45.71111828902089], [9.242937579541936, 45.71211986419313], [9.249327675654554, 45.71267573013454], [9.255765152468875, 45.71278028907451], [9.262185176207618, 45.71243248831718], [9.268523090224559, 45.711635830905635], [9.274715070791547, 45.710398340078896], [9.280698774195857, 45.708732477892774], [9.286413968410052, 45.706655018853574], [9.291803142774382, 45.7041868798811], [9.296812089384044, 45.701352908370275], [9.30139045019681, 45.69818163055274], [9.305492224265471, 45.694704962767524], [9.309076229948785, 45.690957888627175], [9.312593625446334, 45.68684846694127]]]}}]", "centroid": "[{\"type\": \"Feature\", \"properties\": {}, \"geometry\": {\"type\": \"Point\", \"coordinates\": [9.249567815539036, 45.65419274137391]}}]", "Diesel High Quality": {"1": [{"Gestore": "RAIMONDO E CHIARA S.N.C. DI MARCUCCI RAIMONDO E C", "Bandiera": "Q8", "Tipo impianto": "Altro", "Indirizzo": "Viale Monza 19 20845", "Nome impianto": "Q8 di Raimondo e Chiara ", "Comune": "SOVICO", "idImpianto": 46917, "points": [{"type": "Feature", "properties": {}, "geometry": {"type": "Point", "coordinates": [9.25856351987874, 45.650415804145176]}}], "price": 2.269, "ultima_rilevazione": "04/07/2022 11:16:06"}], "3": [{"Gestore": "CAROLI GIOVANNI", "Bandiera": "Q8", "Tipo impianto": "Altro", "Indirizzo": "VIA GIOVANNI DA SOVICO 129 20845", "Nome impianto": "Caroli Giovanni", "Comune": "SOVICO", "idImpianto": 19353, "points": [{"type": "Feature", "properties": {}, "geometry": {"type": "Point", "coordinates": [9.266958820866762, 45.64417784424008]}}], "price": 2.199, "ultima_rilevazione": "04/07/2022 14:45:20"}, {"Gestore": "NUOVA SIDAP  S.R.L.", "Bandiera": "Q8", "Tipo impianto": "Strada Statale", "Indirizzo": "36 del Lago di Como e dello Spluga, Km.  23,470, Sud 20841", "Nome impianto": "CARATE OVEST", "Comune": "CARATE BRIANZA", "idImpianto": 46534, "points": [{"type": "Feature", "properties": {}, "geometry": {"type": "Point", "coordinates": [9.219954758882524, 45.67205225949342]}}], "price": 2.229, "ultima_rilevazione": "09/07/2022 07:34:17"}, {"Gestore": "SERVIZI & GESTIONI ITALIA S.R.L.", "Bandiera": "Q8", "Tipo impianto": "Altro", "Indirizzo": "VIA VALASSINA 144 EST 20033", "Nome impianto": "DESIO-VIA VALASSINA 144 EST", "Comune": "DESIO", "idImpianto": 11643, "points": [{"type": "Feature", "properties": {}, "geometry": {"type": "Point", "coordinates": [9.224793526458711, 45.62338022251562]}}], "price": 2.279, "ultima_rilevazione": "11/07/2022 00:34:46"}, {"Gestore": "SERVIZI & GESTIONI ITALIA S.R.L.", "Bandiera": "Q8", "Tipo impianto": "Altro", "Indirizzo": "VIA VALASSINA 144 EST 20033", "Nome impianto": "DESIO-VIA VALASSINA 144 EST", "Comune": "DESIO", "idImpianto": 11643, "points": [{"type": "Feature", "properties": {}, "geometry": {"type": "Point", "coordinates": [9.224793526458711, 45.62338022251562]}}], "price": 2.319, "ultima_rilevazione": "11/07/2022 00:34:46"}, {"Gestore": "SERVIZI & GESTIONI ITALIA S.R.L.", "Bandiera": "Q8", "Tipo impianto": "Altro", "Indirizzo": "SS 36 VALASSINA KM 19+020 S/N 20035", "Nome impianto": "LISSONE-SS 36 VALASSINA KM 19+020", "Comune": "LISSONE", "idImpianto": 11649, "points": [{"type": "Feature", "properties": {}, "geometry": {"type": "Point", "coordinates": [9.224526822090183, 45.63615438760353]}}], "price": 2.279, "ultima_rilevazione": "11/07/2022 00:34:47"}, {"Gestore": "SERVIZI & GESTIONI ITALIA S.R.L.", "Bandiera": "Q8", "Tipo impianto": "Altro", "Indirizzo": "SS 36 VALASSINA KM 19+020 S/N 20035", "Nome impianto": "LISSONE-SS 36 VALASSINA KM 19+020", "Comune": "LISSONE", "idImpianto": 11649, "points": [{"type": "Feature", "properties": {}, "geometry": {"type": "Point", "coordinates": [9.224526822090183, 45.63615438760353]}}], "price": 2.319, "ultima_rilevazione": "11/07/2022 00:34:47"}, {"Gestore": "SERVIZI & GESTIONI ITALIA S.R.L.", "Bandiera": "Q8", "Tipo impianto": "Altro", "Indirizzo": "S.S.36 SPLUGA KM 10+495  20841", "Nome impianto": "CARATE BRIANZA  S.S.36 SPLUGA KM 10+495", "Comune": "CARATE BRIANZA", "idImpianto": 43651, "points": [{"type": "Feature", "properties": {}, "geometry": {"type": "Point", "coordinates": [9.219860217790938, 45.67494693789578]}}], "price": 2.279, "ultima_rilevazione": "11/07/2022 00:34:56"}, {"Gestore": "SERVIZI & GESTIONI ITALIA S.R.L.", "Bandiera": "Q8", "Tipo impianto": "Altro", "Indirizzo": "S.S.36 SPLUGA KM 10+495  20841", "Nome impianto": "CARATE BRIANZA  S.S.36 SPLUGA KM 10+495", "Comune": "CARATE BRIANZA", "idImpianto": 43651, "points": [{"type": "Feature", "properties": {}, "geometry": {"type": "Point", "coordinates": [9.219860217790938, 45.67494693789578]}}], "price": 2.319, "ultima_rilevazione": "11/07/2022 00:34:56"}], "5": [{"Gestore": "CAR SERVICE S.N.C. DI CARLO SPADONE E ALBERTO SCORZA", "Bandiera": "Esso", "Tipo impianto": "Altro", "Indirizzo": "VIA ANTONIO STOPPANI 92 20831", "Nome impianto": "car service snc", "Comune": "SEREGNO", "idImpianto": 43540, "points": [{"type": "Feature", "properties": {}, "geometry": {"type": "Point", "coordinates": [9.195143177909811, 45.6563447475817]}}], "price": 2.186, "ultima_rilevazione": "08/07/2022 12:08:10"}, {"Gestore": "FRATELLI CARLUCCI S.N.C. DI CARLUCCI PAOLO & C.", "Bandiera": "Q8", "Tipo impianto": "Strada Statale", "Indirizzo": "Statale 36 del Lago di Como e dello Spluga, Km. 26, dir. Lecco 20843", "Nome impianto": "Q8 di Flli Carlucci snc", "Comune": "VERANO BRIANZA", "idImpianto": 5636, "points": [{"type": "Feature", "properties": {}, "geometry": {"type": "Point", "coordinates": [9.227552711963654, 45.69678383208968]}}], "price": 2.279, "ultima_rilevazione": "09/07/2022 12:03:08"}, {"Gestore": "SERVIZI & GESTIONI ITALIA S.R.L.", "Bandiera": "Q8", "Tipo impianto": "Altro", "Indirizzo": "VIA MILANO 165 20033", "Nome impianto": "DESIO-VIA MILANO 165", "Comune": "DESIO", "idImpianto": 11642, "points": [{"type": "Feature", "properties": {}, "geometry": {"type": "Point", "coordinates": [9.20041492757798, 45.61516903593563]}}], "price": 2.279, "ultima_rilevazione": "11/07/2022 00:34:46"}, {"Gestore": "SERVIZI & GESTIONI ITALIA S.R.L.", "Bandiera": "Q8", "Tipo impianto": "Altro", "Indirizzo": "VIA MILANO 165 20033", "Nome impianto": "DESIO-VIA MILANO 165", "Comune": "DESIO", "idImpianto": 11642, "points": [{"type": "Feature", "properties": {}, "geometry": {"type": "Point", "coordinates": [9.20041492757798, 45.61516903593563]}}], "price": 2.299, "ultima_rilevazione": "11/07/2022 00:34:46"}, {"Gestore": "SERVIZI & GESTIONI ITALIA S.R.L.", "Bandiera": "Q8", "Tipo impianto": "Altro", "Indirizzo": "SP. NUOVA VALASSINA S/N 20050", "Nome impianto": "VERANO BRIANZA-SP. NUOVA VALASSINA", "Comune": "VERANO BRIANZA", "idImpianto": 11650, "points": [{"type": "Feature", "properties": {}, "geometry": {"type": "Point", "coordinates": [9.21897469444275, 45.68822505244049]}}], "price": 2.279, "ultima_rilevazione": "11/07/2022 00:34:53"}, {"Gestore": "SERVIZI & GESTIONI ITALIA S.R.L.", "Bandiera": "Q8", "Tipo impianto": "Altro", "Indirizzo": "SP. NUOVA VALASSINA S/N 20050", "Nome impianto": "VERANO BRIANZA-SP. NUOVA VALASSINA", "Comune": "VERANO BRIANZA", "idImpianto": 11650, "points": [{"type": "Feature", "properties": {}, "geometry": {"type": "Point", "coordinates": [9.21897469444275, 45.68822505244049]}}], "price": 2.319, "ultima_rilevazione": "11/07/2022 00:34:53"}, {"Gestore": "SERVIZI & GESTIONI ITALIA S.R.L.", "Bandiera": "Q8", "Tipo impianto": "Altro", "Indirizzo": "S.P.192 VALASSINA  20851", "Nome impianto": "LISSONE S.P.192 VALASSINA", "Comune": "LISSONE", "idImpianto": 39112, "points": [{"type": "Feature", "properties": {}, "geometry": {"type": "Point", "coordinates": [9.231563955545424, 45.60228936339683]}}], "price": 2.299, "ultima_rilevazione": "11/07/2022 00:35:04"}]}, "Blue Diesel": {"1": [{"Gestore": "CHIAPPERINI PAOLO", "Bandiera": "Agip Eni", "Tipo impianto": "Altro", "Indirizzo": "viale monza  2 20845", "Nome impianto": "CHIAPPERINI PAOLO", "Comune": "SOVICO", "idImpianto": 43640, "points": [{"type": "Feature", "properties": {}, "geometry": {"type": "Point", "coordinates": [9.254779565641456, 45.65491274961172]}}], "price": 2.114, "ultima_rilevazione": "01/07/2022 16:58:46"}], "3": [{"Gestore": "STAZIONE DI SERVIZIO DI CORVINO CONCETTA", "Bandiera": "Agip Eni", "Tipo impianto": "Altro", "Indirizzo": "VIA MATTEOTTI 160 20851", "Nome impianto": "STAZ. SERV. ENI di Corvino Concetta", "Comune": "LISSONE", "idImpianto": 45886, "points": [{"type": "Feature", "properties": {}, "geometry": {"type": "Point", "coordinates": [9.234296000123, 45.618672000123]}}], "price": 2.074, "ultima_rilevazione": "09/07/2022 07:40:21"}, {"Gestore": "CASTELLUCCIO SERVICE S.A.S. DI NESCI ERNESTO & C.", "Bandiera": "Agip Eni", "Tipo impianto": "Altro", "Indirizzo": "Via Macalle' 184 20831", "Nome impianto": "Eni Seregno 12261", "Comune": "SEREGNO", "idImpianto": 49133, "points": [{"type": "Feature", "properties": {}, "geometry": {"type": "Point", "coordinates": [9.22021315078735, 45.637368850223645]}}], "price": 2.069, "ultima_rilevazione": "11/07/2022 01:22:28"}], "5": [{"Gestore": "SCARFONE COSIMO", "Bandiera": "Agip Eni", "Tipo impianto": "Altro", "Indirizzo": "via milano 230 20832", "Nome impianto": "ENI DESIO", "Comune": "DESIO", "idImpianto": 32877, "points": [{"type": "Feature", "properties": {}, "geometry": {"type": "Point", "coordinates": [9.199714064598083, 45.62074583216158]}}], "price": 2.114, "ultima_rilevazione": "07/07/2022 08:36:50"}, {"Gestore": "AUTODROMO NAZIONALE MONZA S.I.A.S. SOCIETA' INCREMENTO AUTOMOBILISMO E SPORT -S.P.A.", "Bandiera": "Agip Eni", "Tipo impianto": "Altro", "Indirizzo": "VIALE DI VEDANO 5 20900", "Nome impianto": "Autodromo Nazionale Monza", "Comune": "MONZA", "idImpianto": 29043, "points": [{"type": "Feature", "properties": {}, "geometry": {"type": "Point", "coordinates": [9.282018981114788, 45.61894867633523]}}], "price": 2.379, "ultima_rilevazione": "07/07/2022 09:21:19"}, {"Gestore": "AUTODROMO NAZIONALE MONZA S.I.A.S. SOCIETA' INCREMENTO AUTOMOBILISMO E SPORT -S.P.A.", "Bandiera": "Agip Eni", "Tipo impianto": "Altro", "Indirizzo": "VIALE DI VEDANO 5 20900", "Nome impianto": "Autodromo Nazionale Monza", "Comune": "MONZA", "idImpianto": 29043, "points": [{"type": "Feature", "properties": {}, "geometry": {"type": "Point", "coordinates": [9.282018981114788, 45.61894867633523]}}], "price": 2.289, "ultima_rilevazione": "07/07/2022 09:21:19"}, {"Gestore": "TREMOLADA E FIGLI SAS DI TREMOLADA DARIO & C.", "Bandiera": "Agip Eni", "Tipo impianto": "Strada Statale", "Indirizzo": "36 del Lago di Como e dello Spluga, Km. snc, Milano 20832 ", "Nome impianto": "Tremolada Sas", "Comune": "DESIO", "idImpianto": 50331, "points": [{"type": "Feature", "properties": {}, "geometry": {"type": "Point", "coordinates": [9.223568613082731, 45.61646218811291]}}], "price": 2.074, "ultima_rilevazione": "09/07/2022 11:44:17"}, {"Gestore": "SESINI SIMONE", "Bandiera": "Agip Eni", "Tipo impianto": "Altro", "Indirizzo": "VIA MILANO 4 20833", "Nome impianto": "eni 55348", "Comune": "GIUSSANO", "idImpianto": 43459, "points": [{"type": "Feature", "properties": {}, "geometry": {"type": "Point", "coordinates": [9.208561588954922, 45.69602115193018]}}], "price": 2.094, "ultima_rilevazione": "09/07/2022 15:29:10"}]}, "Gasolio High Quality": {"1": [{"Gestore": "STAZIONE DI SERVIZIO CURIONI GIOVANNI & POZZI SANDRA S.N.C.", "Bandiera": "Esso", "Tipo impianto": "Strada Statale", "Indirizzo": "Statale 36 del Lago di Como e dello Spluga, Km. 20+400, dir. LECCO 20831", "Nome impianto": "SEREGNO SAN SALVATORE", "Comune": "SEREGNO", "idImpianto": 7628, "points": [{"type": "Feature", "properties": {}, "geometry": {"type": "Point", "coordinates": [9.226229041814804, 45.6486815094895]}}], "price": 2.116, "ultima_rilevazione": "09/07/2022 07:56:22"}], "3": [{"Gestore": "GALIFI DOMENICO", "Bandiera": "Api-Ip", "Tipo impianto": "Altro", "Indirizzo": "Via M.Buonarroti 148 20035", "Nome impianto": "total erg di Galifi ", "Comune": "LISSONE", "idImpianto": 43616, "points": [{"type": "Feature", "properties": {}, "geometry": {"type": "Point", "coordinates": [9.239804046627114, 45.62240218615924]}}], "price": 1.834, "ultima_rilevazione": "28/03/2022 10:16:18"}, {"Gestore": "SANICAR SERVICE S.N.C. DI SALVATORE NICOLA E LOMBARDO SALVATORE", "Bandiera": "Esso", "Tipo impianto": "Altro", "Indirizzo": "VIA ALESSANDRO VOLTA 2 20846", "Nome impianto": "sanicarservice snc di salvatore nicola e lombardo salvatore", "Comune": "MACHERIO", "idImpianto": 5656, "points": [{"type": "Feature", "properties": {}, "geometry": {"type": "Point", "coordinates": [9.265367770676107, 45.63839694383991]}}], "price": 2.186, "ultima_rilevazione": "09/07/2022 07:18:31"}, {"Gestore": "CURIONI ANGELO E POZZI SANDRA SNC", "Bandiera": "Esso", "Tipo impianto": "Altro", "Indirizzo": "VIA MILANO 81 20831", "Nome impianto": "SEREGNO VIA MILANO 81  ", "Comune": "SEREGNO", "idImpianto": 43069, "points": [{"type": "Feature", "properties": {}, "geometry": {"type": "Point", "coordinates": [9.205776271163929, 45.63923175066154]}}], "price": 2.146, "ultima_rilevazione": "09/07/2022 07:53:34"}], "5": [{"Gestore": "EFFEGI S.N.C. DEI F.LLI XHERAJ & C.", "Bandiera": "Esso", "Tipo impianto": "Altro", "Indirizzo": "VIA VALASSINA 4 20833", "Nome impianto": "ESSO", "Comune": "GIUSSANO", "idImpianto": 28135, "points": [{"type": "Feature", "properties": {}, "geometry": {"type": "Point", "coordinates": [9.213966652750967, 45.6887088798866]}}], "price": 2.186, "ultima_rilevazione": "08/07/2022 18:53:33"}, {"Gestore": "BARAVIERA GRETA", "Bandiera": "Esso", "Tipo impianto": "Altro", "Indirizzo": "VIA KENNEDY 21 20842", "Nome impianto": "Esso Baraviera", "Comune": "BESANA IN BRIANZA", "idImpianto": 36496, "points": [{"type": "Feature", "properties": {}, "geometry": {"type": "Point", "coordinates": [9.2915877699852, 45.69989546872483]}}], "price": 2.186, "ultima_rilevazione": "09/07/2022 08:01:43"}, {"Gestore": "RUSSO GIORGIO", "Bandiera": "Esso", "Tipo impianto": "Altro", "Indirizzo": "VIA GIUSEPPE GARIBALDI 306 20832", "Nome impianto": "ESSO ", "Comune": "DESIO", "idImpianto": 21100, "points": [{"type": "Feature", "properties": {}, "geometry": {"type": "Point", "coordinates": [9.202510938048365, 45.6069307654106]}}], "price": 2.139, "ultima_rilevazione": "09/07/2022 08:47:07"}, {"Gestore": "VANOLI S.N.C. DI VANOLI FIRMINO E MARONI", "Bandiera": "Esso", "Tipo impianto": "Altro", "Indirizzo": "via 4 Novembre, Paina di Giussano  160 20034", "Nome impianto": "stazione di servizio Esso Vanoli snc", "Comune": "GIUSSANO", "idImpianto": 5160, "points": [{"type": "Feature", "properties": {}, "geometry": {"type": "Point", "coordinates": [9.202318489551544, 45.668298036450224]}}], "price": 2.166, "ultima_rilevazione": "09/07/2022 12:03:48"}]}, "Benzina": {"1": [{"Gestore": "CHIAPPERINI PAOLO", "Bandiera": "Agip Eni", "Tipo impianto": "Altro", "Indirizzo": "viale monza  2 20845", "Nome impianto": "CHIAPPERINI PAOLO", "Comune": "SOVICO", "idImpianto": 43640, "points": [{"type": "Feature", "properties": {}, "geometry": {"type": "Point", "coordinates": [9.254779565641456, 45.65491274961172]}}], "price": 2.024, "ultima_rilevazione": "01/07/2022 16:58:46"}, {"Gestore": "RAIMONDO E CHIARA S.N.C. DI MARCUCCI RAIMONDO E C", "Bandiera": "Q8", "Tipo impianto": "Altro", "Indirizzo": "Viale Monza 19 20845", "Nome impianto": "Q8 di Raimondo e Chiara ", "Comune": "SOVICO", "idImpianto": 46917, "points": [{"type": "Feature", "properties": {}, "geometry": {"type": "Point", "coordinates": [9.25856351987874, 45.650415804145176]}}], "price": 2.059, "ultima_rilevazione": "04/07/2022 11:16:06"}, {"Gestore": "STAZIONE DI SERVIZIO CURIONI GIOVANNI & POZZI SANDRA S.N.C.", "Bandiera": "Esso", "Tipo impianto": "Strada Statale", "Indirizzo": "Statale 36 del Lago di Como e dello Spluga, Km. 20+400, dir. LECCO 20831", "Nome impianto": "SEREGNO SAN SALVATORE", "Comune": "SEREGNO", "idImpianto": 7628, "points": [{"type": "Feature", "properties": {}, "geometry": {"type": "Point", "coordinates": [9.226229041814804, 45.6486815094895]}}], "price": 2.016, "ultima_rilevazione": "09/07/2022 07:56:22"}], "3": [{"Gestore": "GALIFI DOMENICO", "Bandiera": "Api-Ip", "Tipo impianto": "Altro", "Indirizzo": "Via M.Buonarroti 148 20035", "Nome impianto": "total erg di Galifi ", "Comune": "LISSONE", "idImpianto": 43616, "points": [{"type": "Feature", "properties": {}, "geometry": {"type": "Point", "coordinates": [9.239804046627114, 45.62240218615924]}}], "price": 1.834, "ultima_rilevazione": "28/03/2022 10:16:18"}, {"Gestore": "CAROLI GIOVANNI", "Bandiera": "Q8", "Tipo impianto": "Altro", "Indirizzo": "VIA GIOVANNI DA SOVICO 129 20845", "Nome impianto": "Caroli Giovanni", "Comune": "SOVICO", "idImpianto": 19353, "points": [{"type": "Feature", "properties": {}, "geometry": {"type": "Point", "coordinates": [9.266958820866762, 45.64417784424008]}}], "price": 2.069, "ultima_rilevazione": "04/07/2022 14:45:20"}, {"Gestore": "GI&MA SAS DI RIVA PIETRO", "Bandiera": "Api-Ip", "Tipo impianto": "Strada Statale", "Indirizzo": "36 del Lago di Como e dello Spluga, Km. 23, milano 20841", "Nome impianto": "GI&MA SAS", "Comune": "CARATE BRIANZA", "idImpianto": 35113, "points": [{"type": "Feature", "properties": {}, "geometry": {"type": "Point", "coordinates": [9.2234905064106, 45.66182344335993]}}], "price": 1.999, "ultima_rilevazione": "07/07/2022 15:57:34"}, {"Gestore": "MASTROGIOVANNI FABIO", "Bandiera": "Api-Ip", "Tipo impianto": "Altro", "Indirizzo": "VIA TOTI 17 20851", "Nome impianto": "IP", "Comune": "LISSONE", "idImpianto": 15439, "points": [{"type": "Feature", "properties": {}, "geometry": {"type": "Point", "coordinates": [9.244537680470216, 45.6291135635181]}}], "price": 2.029, "ultima_rilevazione": "07/07/2022 20:08:46"}, {"Gestore": "SERVIZI E GESTIONI ZENIT S.R.L. IN SIGLA - ZENIT S.R.L.", "Bandiera": "Giap", "Tipo impianto": "Altro", "Indirizzo": "VIA CAVOUR 14 20050", "Nome impianto": "VIA CAVOUR - VERANO BRIANZA", "Comune": "VERANO BRIANZA", "idImpianto": 34745, "points": [{"type": "Feature", "properties": {}, "geometry": {"type": "Point", "coordinates": [9.230643957853315, 45.68472718085179]}}], "price": 2.029, "ultima_rilevazione": "08/07/2022 09:01:09"}, {"Gestore": "SANICAR SERVICE S.N.C. DI SALVATORE NICOLA E LOMBARDO SALVATORE", "Bandiera": "Esso", "Tipo impianto": "Altro", "Indirizzo": "VIA ALESSANDRO VOLTA 2 20846", "Nome impianto": "sanicarservice snc di salvatore nicola e lombardo salvatore", "Comune": "MACHERIO", "idImpianto": 5656, "points": [{"type": "Feature", "properties": {}, "geometry": {"type": "Point", "coordinates": [9.265367770676107, 45.63839694383991]}}], "price": 2.046, "ultima_rilevazione": "09/07/2022 07:18:31"}, {"Gestore": "NUOVA SIDAP  S.R.L.", "Bandiera": "Q8", "Tipo impianto": "Strada Statale", "Indirizzo": "36 del Lago di Como e dello Spluga, Km.  23,470, Sud 20841", "Nome impianto": "CARATE OVEST", "Comune": "CARATE BRIANZA", "idImpianto": 46534, "points": [{"type": "Feature", "properties": {}, "geometry": {"type": "Point", "coordinates": [9.219954758882524, 45.67205225949342]}}], "price": 2.019, "ultima_rilevazione": "09/07/2022 07:34:17"}, {"Gestore": "STAZIONE DI SERVIZIO DI CORVINO CONCETTA", "Bandiera": "Agip Eni", "Tipo impianto": "Altro", "Indirizzo": "VIA MATTEOTTI 160 20851", "Nome impianto": "STAZ. SERV. ENI di Corvino Concetta", "Comune": "LISSONE", "idImpianto": 45886, "points": [{"type": "Feature", "properties": {}, "geometry": {"type": "Point", "coordinates": [9.234296000123, 45.618672000123]}}], "price": 1.984, "ultima_rilevazione": "09/07/2022 07:40:21"}, {"Gestore": "CURIONI ANGELO E POZZI SANDRA SNC", "Bandiera": "Esso", "Tipo impianto": "Altro", "Indirizzo": "VIA MILANO 81 20831", "Nome impianto": "SEREGNO VIA MILANO 81  ", "Comune": "SEREGNO", "idImpianto": 43069, "points": [{"type": "Feature", "properties": {}, "geometry": {"type": "Point", "coordinates": [9.205776271163929, 45.63923175066154]}}], "price": 2.026, "ultima_rilevazione": "09/07/2022 07:53:34"}, {"Gestore": "IP SERVICES S.R.L.", "Bandiera": "Api-Ip", "Tipo impianto": "Altro", "Indirizzo": "VIA SAN MICHELE AL CARSO  20048", "Nome impianto": "CARATE BRIANZA - SAN MICHELE", "Comune": "CARATE BRIANZA", "idImpianto": 32325, "points": [{"type": "Feature", "properties": {}, "geometry": {"type": "Point", "coordinates": [9.242680466270484, 45.675644978696376]}}], "price": 1.999, "ultima_rilevazione": "10/07/2022 09:01:10"}, {"Gestore": "IP SERVICES S.R.L.", "Bandiera": "Api-Ip", "Tipo impianto": "Altro", "Indirizzo": "VIA MONTELLO 69 20038", "Nome impianto": "SEREGNO - MONTELLO 69", "Comune": "SEREGNO", "idImpianto": 32462, "points": [{"type": "Feature", "properties": {}, "geometry": {"type": "Point", "coordinates": [9.221599999999968, 45.649894375078894]}}], "price": 2.019, "ultima_rilevazione": "10/07/2022 09:02:06"}, {"Gestore": "IP SERVICES S.R.L.", "Bandiera": "Api-Ip", "Tipo impianto": "Altro", "Indirizzo": "Via Briantina  20038", "Nome impianto": "SEREGNO - BRIANTINA", "Comune": "SEREGNO", "idImpianto": 26991, "points": [{"type": "Feature", "properties": {}, "geometry": {"type": "Point", "coordinates": [9.216957084655746, 45.66186625769628]}}], "price": 1.989, "ultima_rilevazione": "10/07/2022 09:03:22"}, {"Gestore": "T.D.M. S.R.L.", "Bandiera": "Tamoil", "Tipo impianto": "Altro", "Indirizzo": "via Como 112 20851", "Nome impianto": "8049", "Comune": "LISSONE", "idImpianto": 32684, "points": [{"type": "Feature", "properties": {}, "geometry": {"type": "Point", "coordinates": [9.233988001942636, 45.61964253800573]}}], "price": 1.999, "ultima_rilevazione": "10/07/2022 11:50:14"}, {"Gestore": "ZACCONE FRATELLI S.N.C. DI FABIO E MAURIZIO ZACCONE", "Bandiera": "Tamoil", "Tipo impianto": "Altro", "Indirizzo": "VIALE MARTIRI DELLA LIBERTA' 114 20851", "Nome impianto": "TAMOIL", "Comune": "LISSONE", "idImpianto": 12233, "points": [{"type": "Feature", "properties": {}, "geometry": {"type": "Point", "coordinates": [9.243964514276286, 45.62425321888188]}}], "price": 2.029, "ultima_rilevazione": "11/07/2022 06:52:05"}, {"Gestore": "STAZIONE DI SERVIZIO TAMOIL DI MORAMARCO GIACINTO E C. SNC", "Bandiera": "Tamoil", "Tipo impianto": "Altro", "Indirizzo": "VIA TAGLIABUE 22 20832", "Nome impianto": "STAZIONE DI SERVIZIO TAMOIL di MORAMARCO GIACINTO & C. snc", "Comune": "DESIO", "idImpianto": 14629, "points": [{"type": "Feature", "properties": {}, "geometry": {"type": "Point", "coordinates": [9.216838628053663, 45.619648203491856]}}], "price": 2.019, "ultima_rilevazione": "10/07/2022 12:40:06"}, {"Gestore": "STAZIONE DI SERVIZIO TAMOIL DI MORAMARCO GIACINTO E C. SNC", "Bandiera": "Tamoil", "Tipo impianto": "Altro", "Indirizzo": "VIA TAGLIABUE 22 20832", "Nome impianto": "STAZIONE DI SERVIZIO TAMOIL di MORAMARCO GIACINTO & C. snc", "Comune": "DESIO", "idImpianto": 14629, "points": [{"type": "Feature", "properties": {}, "geometry": {"type": "Point", "coordinates": [9.216838628053663, 45.619648203491856]}}], "price": 2.169, "ultima_rilevazione": "10/07/2022 12:40:06"}, {"Gestore": "T.D.M. S.R.L.", "Bandiera": "Tamoil", "Tipo impianto": "Altro", "Indirizzo": "VIA S. BERNARDO/A. MANZONI 1 20841", "Nome impianto": "8486", "Comune": "CARATE BRIANZA", "idImpianto": 46271, "points": [{"type": "Feature", "properties": {}, "geometry": {"type": "Point", "coordinates": [9.237283114039087, 45.67913166910388]}}], "price": 1.999, "ultima_rilevazione": "10/07/2022 14:34:08"}, {"Gestore": "SERVIZI & GESTIONI ITALIA S.R.L.", "Bandiera": "Q8", "Tipo impianto": "Altro", "Indirizzo": "VIA VALASSINA 144 EST 20033", "Nome impianto": "DESIO-VIA VALASSINA 144 EST", "Comune": "DESIO", "idImpianto": 11643, "points": [{"type": "Feature", "properties": {}, "geometry": {"type": "Point", "coordinates": [9.224793526458711, 45.62338022251562]}}], "price": 2.019, "ultima_rilevazione": "11/07/2022 00:34:46"}, {"Gestore": "SERVIZI & GESTIONI ITALIA S.R.L.", "Bandiera": "Q8", "Tipo impianto": "Altro", "Indirizzo": "SS 36 VALASSINA KM 19+020 S/N 20035", "Nome impianto": "LISSONE-SS 36 VALASSINA KM 19+020", "Comune": "LISSONE", "idImpianto": 11649, "points": [{"type": "Feature", "properties": {}, "geometry": {"type": "Point", "coordinates": [9.224526822090183, 45.63615438760353]}}], "price": 2.019, "ultima_rilevazione": "11/07/2022 00:34:47"}, {"Gestore": "SERVIZI & GESTIONI ITALIA S.R.L.", "Bandiera": "Q8", "Tipo impianto": "Altro", "Indirizzo": "S.S.36 SPLUGA KM 10+495  20841", "Nome impianto": "CARATE BRIANZA  S.S.36 SPLUGA KM 10+495", "Comune": "CARATE BRIANZA", "idImpianto": 43651, "points": [{"type": "Feature", "properties": {}, "geometry": {"type": "Point", "coordinates": [9.219860217790938, 45.67494693789578]}}], "price": 2.019, "ultima_rilevazione": "11/07/2022 00:34:56"}, {"Gestore": "SERVIZI & GESTIONI ITALIA S.R.L.", "Bandiera": "Q8", "Tipo impianto": "Altro", "Indirizzo": "VIA MILANO 20  20831", "Nome impianto": "SEREGNO VIA MILANO 20", "Comune": "SEREGNO", "idImpianto": 23494, "points": [{"type": "Feature", "properties": {}, "geometry": {"type": "Point", "coordinates": [9.204979240894318, 45.641553376210986]}}], "price": 2.019, "ultima_rilevazione": "11/07/2022 00:35:04"}, {"Gestore": "CASTELLUCCIO SERVICE S.A.S. DI NESCI ERNESTO & C.", "Bandiera": "Retitalia", "Tipo impianto": "Altro", "Indirizzo": "Via Stefano da Seregno 92 20831", "Nome impianto": "Retitalia 42912", "Comune": "SEREGNO", "idImpianto": 45122, "points": [{"type": "Feature", "properties": {}, "geometry": {"type": "Point", "coordinates": [9.211188563276892, 45.64680021281812]}}], "price": 1.959, "ultima_rilevazione": "11/07/2022 01:22:19"}, {"Gestore": "CASTELLUCCIO SERVICE S.A.S. DI NESCI ERNESTO & C.", "Bandiera": "Agip Eni", "Tipo impianto": "Altro", "Indirizzo": "Via Macalle' 184 20831", "Nome impianto": "Eni Seregno 12261", "Comune": "SEREGNO", "idImpianto": 49133, "points": [{"type": "Feature", "properties": {}, "geometry": {"type": "Point", "coordinates": [9.22021315078735, 45.637368850223645]}}], "price": 2.019, "ultima_rilevazione": "11/07/2022 01:22:28"}], "5": [{"Gestore": "PUCCI GOMME DI MOTTO MASSIMO & C. S.N.C.", "Bandiera": "Api-Ip", "Tipo impianto": "Altro", "Indirizzo": "VIA ROMA 94 23880", "Nome impianto": "PUCCI GOMME SNC", "Comune": "CASATENOVO", "idImpianto": 26824, "points": [{"type": "Feature", "properties": {}, "geometry": {"type": "Point", "coordinates": [9.31693196296692, 45.68039739392671]}}], "price": 2.264, "ultima_rilevazione": "06/07/2022 12:02:35"}, {"Gestore": "SUPER CAR WASH DI MIRZA SHAFEEQ SIDDIQUE", "Bandiera": "Api-Ip", "Tipo impianto": "Altro", "Indirizzo": "VIA MASCAGNI 75 20832", "Nome impianto": "ITALIANA PETROLI", "Comune": "DESIO", "idImpianto": 48408, "points": [{"type": "Feature", "properties": {}, "geometry": {"type": "Point", "coordinates": [9.217777163194668, 45.60871324729638]}}], "price": 2.019, "ultima_rilevazione": "06/07/2022 19:00:49"}, {"Gestore": "MERONI SERVICE CAR S.A.S. DI G. MERONI & C.", "Bandiera": "Esso", "Tipo impianto": "Altro", "Indirizzo": "via carducci 65 20851", "Nome impianto": "ESSO MERONI SERVICE CAR SAS", "Comune": "LISSONE", "idImpianto": 22190, "points": [{"type": "Feature", "properties": {}, "geometry": {"type": "Point", "coordinates": [9.235237428465894, 45.60339971326928]}}], "price": 2.056, "ultima_rilevazione": "06/07/2022 20:48:35"}, {"Gestore": "MANDIA ANTONIO", "Bandiera": "Pompe Bianche", "Tipo impianto": "Altro", "Indirizzo": "VIA PER CESANO 44 20832", "Nome impianto": "NUOVA COMA SRL", "Comune": "DESIO", "idImpianto": 14095, "points": [{"type": "Feature", "properties": {}, "geometry": {"type": "Point", "coordinates": [9.195360888360597, 45.62368386848299]}}], "price": 2.049, "ultima_rilevazione": "07/07/2022 07:02:13"}, {"Gestore": "SCARFONE COSIMO", "Bandiera": "Agip Eni", "Tipo impianto": "Altro", "Indirizzo": "via milano 230 20832", "Nome impianto": "ENI DESIO", "Comune": "DESIO", "idImpianto": 32877, "points": [{"type": "Feature", "properties": {}, "geometry": {"type": "Point", "coordinates": [9.199714064598083, 45.62074583216158]}}], "price": 2.024, "ultima_rilevazione": "07/07/2022 08:36:50"}, {"Gestore": "AUTODROMO NAZIONALE MONZA S.I.A.S. SOCIETA' INCREMENTO AUTOMOBILISMO E SPORT -S.P.A.", "Bandiera": "Agip Eni", "Tipo impianto": "Altro", "Indirizzo": "VIALE DI VEDANO 5 20900", "Nome impianto": "Autodromo Nazionale Monza", "Comune": "MONZA", "idImpianto": 29043, "points": [{"type": "Feature", "properties": {}, "geometry": {"type": "Point", "coordinates": [9.282018981114788, 45.61894867633523]}}], "price": 2.229, "ultima_rilevazione": "07/07/2022 09:21:19"}, {"Gestore": "SALA ENRICO", "Bandiera": "KEROPETROL", "Tipo impianto": "Altro", "Indirizzo": "viale kennedy 48 20842", "Nome impianto": "Keropetrol", "Comune": "BESANA IN BRIANZA", "idImpianto": 4399, "points": [{"type": "Feature", "properties": {}, "geometry": {"type": "Point", "coordinates": [9.287367490737893, 45.69913119977472]}}], "price": 2.019, "ultima_rilevazione": "08/07/2022 09:02:42"}, {"Gestore": "CAR SERVICE S.N.C. DI CARLO SPADONE E ALBERTO SCORZA", "Bandiera": "Esso", "Tipo impianto": "Altro", "Indirizzo": "VIA ANTONIO STOPPANI 92 20831", "Nome impianto": "car service snc", "Comune": "SEREGNO", "idImpianto": 43540, "points": [{"type": "Feature", "properties": {}, "geometry": {"type": "Point", "coordinates": [9.195143177909811, 45.6563447475817]}}], "price": 2.066, "ultima_rilevazione": "08/07/2022 12:08:10"}, {"Gestore": "GS SPA", "Bandiera": "Api-Ip", "Tipo impianto": "Altro", "Indirizzo": "Via Prealpi  20034", "Nome impianto": "Carrefour IP Giussano", "Comune": "GIUSSANO", "idImpianto": 48726, "points": [{"type": "Feature", "properties": {}, "geometry": {"type": "Point", "coordinates": [9.209841168619016, 45.69092447592693]}}], "price": 2.039, "ultima_rilevazione": "08/07/2022 16:15:32"}, {"Gestore": "EFFEGI S.N.C. DEI F.LLI XHERAJ & C.", "Bandiera": "Esso", "Tipo impianto": "Altro", "Indirizzo": "VIA VALASSINA 4 20833", "Nome impianto": "ESSO", "Comune": "GIUSSANO", "idImpianto": 28135, "points": [{"type": "Feature", "properties": {}, "geometry": {"type": "Point", "coordinates": [9.213966652750967, 45.6887088798866]}}], "price": 2.056, "ultima_rilevazione": "08/07/2022 18:53:33"}, {"Gestore": "ASC S.R.L.", "Bandiera": "Pompe Bianche", "Tipo impianto": "Altro", "Indirizzo": "VIA VIGANO 4 20833", "Nome impianto": "LUDOIL", "Comune": "GIUSSANO", "idImpianto": 32212, "points": [{"type": "Feature", "properties": {}, "geometry": {"type": "Point", "coordinates": [9.215196220343614, 45.69665487824729]}}], "price": 1.979, "ultima_rilevazione": "08/07/2022 19:18:48"}, {"Gestore": "BRILLAUTO S.A.S. DI CONSOLARO GIUSEPPE, MOTTA LORENZO & C.", "Bandiera": "Api-Ip", "Tipo impianto": "Altro", "Indirizzo": "VIA IV NOVEMBRE 1 20833", "Nome impianto": "Brillauto sas", "Comune": "GIUSSANO", "idImpianto": 20179, "points": [{"type": "Feature", "properties": {}, "geometry": {"type": "Point", "coordinates": [9.204661399126053, 45.6761939607117]}}], "price": 1.979, "ultima_rilevazione": "09/07/2022 07:53:59"}, {"Gestore": "BARAVIERA GRETA", "Bandiera": "Esso", "Tipo impianto": "Altro", "Indirizzo": "VIA KENNEDY 21 20842", "Nome impianto": "Esso Baraviera", "Comune": "BESANA IN BRIANZA", "idImpianto": 36496, "points": [{"type": "Feature", "properties": {}, "geometry": {"type": "Point", "coordinates": [9.2915877699852, 45.69989546872483]}}], "price": 2.046, "ultima_rilevazione": "09/07/2022 08:01:43"}, {"Gestore": "RUSSO GIORGIO", "Bandiera": "Esso", "Tipo impianto": "Altro", "Indirizzo": "VIA GIUSEPPE GARIBALDI 306 20832", "Nome impianto": "ESSO ", "Comune": "DESIO", "idImpianto": 21100, "points": [{"type": "Feature", "properties": {}, "geometry": {"type": "Point", "coordinates": [9.202510938048365, 45.6069307654106]}}], "price": 2.019, "ultima_rilevazione": "09/07/2022 08:47:07"}, {"Gestore": "TREMOLADA E FIGLI SAS DI TREMOLADA DARIO & C.", "Bandiera": "Agip Eni", "Tipo impianto": "Strada Statale", "Indirizzo": "36 del Lago di Como e dello Spluga, Km. snc, Milano 20832 ", "Nome impianto": "Tremolada Sas", "Comune": "DESIO", "idImpianto": 50331, "points": [{"type": "Feature", "properties": {}, "geometry": {"type": "Point", "coordinates": [9.223568613082731, 45.61646218811291]}}], "price": 1.984, "ultima_rilevazione": "09/07/2022 11:44:17"}, {"Gestore": "FRATELLI CARLUCCI S.N.C. DI CARLUCCI PAOLO & C.", "Bandiera": "Q8", "Tipo impianto": "Strada Statale", "Indirizzo": "Statale 36 del Lago di Como e dello Spluga, Km. 26, dir. Lecco 20843", "Nome impianto": "Q8 di Flli Carlucci snc", "Comune": "VERANO BRIANZA", "idImpianto": 5636, "points": [{"type": "Feature", "properties": {}, "geometry": {"type": "Point", "coordinates": [9.227552711963654, 45.69678383208968]}}], "price": 2.019, "ultima_rilevazione": "09/07/2022 12:03:08"}, {"Gestore": "VANOLI S.N.C. DI VANOLI FIRMINO E MARONI", "Bandiera": "Esso", "Tipo impianto": "Altro", "Indirizzo": "via 4 Novembre, Paina di Giussano  160 20034", "Nome impianto": "stazione di servizio Esso Vanoli snc", "Comune": "GIUSSANO", "idImpianto": 5160, "points": [{"type": "Feature", "properties": {}, "geometry": {"type": "Point", "coordinates": [9.202318489551544, 45.668298036450224]}}], "price": 2.036, "ultima_rilevazione": "09/07/2022 12:03:48"}, {"Gestore": "SESINI SIMONE", "Bandiera": "Agip Eni", "Tipo impianto": "Altro", "Indirizzo": "VIA MILANO 4 20833", "Nome impianto": "eni 55348", "Comune": "GIUSSANO", "idImpianto": 43459, "points": [{"type": "Feature", "properties": {}, "geometry": {"type": "Point", "coordinates": [9.208561588954922, 45.69602115193018]}}], "price": 2.024, "ultima_rilevazione": "09/07/2022 15:29:10"}, {"Gestore": "IP SERVICES S.R.L.", "Bandiera": "Api-Ip", "Tipo impianto": "Altro", "Indirizzo": "VIA WAGNER  20831", "Nome impianto": "SEREGNO - WAGNER", "Comune": "SEREGNO", "idImpianto": 24809, "points": [{"type": "Feature", "properties": {}, "geometry": {"type": "Point", "coordinates": [9.18449061226852, 45.65620281214398]}}], "price": 1.989, "ultima_rilevazione": "10/07/2022 09:03:20"}, {"Gestore": "IP SERVICES S.R.L.", "Bandiera": "Api-Ip", "Tipo impianto": "Altro", "Indirizzo": "Via Generale Giardino 1 20851", "Nome impianto": "Lissone", "Comune": "LISSONE", "idImpianto": 22981, "points": [{"type": "Feature", "properties": {}, "geometry": {"type": "Point", "coordinates": [9.229980111122131, 45.60220426098312]}}], "price": 2.009, "ultima_rilevazione": "10/07/2022 09:04:31"}, {"Gestore": "T.D.M. S.R.L.", "Bandiera": "Tamoil", "Tipo impianto": "Altro", "Indirizzo": "Viale Lario  20833", "Nome impianto": "4034", "Comune": "GIUSSANO", "idImpianto": 28970, "points": [{"type": "Feature", "properties": {}, "geometry": {"type": "Point", "coordinates": [9.20681655406952, 45.676595390060406]}}], "price": 1.979, "ultima_rilevazione": "10/07/2022 11:50:14"}, {"Gestore": "T.D.M. S.R.L.", "Bandiera": "Tamoil", "Tipo impianto": "Altro", "Indirizzo": "SP. 6 MONZA/CARATE SNC 20853", "Nome impianto": "8498", "Comune": "BIASSONO", "idImpianto": 42799, "points": [{"type": "Feature", "properties": {}, "geometry": {"type": "Point", "coordinates": [9.276267804727697, 45.62270253219843]}}], "price": 1.999, "ultima_rilevazione": "10/07/2022 12:16:10"}, {"Gestore": "T.D.M. S.R.L.", "Bandiera": "Tamoil", "Tipo impianto": "Altro", "Indirizzo": "VIA DON LUIGI VIGANO' FRAZ: CASSINA SAVINA 4 20811", "Nome impianto": "4022", "Comune": "CESANO MADERNO", "idImpianto": 46375, "points": [{"type": "Feature", "properties": {}, "geometry": {"type": "Point", "coordinates": [9.179304599524926, 45.63849701505329]}}], "price": 2.039, "ultima_rilevazione": "10/07/2022 12:18:07"}, {"Gestore": "STAZIONE DI SERVIZIO DI CAZZANIGA GIUSEPPE", "Bandiera": "Tamoil", "Tipo impianto": "Altro", "Indirizzo": "VIA SANT'AMBROGIO 43 20844", "Nome impianto": "STAZIONE DI SERVIZIO TAMOIL", "Comune": "TRIUGGIO", "idImpianto": 20559, "points": [{"type": "Feature", "properties": {}, "geometry": {"type": "Point", "coordinates": [9.28988617790992, 45.68107788288225]}}], "price": 1.999, "ultima_rilevazione": "10/07/2022 15:12:02"}, {"Gestore": "STAZIONE DI SERVIZIO DI CAZZANIGA GIUSEPPE", "Bandiera": "Tamoil", "Tipo impianto": "Altro", "Indirizzo": "VIA SANT'AMBROGIO 43 20844", "Nome impianto": "STAZIONE DI SERVIZIO TAMOIL", "Comune": "TRIUGGIO", "idImpianto": 20559, "points": [{"type": "Feature", "properties": {}, "geometry": {"type": "Point", "coordinates": [9.28988617790992, 45.68107788288225]}}], "price": 2.149, "ultima_rilevazione": "10/07/2022 15:12:02"}, {"Gestore": "SERVIZI & GESTIONI ITALIA S.R.L.", "Bandiera": "Q8", "Tipo impianto": "Altro", "Indirizzo": "VIA MILANO 165 20033", "Nome impianto": "DESIO-VIA MILANO 165", "Comune": "DESIO", "idImpianto": 11642, "points": [{"type": "Feature", "properties": {}, "geometry": {"type": "Point", "coordinates": [9.20041492757798, 45.61516903593563]}}], "price": 1.999, "ultima_rilevazione": "11/07/2022 00:34:46"}, {"Gestore": "SERVIZI & GESTIONI ITALIA S.R.L.", "Bandiera": "Q8", "Tipo impianto": "Altro", "Indirizzo": "VIA MARTIRI LIBERTA'  / PANZINI 12 20035", "Nome impianto": "LISSONE-VIA MARTIRI LIBERTA' 12 / PANZINI", "Comune": "LISSONE", "idImpianto": 11645, "points": [{"type": "Feature", "properties": {}, "geometry": {"type": "Point", "coordinates": [9.248222974204964, 45.61524052887886]}}], "price": 1.999, "ultima_rilevazione": "11/07/2022 00:34:47"}, {"Gestore": "SERVIZI & GESTIONI ITALIA S.R.L.", "Bandiera": "Q8", "Tipo impianto": "Altro", "Indirizzo": "SP. NUOVA VALASSINA S/N 20050", "Nome impianto": "VERANO BRIANZA-SP. NUOVA VALASSINA", "Comune": "VERANO BRIANZA", "idImpianto": 11650, "points": [{"type": "Feature", "properties": {}, "geometry": {"type": "Point", "coordinates": [9.21897469444275, 45.68822505244049]}}], "price": 2.019, "ultima_rilevazione": "11/07/2022 00:34:53"}, {"Gestore": "SERVIZI & GESTIONI ITALIA S.R.L.", "Bandiera": "Q8", "Tipo impianto": "Altro", "Indirizzo": "S.P.192 VALASSINA  20851", "Nome impianto": "LISSONE S.P.192 VALASSINA", "Comune": "LISSONE", "idImpianto": 39112, "points": [{"type": "Feature", "properties": {}, "geometry": {"type": "Point", "coordinates": [9.231563955545424, 45.60228936339683]}}], "price": 2.039, "ultima_rilevazione": "11/07/2022 00:35:04"}, {"Gestore": "D'ALOIA GIOVANNI", "Bandiera": "Agip Eni", "Tipo impianto": "Altro", "Indirizzo": "VIA DELLA REPUBBLICA 134 20851", "Nome impianto": "ENI 2281", "Comune": "LISSONE", "idImpianto": 15800, "points": [{"type": "Feature", "properties": {}, "geometry": {"type": "Point", "coordinates": [9.25201915204525, 45.603109323245846]}}], "price": 1.984, "ultima_rilevazione": "11/07/2022 06:45:36"}, {"Gestore": "DE PIETRO SALVATORE", "Bandiera": "Esso", "Tipo impianto": "Altro", "Indirizzo": "via monte rosa 107 20862", "Nome impianto": "stazione di servizio esso arcore", "Comune": "ARCORE", "idImpianto": 28578, "points": [{"type": "Feature", "properties": {}, "geometry": {"type": "Point", "coordinates": [9.31034579873085, 45.6235859474844]}}], "price": 1.979, "ultima_rilevazione": "11/07/2022 07:36:22"}]}, "null": {}, "GPL": {"1": [{"Gestore": "DUE ESSE S.A.S. DI LO TORTO MICHELE E STILO SALVATORE E C.", "Bandiera": "Socogas", "Tipo impianto": "Altro", "Indirizzo": "VIA MOSE' BIANCHI-S.P.6 KM.25,50 20841", "Nome impianto": "AREA MOSE' BIANCHI", "Comune": "CARATE BRIANZA", "idImpianto": 27284, "points": [{"type": "Feature", "properties": {}, "geometry": {"type": "Point", "coordinates": [9.247886538505554, 45.6631251327261]}}], "price": 0.815, "ultima_rilevazione": "04/07/2022 17:27:31"}], "3": [{"Gestore": "GI&MA SAS DI RIVA PIETRO", "Bandiera": "Api-Ip", "Tipo impianto": "Strada Statale", "Indirizzo": "36 del Lago di Como e dello Spluga, Km. 23, milano 20841", "Nome impianto": "GI&MA SAS", "Comune": "CARATE BRIANZA", "idImpianto": 35113, "points": [{"type": "Feature", "properties": {}, "geometry": {"type": "Point", "coordinates": [9.2234905064106, 45.66182344335993]}}], "price": 0.809, "ultima_rilevazione": "07/07/2022 15:57:34"}, {"Gestore": "LA MARCA GIUSEPPE", "Bandiera": "Api-Ip", "Tipo impianto": "Altro", "Indirizzo": "Via Bergognone, snc  20832", "Nome impianto": "Giuseppe La Marca", "Comune": "DESIO", "idImpianto": 42824, "points": [{"type": "Feature", "properties": {}, "geometry": {"type": "Point", "coordinates": [9.223661976686458, 45.62073237215098]}}], "price": 0.834, "ultima_rilevazione": "08/07/2022 13:20:18"}, {"Gestore": "BALDON FABRIZIO E C. SAS", "Bandiera": "Beyfin", "Tipo impianto": "Altro", "Indirizzo": " NUOVA VALASSINA 133 20832", "Nome impianto": "BEYFIN", "Comune": "DESIO", "idImpianto": 38079, "points": [{"type": "Feature", "properties": {}, "geometry": {"type": "Point", "coordinates": [9.223982021212578, 45.623904091494055]}}], "price": 0.809, "ultima_rilevazione": "09/07/2022 18:51:17"}, {"Gestore": "SERVIZI & GESTIONI ITALIA S.R.L.", "Bandiera": "Q8", "Tipo impianto": "Altro", "Indirizzo": "S.S.36 SPLUGA KM 10+495  20841", "Nome impianto": "CARATE BRIANZA  S.S.36 SPLUGA KM 10+495", "Comune": "CARATE BRIANZA", "idImpianto": 43651, "points": [{"type": "Feature", "properties": {}, "geometry": {"type": "Point", "coordinates": [9.219860217790938, 45.67494693789578]}}], "price": 0.869, "ultima_rilevazione": "11/07/2022 00:34:56"}], "5": [{"Gestore": "PUCCI GOMME DI MOTTO MASSIMO & C. S.N.C.", "Bandiera": "Pompe Bianche", "Tipo impianto": "Altro", "Indirizzo": "VIA BOSCHETTO SNC 23880", "Nome impianto": "PUCCI GREENPOWER", "Comune": "CASATENOVO", "idImpianto": 33534, "points": [{"type": "Feature", "properties": {}, "geometry": {"type": "Point", "coordinates": [9.316917210817335, 45.68040788805648]}}], "price": 0.869, "ultima_rilevazione": "06/07/2022 12:03:02"}, {"Gestore": "FRATELLI CARLUCCI S.N.C. DI CARLUCCI PAOLO & C.", "Bandiera": "Q8", "Tipo impianto": "Strada Statale", "Indirizzo": "Statale 36 del Lago di Como e dello Spluga, Km. 26, dir. Lecco 20843", "Nome impianto": "Q8 di Flli Carlucci snc", "Comune": "VERANO BRIANZA", "idImpianto": 5636, "points": [{"type": "Feature", "properties": {}, "geometry": {"type": "Point", "coordinates": [9.227552711963654, 45.69678383208968]}}], "price": 0.849, "ultima_rilevazione": "09/07/2022 12:03:08"}]}, "Gasolio": {"1": [{"Gestore": "CHIAPPERINI PAOLO", "Bandiera": "Agip Eni", "Tipo impianto": "Altro", "Indirizzo": "viale monza  2 20845", "Nome impianto": "CHIAPPERINI PAOLO", "Comune": "SOVICO", "idImpianto": 43640, "points": [{"type": "Feature", "properties": {}, "geometry": {"type": "Point", "coordinates": [9.254779565641456, 45.65491274961172]}}], "price": 2.014, "ultima_rilevazione": "01/07/2022 16:58:46"}, {"Gestore": "RAIMONDO E CHIARA S.N.C. DI MARCUCCI RAIMONDO E C", "Bandiera": "Q8", "Tipo impianto": "Altro", "Indirizzo": "Viale Monza 19 20845", "Nome impianto": "Q8 di Raimondo e Chiara ", "Comune": "SOVICO", "idImpianto": 46917, "points": [{"type": "Feature", "properties": {}, "geometry": {"type": "Point", "coordinates": [9.25856351987874, 45.650415804145176]}}], "price": 2.049, "ultima_rilevazione": "04/07/2022 11:16:06"}, {"Gestore": "STAZIONE DI SERVIZIO CURIONI GIOVANNI & POZZI SANDRA S.N.C.", "Bandiera": "Esso", "Tipo impianto": "Strada Statale", "Indirizzo": "Statale 36 del Lago di Como e dello Spluga, Km. 20+400, dir. LECCO 20831", "Nome impianto": "SEREGNO SAN SALVATORE", "Comune": "SEREGNO", "idImpianto": 7628, "points": [{"type": "Feature", "properties": {}, "geometry": {"type": "Point", "coordinates": [9.226229041814804, 45.6486815094895]}}], "price": 1.966, "ultima_rilevazione": "09/07/2022 07:56:22"}], "3": [{"Gestore": "GALIFI DOMENICO", "Bandiera": "Api-Ip", "Tipo impianto": "Altro", "Indirizzo": "Via M.Buonarroti 148 20035", "Nome impianto": "total erg di Galifi ", "Comune": "LISSONE", "idImpianto": 43616, "points": [{"type": "Feature", "properties": {}, "geometry": {"type": "Point", "coordinates": [9.239804046627114, 45.62240218615924]}}], "price": 1.834, "ultima_rilevazione": "28/03/2022 10:16:18"}, {"Gestore": "CAROLI GIOVANNI", "Bandiera": "Q8", "Tipo impianto": "Altro", "Indirizzo": "VIA GIOVANNI DA SOVICO 129 20845", "Nome impianto": "Caroli Giovanni", "Comune": "SOVICO", "idImpianto": 19353, "points": [{"type": "Feature", "properties": {}, "geometry": {"type": "Point", "coordinates": [9.266958820866762, 45.64417784424008]}}], "price": 2.049, "ultima_rilevazione": "04/07/2022 14:45:20"}, {"Gestore": "GI&MA SAS DI RIVA PIETRO", "Bandiera": "Api-Ip", "Tipo impianto": "Strada Statale", "Indirizzo": "36 del Lago di Como e dello Spluga, Km. 23, milano 20841", "Nome impianto": "GI&MA SAS", "Comune": "CARATE BRIANZA", "idImpianto": 35113, "points": [{"type": "Feature", "properties": {}, "geometry": {"type": "Point", "coordinates": [9.2234905064106, 45.66182344335993]}}], "price": 1.979, "ultima_rilevazione": "07/07/2022 15:57:34"}, {"Gestore": "MASTROGIOVANNI FABIO", "Bandiera": "Api-Ip", "Tipo impianto": "Altro", "Indirizzo": "VIA TOTI 17 20851", "Nome impianto": "IP", "Comune": "LISSONE", "idImpianto": 15439, "points": [{"type": "Feature", "properties": {}, "geometry": {"type": "Point", "coordinates": [9.244537680470216, 45.6291135635181]}}], "price": 2.019, "ultima_rilevazione": "07/07/2022 20:08:46"}, {"Gestore": "SERVIZI E GESTIONI ZENIT S.R.L. IN SIGLA - ZENIT S.R.L.", "Bandiera": "Giap", "Tipo impianto": "Altro", "Indirizzo": "VIA CAVOUR 14 20050", "Nome impianto": "VIA CAVOUR - VERANO BRIANZA", "Comune": "VERANO BRIANZA", "idImpianto": 34745, "points": [{"type": "Feature", "properties": {}, "geometry": {"type": "Point", "coordinates": [9.230643957853315, 45.68472718085179]}}], "price": 1.999, "ultima_rilevazione": "08/07/2022 09:01:09"}, {"Gestore": "SANICAR SERVICE S.N.C. DI SALVATORE NICOLA E LOMBARDO SALVATORE", "Bandiera": "Esso", "Tipo impianto": "Altro", "Indirizzo": "VIA ALESSANDRO VOLTA 2 20846", "Nome impianto": "sanicarservice snc di salvatore nicola e lombardo salvatore", "Comune": "MACHERIO", "idImpianto": 5656, "points": [{"type": "Feature", "properties": {}, "geometry": {"type": "Point", "coordinates": [9.265367770676107, 45.63839694383991]}}], "price": 2.036, "ultima_rilevazione": "09/07/2022 07:18:31"}, {"Gestore": "NUOVA SIDAP  S.R.L.", "Bandiera": "Q8", "Tipo impianto": "Strada Statale", "Indirizzo": "36 del Lago di Como e dello Spluga, Km.  23,470, Sud 20841", "Nome impianto": "CARATE OVEST", "Comune": "CARATE BRIANZA", "idImpianto": 46534, "points": [{"type": "Feature", "properties": {}, "geometry": {"type": "Point", "coordinates": [9.219954758882524, 45.67205225949342]}}], "price": 1.979, "ultima_rilevazione": "09/07/2022 07:34:17"}, {"Gestore": "STAZIONE DI SERVIZIO DI CORVINO CONCETTA", "Bandiera": "Agip Eni", "Tipo impianto": "Altro", "Indirizzo": "VIA MATTEOTTI 160 20851", "Nome impianto": "STAZ. SERV. ENI di Corvino Concetta", "Comune": "LISSONE", "idImpianto": 45886, "points": [{"type": "Feature", "properties": {}, "geometry": {"type": "Point", "coordinates": [9.234296000123, 45.618672000123]}}], "price": 1.974, "ultima_rilevazione": "09/07/2022 07:40:21"}, {"Gestore": "CURIONI ANGELO E POZZI SANDRA SNC", "Bandiera": "Esso", "Tipo impianto": "Altro", "Indirizzo": "VIA MILANO 81 20831", "Nome impianto": "SEREGNO VIA MILANO 81  ", "Comune": "SEREGNO", "idImpianto": 43069, "points": [{"type": "Feature", "properties": {}, "geometry": {"type": "Point", "coordinates": [9.205776271163929, 45.63923175066154]}}], "price": 1.996, "ultima_rilevazione": "09/07/2022 07:53:34"}, {"Gestore": "IP SERVICES S.R.L.", "Bandiera": "Api-Ip", "Tipo impianto": "Altro", "Indirizzo": "VIA SAN MICHELE AL CARSO  20048", "Nome impianto": "CARATE BRIANZA - SAN MICHELE", "Comune": "CARATE BRIANZA", "idImpianto": 32325, "points": [{"type": "Feature", "properties": {}, "geometry": {"type": "Point", "coordinates": [9.242680466270484, 45.675644978696376]}}], "price": 1.979, "ultima_rilevazione": "10/07/2022 09:01:10"}, {"Gestore": "IP SERVICES S.R.L.", "Bandiera": "Api-Ip", "Tipo impianto": "Altro", "Indirizzo": "VIA MONTELLO 69 20038", "Nome impianto": "SEREGNO - MONTELLO 69", "Comune": "SEREGNO", "idImpianto": 32462, "points": [{"type": "Feature", "properties": {}, "geometry": {"type": "Point", "coordinates": [9.221599999999968, 45.649894375078894]}}], "price": 1.959, "ultima_rilevazione": "10/07/2022 09:02:06"}, {"Gestore": "IP SERVICES S.R.L.", "Bandiera": "Api-Ip", "Tipo impianto": "Altro", "Indirizzo": "Via Briantina  20038", "Nome impianto": "SEREGNO - BRIANTINA", "Comune": "SEREGNO", "idImpianto": 26991, "points": [{"type": "Feature", "properties": {}, "geometry": {"type": "Point", "coordinates": [9.216957084655746, 45.66186625769628]}}], "price": 1.989, "ultima_rilevazione": "10/07/2022 09:03:22"}, {"Gestore": "T.D.M. S.R.L.", "Bandiera": "Tamoil", "Tipo impianto": "Altro", "Indirizzo": "via Como 112 20851", "Nome impianto": "8049", "Comune": "LISSONE", "idImpianto": 32684, "points": [{"type": "Feature", "properties": {}, "geometry": {"type": "Point", "coordinates": [9.233988001942636, 45.61964253800573]}}], "price": 1.999, "ultima_rilevazione": "10/07/2022 11:50:14"}, {"Gestore": "ZACCONE FRATELLI S.N.C. DI FABIO E MAURIZIO ZACCONE", "Bandiera": "Tamoil", "Tipo impianto": "Altro", "Indirizzo": "VIALE MARTIRI DELLA LIBERTA' 114 20851", "Nome impianto": "TAMOIL", "Comune": "LISSONE", "idImpianto": 12233, "points": [{"type": "Feature", "properties": {}, "geometry": {"type": "Point", "coordinates": [9.243964514276286, 45.62425321888188]}}], "price": 2.019, "ultima_rilevazione": "11/07/2022 06:52:05"}, {"Gestore": "STAZIONE DI SERVIZIO TAMOIL DI MORAMARCO GIACINTO E C. SNC", "Bandiera": "Tamoil", "Tipo impianto": "Altro", "Indirizzo": "VIA TAGLIABUE 22 20832", "Nome impianto": "STAZIONE DI SERVIZIO TAMOIL di MORAMARCO GIACINTO & C. snc", "Comune": "DESIO", "idImpianto": 14629, "points": [{"type": "Feature", "properties": {}, "geometry": {"type": "Point", "coordinates": [9.216838628053663, 45.619648203491856]}}], "price": 1.999, "ultima_rilevazione": "10/07/2022 12:40:06"}, {"Gestore": "T.D.M. S.R.L.", "Bandiera": "Tamoil", "Tipo impianto": "Altro", "Indirizzo": "VIA S. BERNARDO/A. MANZONI 1 20841", "Nome impianto": "8486", "Comune": "CARATE BRIANZA", "idImpianto": 46271, "points": [{"type": "Feature", "properties": {}, "geometry": {"type": "Point", "coordinates": [9.237283114039087, 45.67913166910388]}}], "price": 1.979, "ultima_rilevazione": "10/07/2022 14:34:08"}, {"Gestore": "SERVIZI & GESTIONI ITALIA S.R.L.", "Bandiera": "Q8", "Tipo impianto": "Altro", "Indirizzo": "VIA VALASSINA 144 EST 20033", "Nome impianto": "DESIO-VIA VALASSINA 144 EST", "Comune": "DESIO", "idImpianto": 11643, "points": [{"type": "Feature", "properties": {}, "geometry": {"type": "Point", "coordinates": [9.224793526458711, 45.62338022251562]}}], "price": 1.979, "ultima_rilevazione": "11/07/2022 00:34:46"}, {"Gestore": "SERVIZI & GESTIONI ITALIA S.R.L.", "Bandiera": "Q8", "Tipo impianto": "Altro", "Indirizzo": "SS 36 VALASSINA KM 19+020 S/N 20035", "Nome impianto": "LISSONE-SS 36 VALASSINA KM 19+020", "Comune": "LISSONE", "idImpianto": 11649, "points": [{"type": "Feature", "properties": {}, "geometry": {"type": "Point", "coordinates": [9.224526822090183, 45.63615438760353]}}], "price": 1.979, "ultima_rilevazione": "11/07/2022 00:34:47"}, {"Gestore": "SERVIZI & GESTIONI ITALIA S.R.L.", "Bandiera": "Q8", "Tipo impianto": "Altro", "Indirizzo": "S.S.36 SPLUGA KM 10+495  20841", "Nome impianto": "CARATE BRIANZA  S.S.36 SPLUGA KM 10+495", "Comune": "CARATE BRIANZA", "idImpianto": 43651, "points": [{"type": "Feature", "properties": {}, "geometry": {"type": "Point", "coordinates": [9.219860217790938, 45.67494693789578]}}], "price": 1.979, "ultima_rilevazione": "11/07/2022 00:34:56"}, {"Gestore": "SERVIZI & GESTIONI ITALIA S.R.L.", "Bandiera": "Q8", "Tipo impianto": "Altro", "Indirizzo": "VIA MILANO 20  20831", "Nome impianto": "SEREGNO VIA MILANO 20", "Comune": "SEREGNO", "idImpianto": 23494, "points": [{"type": "Feature", "properties": {}, "geometry": {"type": "Point", "coordinates": [9.204979240894318, 45.641553376210986]}}], "price": 1.989, "ultima_rilevazione": "11/07/2022 00:35:04"}, {"Gestore": "CASTELLUCCIO SERVICE S.A.S. DI NESCI ERNESTO & C.", "Bandiera": "Retitalia", "Tipo impianto": "Altro", "Indirizzo": "Via Stefano da Seregno 92 20831", "Nome impianto": "Retitalia 42912", "Comune": "SEREGNO", "idImpianto": 45122, "points": [{"type": "Feature", "properties": {}, "geometry": {"type": "Point", "coordinates": [9.211188563276892, 45.64680021281812]}}], "price": 1.929, "ultima_rilevazione": "11/07/2022 01:22:19"}, {"Gestore": "CASTELLUCCIO SERVICE S.A.S. DI NESCI ERNESTO & C.", "Bandiera": "Agip Eni", "Tipo impianto": "Altro", "Indirizzo": "Via Macalle' 184 20831", "Nome impianto": "Eni Seregno 12261", "Comune": "SEREGNO", "idImpianto": 49133, "points": [{"type": "Feature", "properties": {}, "geometry": {"type": "Point", "coordinates": [9.22021315078735, 45.637368850223645]}}], "price": 1.969, "ultima_rilevazione": "11/07/2022 01:22:28"}], "5": [{"Gestore": "PUCCI GOMME DI MOTTO MASSIMO & C. S.N.C.", "Bandiera": "Api-Ip", "Tipo impianto": "Altro", "Indirizzo": "VIA ROMA 94 23880", "Nome impianto": "PUCCI GOMME SNC", "Comune": "CASATENOVO", "idImpianto": 26824, "points": [{"type": "Feature", "properties": {}, "geometry": {"type": "Point", "coordinates": [9.31693196296692, 45.68039739392671]}}], "price": 2.266, "ultima_rilevazione": "06/07/2022 12:02:35"}, {"Gestore": "SUPER CAR WASH DI MIRZA SHAFEEQ SIDDIQUE", "Bandiera": "Api-Ip", "Tipo impianto": "Altro", "Indirizzo": "VIA MASCAGNI 75 20832", "Nome impianto": "ITALIANA PETROLI", "Comune": "DESIO", "idImpianto": 48408, "points": [{"type": "Feature", "properties": {}, "geometry": {"type": "Point", "coordinates": [9.217777163194668, 45.60871324729638]}}], "price": 1.999, "ultima_rilevazione": "06/07/2022 19:00:49"}, {"Gestore": "MERONI SERVICE CAR S.A.S. DI G. MERONI & C.", "Bandiera": "Esso", "Tipo impianto": "Altro", "Indirizzo": "via carducci 65 20851", "Nome impianto": "ESSO MERONI SERVICE CAR SAS", "Comune": "LISSONE", "idImpianto": 22190, "points": [{"type": "Feature", "properties": {}, "geometry": {"type": "Point", "coordinates": [9.235237428465894, 45.60339971326928]}}], "price": 2.006, "ultima_rilevazione": "06/07/2022 20:48:35"}, {"Gestore": "MANDIA ANTONIO", "Bandiera": "Pompe Bianche", "Tipo impianto": "Altro", "Indirizzo": "VIA PER CESANO 44 20832", "Nome impianto": "NUOVA COMA SRL", "Comune": "DESIO", "idImpianto": 14095, "points": [{"type": "Feature", "properties": {}, "geometry": {"type": "Point", "coordinates": [9.195360888360597, 45.62368386848299]}}], "price": 2.029, "ultima_rilevazione": "07/07/2022 07:02:13"}, {"Gestore": "SCARFONE COSIMO", "Bandiera": "Agip Eni", "Tipo impianto": "Altro", "Indirizzo": "via milano 230 20832", "Nome impianto": "ENI DESIO", "Comune": "DESIO", "idImpianto": 32877, "points": [{"type": "Feature", "properties": {}, "geometry": {"type": "Point", "coordinates": [9.199714064598083, 45.62074583216158]}}], "price": 2.014, "ultima_rilevazione": "07/07/2022 08:36:50"}, {"Gestore": "SALA ENRICO", "Bandiera": "KEROPETROL", "Tipo impianto": "Altro", "Indirizzo": "viale kennedy 48 20842", "Nome impianto": "Keropetrol", "Comune": "BESANA IN BRIANZA", "idImpianto": 4399, "points": [{"type": "Feature", "properties": {}, "geometry": {"type": "Point", "coordinates": [9.287367490737893, 45.69913119977472]}}], "price": 1.999, "ultima_rilevazione": "08/07/2022 09:02:42"}, {"Gestore": "CAR SERVICE S.N.C. DI CARLO SPADONE E ALBERTO SCORZA", "Bandiera": "Esso", "Tipo impianto": "Altro", "Indirizzo": "VIA ANTONIO STOPPANI 92 20831", "Nome impianto": "car service snc", "Comune": "SEREGNO", "idImpianto": 43540, "points": [{"type": "Feature", "properties": {}, "geometry": {"type": "Point", "coordinates": [9.195143177909811, 45.6563447475817]}}], "price": 2.026, "ultima_rilevazione": "08/07/2022 12:08:10"}, {"Gestore": "GS SPA", "Bandiera": "Api-Ip", "Tipo impianto": "Altro", "Indirizzo": "Via Prealpi  20034", "Nome impianto": "Carrefour IP Giussano", "Comune": "GIUSSANO", "idImpianto": 48726, "points": [{"type": "Feature", "properties": {}, "geometry": {"type": "Point", "coordinates": [9.209841168619016, 45.69092447592693]}}], "price": 1.999, "ultima_rilevazione": "08/07/2022 16:15:32"}, {"Gestore": "EFFEGI S.N.C. DEI F.LLI XHERAJ & C.", "Bandiera": "Esso", "Tipo impianto": "Altro", "Indirizzo": "VIA VALASSINA 4 20833", "Nome impianto": "ESSO", "Comune": "GIUSSANO", "idImpianto": 28135, "points": [{"type": "Feature", "properties": {}, "geometry": {"type": "Point", "coordinates": [9.213966652750967, 45.6887088798866]}}], "price": 2.036, "ultima_rilevazione": "08/07/2022 18:53:33"}, {"Gestore": "ASC S.R.L.", "Bandiera": "Pompe Bianche", "Tipo impianto": "Altro", "Indirizzo": "VIA VIGANO 4 20833", "Nome impianto": "LUDOIL", "Comune": "GIUSSANO", "idImpianto": 32212, "points": [{"type": "Feature", "properties": {}, "geometry": {"type": "Point", "coordinates": [9.215196220343614, 45.69665487824729]}}], "price": 1.959, "ultima_rilevazione": "08/07/2022 19:18:48"}, {"Gestore": "BRILLAUTO S.A.S. DI CONSOLARO GIUSEPPE, MOTTA LORENZO & C.", "Bandiera": "Api-Ip", "Tipo impianto": "Altro", "Indirizzo": "VIA IV NOVEMBRE 1 20833", "Nome impianto": "Brillauto sas", "Comune": "GIUSSANO", "idImpianto": 20179, "points": [{"type": "Feature", "properties": {}, "geometry": {"type": "Point", "coordinates": [9.204661399126053, 45.6761939607117]}}], "price": 1.969, "ultima_rilevazione": "09/07/2022 07:53:59"}, {"Gestore": "BARAVIERA GRETA", "Bandiera": "Esso", "Tipo impianto": "Altro", "Indirizzo": "VIA KENNEDY 21 20842", "Nome impianto": "Esso Baraviera", "Comune": "BESANA IN BRIANZA", "idImpianto": 36496, "points": [{"type": "Feature", "properties": {}, "geometry": {"type": "Point", "coordinates": [9.2915877699852, 45.69989546872483]}}], "price": 2.036, "ultima_rilevazione": "09/07/2022 08:01:43"}, {"Gestore": "RUSSO GIORGIO", "Bandiera": "Esso", "Tipo impianto": "Altro", "Indirizzo": "VIA GIUSEPPE GARIBALDI 306 20832", "Nome impianto": "ESSO ", "Comune": "DESIO", "idImpianto": 21100, "points": [{"type": "Feature", "properties": {}, "geometry": {"type": "Point", "coordinates": [9.202510938048365, 45.6069307654106]}}], "price": 1.989, "ultima_rilevazione": "09/07/2022 08:47:07"}, {"Gestore": "TREMOLADA E FIGLI SAS DI TREMOLADA DARIO & C.", "Bandiera": "Agip Eni", "Tipo impianto": "Strada Statale", "Indirizzo": "36 del Lago di Como e dello Spluga, Km. snc, Milano 20832 ", "Nome impianto": "Tremolada Sas", "Comune": "DESIO", "idImpianto": 50331, "points": [{"type": "Feature", "properties": {}, "geometry": {"type": "Point", "coordinates": [9.223568613082731, 45.61646218811291]}}], "price": 1.974, "ultima_rilevazione": "09/07/2022 11:44:17"}, {"Gestore": "FRATELLI CARLUCCI S.N.C. DI CARLUCCI PAOLO & C.", "Bandiera": "Q8", "Tipo impianto": "Strada Statale", "Indirizzo": "Statale 36 del Lago di Como e dello Spluga, Km. 26, dir. Lecco 20843", "Nome impianto": "Q8 di Flli Carlucci snc", "Comune": "VERANO BRIANZA", "idImpianto": 5636, "points": [{"type": "Feature", "properties": {}, "geometry": {"type": "Point", "coordinates": [9.227552711963654, 45.69678383208968]}}], "price": 1.979, "ultima_rilevazione": "09/07/2022 12:03:08"}, {"Gestore": "VANOLI S.N.C. DI VANOLI FIRMINO E MARONI", "Bandiera": "Esso", "Tipo impianto": "Altro", "Indirizzo": "via 4 Novembre, Paina di Giussano  160 20034", "Nome impianto": "stazione di servizio Esso Vanoli snc", "Comune": "GIUSSANO", "idImpianto": 5160, "points": [{"type": "Feature", "properties": {}, "geometry": {"type": "Point", "coordinates": [9.202318489551544, 45.668298036450224]}}], "price": 2.016, "ultima_rilevazione": "09/07/2022 12:03:48"}, {"Gestore": "SESINI SIMONE", "Bandiera": "Agip Eni", "Tipo impianto": "Altro", "Indirizzo": "VIA MILANO 4 20833", "Nome impianto": "eni 55348", "Comune": "GIUSSANO", "idImpianto": 43459, "points": [{"type": "Feature", "properties": {}, "geometry": {"type": "Point", "coordinates": [9.208561588954922, 45.69602115193018]}}], "price": 1.994, "ultima_rilevazione": "09/07/2022 15:29:10"}, {"Gestore": "IP SERVICES S.R.L.", "Bandiera": "Api-Ip", "Tipo impianto": "Altro", "Indirizzo": "VIA WAGNER  20831", "Nome impianto": "SEREGNO - WAGNER", "Comune": "SEREGNO", "idImpianto": 24809, "points": [{"type": "Feature", "properties": {}, "geometry": {"type": "Point", "coordinates": [9.18449061226852, 45.65620281214398]}}], "price": 1.989, "ultima_rilevazione": "10/07/2022 09:03:20"}, {"Gestore": "IP SERVICES S.R.L.", "Bandiera": "Api-Ip", "Tipo impianto": "Altro", "Indirizzo": "Via Generale Giardino 1 20851", "Nome impianto": "Lissone", "Comune": "LISSONE", "idImpianto": 22981, "points": [{"type": "Feature", "properties": {}, "geometry": {"type": "Point", "coordinates": [9.229980111122131, 45.60220426098312]}}], "price": 1.989, "ultima_rilevazione": "10/07/2022 09:04:31"}, {"Gestore": "T.D.M. S.R.L.", "Bandiera": "Tamoil", "Tipo impianto": "Altro", "Indirizzo": "Viale Lario  20833", "Nome impianto": "4034", "Comune": "GIUSSANO", "idImpianto": 28970, "points": [{"type": "Feature", "properties": {}, "geometry": {"type": "Point", "coordinates": [9.20681655406952, 45.676595390060406]}}], "price": 1.969, "ultima_rilevazione": "10/07/2022 11:50:14"}, {"Gestore": "T.D.M. S.R.L.", "Bandiera": "Tamoil", "Tipo impianto": "Altro", "Indirizzo": "SP. 6 MONZA/CARATE SNC 20853", "Nome impianto": "8498", "Comune": "BIASSONO", "idImpianto": 42799, "points": [{"type": "Feature", "properties": {}, "geometry": {"type": "Point", "coordinates": [9.276267804727697, 45.62270253219843]}}], "price": 1.999, "ultima_rilevazione": "10/07/2022 12:16:10"}, {"Gestore": "T.D.M. S.R.L.", "Bandiera": "Tamoil", "Tipo impianto": "Altro", "Indirizzo": "VIA DON LUIGI VIGANO' FRAZ: CASSINA SAVINA 4 20811", "Nome impianto": "4022", "Comune": "CESANO MADERNO", "idImpianto": 46375, "points": [{"type": "Feature", "properties": {}, "geometry": {"type": "Point", "coordinates": [9.179304599524926, 45.63849701505329]}}], "price": 1.999, "ultima_rilevazione": "10/07/2022 12:18:07"}, {"Gestore": "STAZIONE DI SERVIZIO DI CAZZANIGA GIUSEPPE", "Bandiera": "Tamoil", "Tipo impianto": "Altro", "Indirizzo": "VIA SANT'AMBROGIO 43 20844", "Nome impianto": "STAZIONE DI SERVIZIO TAMOIL", "Comune": "TRIUGGIO", "idImpianto": 20559, "points": [{"type": "Feature", "properties": {}, "geometry": {"type": "Point", "coordinates": [9.28988617790992, 45.68107788288225]}}], "price": 1.999, "ultima_rilevazione": "10/07/2022 15:12:02"}, {"Gestore": "SERVIZI & GESTIONI ITALIA S.R.L.", "Bandiera": "Q8", "Tipo impianto": "Altro", "Indirizzo": "VIA MILANO 165 20033", "Nome impianto": "DESIO-VIA MILANO 165", "Comune": "DESIO", "idImpianto": 11642, "points": [{"type": "Feature", "properties": {}, "geometry": {"type": "Point", "coordinates": [9.20041492757798, 45.61516903593563]}}], "price": 1.979, "ultima_rilevazione": "11/07/2022 00:34:46"}, {"Gestore": "SERVIZI & GESTIONI ITALIA S.R.L.", "Bandiera": "Q8", "Tipo impianto": "Altro", "Indirizzo": "VIA MARTIRI LIBERTA'  / PANZINI 12 20035", "Nome impianto": "LISSONE-VIA MARTIRI LIBERTA' 12 / PANZINI", "Comune": "LISSONE", "idImpianto": 11645, "points": [{"type": "Feature", "properties": {}, "geometry": {"type": "Point", "coordinates": [9.248222974204964, 45.61524052887886]}}], "price": 1.999, "ultima_rilevazione": "11/07/2022 00:34:47"}, {"Gestore": "SERVIZI & GESTIONI ITALIA S.R.L.", "Bandiera": "Q8", "Tipo impianto": "Altro", "Indirizzo": "SP. NUOVA VALASSINA S/N 20050", "Nome impianto": "VERANO BRIANZA-SP. NUOVA VALASSINA", "Comune": "VERANO BRIANZA", "idImpianto": 11650, "points": [{"type": "Feature", "properties": {}, "geometry": {"type": "Point", "coordinates": [9.21897469444275, 45.68822505244049]}}], "price": 1.979, "ultima_rilevazione": "11/07/2022 00:34:53"}, {"Gestore": "SERVIZI & GESTIONI ITALIA S.R.L.", "Bandiera": "Q8", "Tipo impianto": "Altro", "Indirizzo": "S.P.192 VALASSINA  20851", "Nome impianto": "LISSONE S.P.192 VALASSINA", "Comune": "LISSONE", "idImpianto": 39112, "points": [{"type": "Feature", "properties": {}, "geometry": {"type": "Point", "coordinates": [9.231563955545424, 45.60228936339683]}}], "price": 1.999, "ultima_rilevazione": "11/07/2022 00:35:04"}, {"Gestore": "D'ALOIA GIOVANNI", "Bandiera": "Agip Eni", "Tipo impianto": "Altro", "Indirizzo": "VIA DELLA REPUBBLICA 134 20851", "Nome impianto": "ENI 2281", "Comune": "LISSONE", "idImpianto": 15800, "points": [{"type": "Feature", "properties": {}, "geometry": {"type": "Point", "coordinates": [9.25201915204525, 45.603109323245846]}}], "price": 1.974, "ultima_rilevazione": "11/07/2022 06:45:36"}, {"Gestore": "DE PIETRO SALVATORE", "Bandiera": "Esso", "Tipo impianto": "Altro", "Indirizzo": "via monte rosa 107 20862", "Nome impianto": "stazione di servizio esso arcore", "Comune": "ARCORE", "idImpianto": 28578, "points": [{"type": "Feature", "properties": {}, "geometry": {"type": "Point", "coordinates": [9.31034579873085, 45.6235859474844]}}], "price": 1.969, "ultima_rilevazione": "11/07/2022 07:36:22"}]}, "Metano": {"1": [], "3": [], "5": []}}