{"area_comune": "[{\"type\": \"Feature\", \"properties\": {}, \"geometry\": {\"type\": \"Polygon\", \"coordinates\": [[[14.272737278082236, 40.92500619837702], [14.282576216353709, 40.9167701794192], [14.280588544188701, 40.905178211263866], [14.265266731759665, 40.901352743030714], [14.250786884623066, 40.90836420918195], [14.248817541052844, 40.91065763145683], [14.248932854429198, 40.91132688500379], [14.25109535423695, 40.914963290968615], [14.257163079980312, 40.92094463117066], [14.266360597693035, 40.92385134593941], [14.272737278082236, 40.92500619837702]]]}}]", "comune": "arzano", "buffer_1": "[{\"type\": \"Feature\", \"properties\": {}, \"geometry\": {\"type\": \"Polygon\", \"coordinates\": [[[14.265583344624295, 40.93216993592939], [14.266550450916066, 40.932670445935365], [14.26757797946829, 40.93309612139775], [14.268655895670587, 40.93344280511536], [14.269773672302573, 40.93370711134356], [14.27092039244771, 40.93388645889082], [14.272084856232773, 40.933979096348715], [14.27325569034465, 40.93398411920794], [14.274421459248611, 40.933901478692455], [14.275570777015108, 40.9337319822255], [14.276692418656308, 40.93347728552321], [14.277775429878531, 40.93313987639406], [14.278809234172673, 40.932723050403496], [14.279783736191614, 40.932230878643615], [14.280689420400567, 40.93166816792399], [14.28151744403387, 40.9310404137756], [14.291356026973862, 40.92280365892931], [14.292079198443158, 40.9221362690784], [14.29271452779366, 40.921419289671114], [14.293256145599408, 40.920659348027925], [14.293699049161523, 40.919863468314], [14.29403914864314, 40.91903900658127], [14.29427330474616, 40.918193582752146], [14.294399357585839, 40.917335010174305], [14.29441614650163, 40.916471223399], [14.29432352062659, 40.915610204850815], [14.292333864963267, 40.904018562406975], [14.292116709850617, 40.90311592478629], [14.291779382684286, 40.9022347917826], [14.291325404317753, 40.901384348211884], [14.290759511020656, 40.90057345867286], [14.290087604960727, 40.8998105751956], [14.289316692566317, 40.89910364919992], [14.288454811416562, 40.89846004867818], [14.287510946423952, 40.89788648146273], [14.286494936184203, 40.89738892537425], [14.285417370468826, 40.89697256597656], [14.28428947992642, 40.89664174258283], [14.268969536896389, 40.892816657878605], [14.267832909134693, 40.89257963086724], [14.266670864785933, 40.89242951352019], [14.265494912450796, 40.892367792837604], [14.264316698377831, 40.8923950803697], [14.263147891263332, 40.89251110615596], [14.26200006682732, 40.89271472138425], [14.260884593301785, 40.893003909743754], [14.259812518958796, 40.89337580736048], [14.258794462786428, 40.89382673111961], [14.257840509390165, 40.894352215095786], [14.2415070194139, 40.90432527031497], [14.240615506653784, 40.90492809185035], [14.239808510791706, 40.90559595193022], [14.239094235328384, 40.90632206393757], [14.238479942271647, 40.90709904902693], [14.237971878249999, 40.90791901105774], [14.237575210910972, 40.90877361679358], [14.237293976255057, 40.90965418055476], [14.237131037446234, 40.91055175246577], [14.237088055524458, 40.91145720940228], [14.237165472325271, 40.912361347713905], [14.237362505788154, 40.91325497678108], [14.237677157709452, 40.914129012454445], [14.238106233868981, 40.914974569426214], [14.238645376333269, 40.91578305159335], [14.23928910761374, 40.9165462394918], [14.24003088623656, 40.917256373910796], [14.240863173163707, 40.91790623483471], [14.241777508392861, 40.91848921490678], [14.265583344624295, 40.93216993592939]]]}}]", "buffer_3": "[{\"type\": \"Feature\", \"properties\": {}, \"geometry\": {\"type\": \"Polygon\", \"coordinates\": [[[14.251270922466905, 40.94649633935504], [14.254172660635165, 40.94799818350445], [14.257255826848596, 40.949275481551744], [14.260490294654526, 40.95031575129265], [14.263844454357352, 40.951108826961544], [14.267285522853712, 40.95164695885472], [14.270779865113607, 40.951924889260475], [14.27429332411343, 40.95193990394358], [14.277791555938869, 40.95169185867577], [14.281240366722487, 40.951183180552], [14.284606048062239, 40.95041884408274], [14.287855707584372, 40.94940632230486], [14.29095759136592, 40.948155513400046], [14.293881395018454, 40.94667864355461], [14.296598560354136, 40.94499014702818], [14.299082554706478, 40.94310652462481], [14.30892042474136, 40.934868297669524], [14.311089685616478, 40.932865795638875], [14.312995253286124, 40.93071455470631], [14.314619535014081, 40.92843446800262], [14.315947543825722, 40.92604661767888], [14.316967036130812, 40.92357307967659], [14.317668623794754, 40.92103671939177], [14.318045859662577, 40.91846098013292], [14.318095295791073, 40.91586966633647], [14.317816513900784, 40.913286723548], [14.315822892439586, 40.901695733921436], [14.315170533205203, 40.89898800877804], [14.314157762233153, 40.896344859733404], [14.312795174884478, 40.893793830830646], [14.311097007054242, 40.89136150330923], [14.3090809854947, 40.8890732190738], [14.306768142065007, 40.88695281715957], [14.304182593882706, 40.88502238591351], [14.301351291693017, 40.88330203344567], [14.298303739087201, 40.88180967871355], [14.295071685489187, 40.880560865387345], [14.291688796087245, 40.879568600409264], [14.276372590025979, 40.875744281920966], [14.272963571340334, 40.87503333558304], [14.269478369723167, 40.874583048161725], [14.26595147419263, 40.874397878111154], [14.262417785526441, 40.87447966040125], [14.258912272158915, 40.87482758832301], [14.255469625393703, 40.87543822134034], [14.252123917282672, 40.87630551891614], [14.248908264497947, 40.87742089998817], [14.245854501470404, 40.87877332751948], [14.242992865983807, 40.88034941730473], [14.226660152596086, 40.890320300014395], [14.223985649167243, 40.8921283935954], [14.22156450032751, 40.894131613566714], [14.219421323082472, 40.8963096146747], [14.217577917642402, 40.89864027395671], [14.216053045191439, 40.90109991499094], [14.214862236222851, 40.90366354800769], [14.214017631427389, 40.906305123443786], [14.213527856802443, 40.90899779638073], [14.213397934311509, 40.911714199193575], [14.213629229069191, 40.91442671964713], [14.214219433660224, 40.91710778161688], [14.21516258982511, 40.9197301255787], [14.216449147363695, 40.92226708600873], [14.218066059725446, 40.92469286286095], [14.219996915375244, 40.92698278434542], [14.222222103650155, 40.92911355831434], [14.224719013460662, 40.93106350967637], [14.227462262842508, 40.93281280139879], [14.251270922466905, 40.94649633935504]]]}}]", "buffer_5": "[{\"type\": \"Feature\", \"properties\": {}, \"geometry\": {\"type\": \"Polygon\", \"coordinates\": [[[14.23695242206075, 40.960821311597826], [14.241789350908599, 40.96332490918943], [14.24692892902824, 40.96545419251799], [14.252320907947947, 40.96718834019353], [14.257912558067169, 40.96851039500865], [14.263649186875552, 40.96940743053767], [14.269474676866619, 40.96987067808977], [14.275332037739608, 40.9698956127466], [14.281163967328588, 40.96948199762766], [14.28691341560453, 40.968633885947504], [14.292524146064828, 40.96735958085463], [14.297941288856343, 40.965671553467295], [14.303111880071413, 40.963586319942145], [14.307985381810585, 40.96112427882151], [14.312514177818242, 40.95830951030319], [14.316654039765192, 40.9551695394543], [14.326491193902458, 40.94692983994791], [14.330106204881318, 40.94359178233616], [14.333281448984415, 40.940005876325834], [14.335987631001332, 40.93620529575743], [14.338199807958624, 40.93222519363547], [14.339897617178126, 40.92810237615263], [14.341065461455667, 40.92387496165339], [14.341692649760567, 40.91958202772179], [14.341773492283581, 40.91526324967787], [14.341307349093883, 40.91095853383715], [14.339309763435807, 40.89936819888623], [14.338221009040371, 40.89485563719488], [14.336531742785882, 40.89045080595814], [14.33425967816747, 40.88619959453622], [14.331428586692098, 40.88214628404441], [14.328068046558155, 40.878333087341545], [14.324213131687722, 40.87479971078943], [14.3199040444601, 40.87158294227516], [14.315185696040468, 40.86871626970957], [14.310107238700256, 40.86622953389517], [14.304721554981448, 40.86414861930014], [14.299084708963457, 40.86249518588508], [14.283772237433247, 40.85867163249068], [14.278091979577088, 40.857486946058614], [14.272284861307226, 40.85673657447779], [14.26640830312816, 40.856427944284114], [14.260520409848537, 40.85656411430247], [14.254679399560532, 40.857143745299844], [14.248943031458117, 40.85816111286342], [14.243368037981822, 40.85960616339156], [14.238009566743383, 40.86146461267136], [14.232920637601936, 40.863718086106424], [14.228151620134833, 40.86634429925626], [14.211819685838334, 40.87631301078768], [14.207362239103265, 40.87932588203855], [14.203326723477586, 40.88266398173239], [14.199754178034464, 40.88629342541275], [14.196680959976133, 40.8901773640826], [14.194138373308098, 40.89427635703899], [14.192152347977007, 40.898548771247796], [14.190743172840255, 40.90295120326039], [14.189925285320522, 40.90743891943487], [14.189707120049048, 40.91196631002685], [14.190091018221851, 40.91648735255832], [14.191073198788835, 40.92095607976514], [14.192643791971813, 40.92532704736119], [14.194786934970466, 40.92955579684335], [14.197480929071451, 40.933599308598005], [14.200698456732404, 40.93741644065488], [14.204406856576618, 40.94096834856841], [14.208568453613307, 40.94421888209053], [14.213140941400235, 40.94713495452784], [14.23695242206075, 40.960821311597826]]]}}]", "centroid": "[{\"type\": \"Feature\", \"properties\": {}, \"geometry\": {\"type\": \"Point\", \"coordinates\": [14.26761316261004, 40.91254444314271]}}]", "Benzina": {"1": [{"Gestore": "CAFFETTERIA PENTA DI PIERNO ROSARIO E DI RICCI GIOVANNI MARCO S.N .C.", "Bandiera": "Api-Ip", "Tipo impianto": "Altro", "Indirizzo": "VIA NAPOLI ROMA VERSO SCAMPIA 52B-52C 80144", "Nome impianto": "IP", "Comune": "NAPOLI", "idImpianto": 50923, "points": [{"type": "Feature", "properties": {}, "geometry": {"type": "Point", "coordinates": [14.254184067249298, 40.89965847100691]}}], "price": 1.744, "ultima_rilevazione": "26/10/2021 10:45:47"}, {"Gestore": "B GROUP DI LUCA BARBATO", "Bandiera": "Esso", "Tipo impianto": "Altro", "Indirizzo": "VIA GUGLIELMO MARCONI 110 80020", "Nome impianto": "BGROUP di Luca Barbato", "Comune": "CASAVATORE", "idImpianto": 50926, "points": [{"type": "Feature", "properties": {}, "geometry": {"type": "Point", "coordinates": [14.277507282137622, 40.89822028884527]}}], "price": 1.809, "ultima_rilevazione": "22/02/2022 07:48:38"}, {"Gestore": "MAURO E PASQUALE CIARAMELLA S.N.C.", "Bandiera": "Esso", "Tipo impianto": "Altro", "Indirizzo": "via principe di piemonte 38 80026", "Nome impianto": "mauro e pasquale ciaramella snc", "Comune": "CASORIA", "idImpianto": 17704, "points": [{"type": "Feature", "properties": {}, "geometry": {"type": "Point", "coordinates": [14.285856963458857, 40.902248283429614]}}], "price": 2.259, "ultima_rilevazione": "15/06/2022 07:18:53"}, {"Gestore": "L.S. Q8 S.A.S. DI AUFIERO TOMMASINA & MOTTOLA SABINO", "Bandiera": "Q8", "Tipo impianto": "Altro", "Indirizzo": "VIA LIMITONE D'ARZANO 6 80144", "Nome impianto": "L.S.Q8sas", "Comune": "NAPOLI", "idImpianto": 8602, "points": [{"type": "Feature", "properties": {}, "geometry": {"type": "Point", "coordinates": [14.262000024318697, 40.901842031383175]}}], "price": 2.159, "ultima_rilevazione": "21/03/2022 12:42:57"}, {"Gestore": "CANCELLO FRANCESCO", "Bandiera": "Agip Eni", "Tipo impianto": "Altro", "Indirizzo": "sp1 circumvallazione esterna di napoli 1 80100", "Nome impianto": "Francesco Cancello 56409", "Comune": "NAPOLI", "idImpianto": 45422, "points": [{"type": "Feature", "properties": {}, "geometry": {"type": "Point", "coordinates": [14.267061746873878, 40.90039997614225]}}], "price": 1.774, "ultima_rilevazione": "13/06/2022 09:11:32"}, {"Gestore": "RUSSO RAFFAELE", "Bandiera": "Esso", "Tipo impianto": "Altro", "Indirizzo": "VIA ROMA VERSO SCAMPIA SNC 80144", "Nome impianto": "RUSSO RAFFAELE", "Comune": "NAPOLI", "idImpianto": 38070, "points": [{"type": "Feature", "properties": {}, "geometry": {"type": "Point", "coordinates": [14.25569397699303, 40.89807390517839]}}], "price": 1.859, "ultima_rilevazione": "24/05/2022 11:24:01"}, {"Gestore": "AUTOSTAZIONE CANCELLO CARLO", "Bandiera": "Esso", "Tipo impianto": "Altro", "Indirizzo": "VIA CIRC.NE ARZANO SNC 80022", "Nome impianto": "AUTOSTAZIONE CANCELLO CARLO", "Comune": "ARZANO", "idImpianto": 31941, "points": [{"type": "Feature", "properties": {}, "geometry": {"type": "Point", "coordinates": [14.264139086008072, 40.90419284727805]}}], "price": 1.999, "ultima_rilevazione": "09/06/2022 14:48:16"}, {"Gestore": "SERVIZI & GESTIONI ITALIA S.R.L.", "Bandiera": "Q8", "Tipo impianto": "Altro", "Indirizzo": "EX SS 87 DIREZIONE CE  80027", "Nome impianto": "FRATTAMAGGIORE EX SS 87 DIREZIONE CE", "Comune": "FRATTAMAGGIORE", "idImpianto": 35900, "points": [{"type": "Feature", "properties": {}, "geometry": {"type": "Point", "coordinates": [14.283426851034164, 40.926981859975164]}}], "price": 2.109, "ultima_rilevazione": "11/06/2022 07:07:26"}, {"Gestore": "SERVIZI & GESTIONI ITALIA S.R.L.", "Bandiera": "Q8", "Tipo impianto": "Altro", "Indirizzo": "RETTIFILO AL BRAVO S/N 80022", "Nome impianto": "ARZANO-RETTIFILO AL BRAVO", "Comune": "ARZANO", "idImpianto": 11735, "points": [{"type": "Feature", "properties": {}, "geometry": {"type": "Point", "coordinates": [14.274977784061434, 40.91677567789187]}}], "price": 2.089, "ultima_rilevazione": "11/06/2022 07:07:28"}, {"Gestore": "SERVIZI & GESTIONI ITALIA srl", "Bandiera": "Q8", "Tipo impianto": "Altro", "Indirizzo": "VIA ROMA IMP. Q8 262 80027", "Nome impianto": "FRATTAMAGGIORE VIA ROMA  262 IMP. Q8", "Comune": "FRATTAMAGGIORE", "idImpianto": 6700, "points": [{"type": "Feature", "properties": {}, "geometry": {"type": "Point", "coordinates": [14.272496311045074, 40.93349968936316]}}], "price": 2.099, "ultima_rilevazione": "11/06/2022 08:11:59"}, {"Gestore": "BNC POWER S.R.L.", "Bandiera": "Pompe Bianche", "Tipo impianto": "Altro", "Indirizzo": "Via Roma 251 80027", "Nome impianto": "BNC Power", "Comune": "FRATTAMAGGIORE", "idImpianto": 46579, "points": [{"type": "Feature", "properties": {}, "geometry": {"type": "Point", "coordinates": [14.27222428483458, 40.93356082719643]}}], "price": 2.079, "ultima_rilevazione": "11/06/2022 14:52:06"}, {"Gestore": "VELAR S.R.L.", "Bandiera": "Oceania", "Tipo impianto": "Altro", "Indirizzo": "VIA DON SEBASTIANO DE ROSA SNC 80022", "Nome impianto": "OCEANIA (ARZANO)", "Comune": "ARZANO", "idImpianto": 48457, "points": [{"type": "Feature", "properties": {}, "geometry": {"type": "Point", "coordinates": [14.259299588954931, 40.91623163920552]}}], "price": 2.009, "ultima_rilevazione": "11/06/2022 23:18:10"}, {"Gestore": "VELAR S.R.L.", "Bandiera": "Oceania", "Tipo impianto": "Altro", "Indirizzo": "VIA PIETRO NENNI SNC 80026", "Nome impianto": "OCEANIA (CASORIA)", "Comune": "CASORIA", "idImpianto": 46730, "points": [{"type": "Feature", "properties": {}, "geometry": {"type": "Point", "coordinates": [14.287055748886928, 40.91233049813255]}}], "price": 2.009, "ultima_rilevazione": "11/06/2022 23:18:56"}, {"Gestore": "CANCELLO FRANCESCO", "Bandiera": "Agip Eni", "Tipo impianto": "Strada Statale", "Indirizzo": "7 Via Appia, Km. 23+579, napoli 80144", "Nome impianto": "cancello francesco", "Comune": "NAPOLI", "idImpianto": 44415, "points": [{"type": "Feature", "properties": {}, "geometry": {"type": "Point", "coordinates": [14.247570636460864, 40.9055444592129]}}], "price": 2.044, "ultima_rilevazione": "13/06/2022 09:11:17"}, {"Gestore": "SANNINO PETROLI S.R.L. ", "Bandiera": "Pompe Bianche", "Tipo impianto": "Altro", "Indirizzo": "VIA SETTE RE 5 80022", "Nome impianto": "SP PETROLI ARZANO", "Comune": "ARZANO", "idImpianto": 16194, "points": [{"type": "Feature", "properties": {}, "geometry": {"type": "Point", "coordinates": [14.268480804025671, 40.91604799563869]}}], "price": 2.029, "ultima_rilevazione": "13/06/2022 17:57:27"}, {"Gestore": "CARBURANTI S.N.C. DI GIORGIO VARRIALE", "Bandiera": "Q8", "Tipo impianto": "Altro", "Indirizzo": "VIA CIRCUMVALLAZIONE ESTERNA 31 80144", "Nome impianto": "CARBURANTI S.N.C. DI GIORGIO VARRIALE", "Comune": "NAPOLI", "idImpianto": 33636, "points": [{"type": "Feature", "properties": {}, "geometry": {"type": "Point", "coordinates": [14.266694063337695, 40.900292927556215]}}], "price": 2.059, "ultima_rilevazione": "14/06/2022 06:59:34"}, {"Gestore": "LC S.R.L.", "Bandiera": "Api-Ip", "Tipo impianto": "Altro", "Indirizzo": "Via Roma 365 80027", "Nome impianto": "IP FRATTAMAGGIORE 46001", "Comune": "FRATTAMAGGIORE", "idImpianto": 50666, "points": [{"type": "Feature", "properties": {}, "geometry": {"type": "Point", "coordinates": [14.27351691381773, 40.924100379431295]}}], "price": 2.099, "ultima_rilevazione": "14/06/2022 07:51:07"}, {"Gestore": "AREA SERVIZIO SAN MICHELE S.A.S. DI BUGLIONE SALVATORE E C.", "Bandiera": "Esso", "Tipo impianto": "Altro", "Indirizzo": "Via Circumvallazione esterna di Arzano, Km. 20+500  80022", "Nome impianto": "Area Servizio San Michele sas", "Comune": "ARZANO", "idImpianto": 32682, "points": [{"type": "Feature", "properties": {}, "geometry": {"type": "Point", "coordinates": [14.25217106938362, 40.91071817376809]}}], "price": 2.029, "ultima_rilevazione": "14/06/2022 08:39:37"}, {"Gestore": "CARBURANTI DI MARIO FEBBRARO", "Bandiera": "Q8", "Tipo impianto": "Altro", "Indirizzo": "via ex s.s. 87 Sannitica km 5+30  snc 80027", "Nome impianto": "GP CARBURANTI", "Comune": "FRATTAMAGGIORE", "idImpianto": 46264, "points": [{"type": "Feature", "properties": {}, "geometry": {"type": "Point", "coordinates": [14.283864457242087, 40.92637677035637]}}], "price": 2.059, "ultima_rilevazione": "14/06/2022 09:04:38"}, {"Gestore": "B.M. CARBURANTI S.R.L.", "Bandiera": "Pompe Bianche", "Tipo impianto": "Altro", "Indirizzo": "CORSO D'AMATO SNC 80022", "Nome impianto": "BM CARBURANTI", "Comune": "ARZANO", "idImpianto": 45924, "points": [{"type": "Feature", "properties": {}, "geometry": {"type": "Point", "coordinates": [14.275883835594756, 40.910711967494414]}}], "price": 2.039, "ultima_rilevazione": "14/06/2022 10:28:26"}, {"Gestore": "CAIAZZO CARBURANTI DI CAIAZZO DOMENICO", "Bandiera": "Api-Ip", "Tipo impianto": "Altro", "Indirizzo": "Via baku snc 80144", "Nome impianto": "Italiana petroli s.p.a", "Comune": "NAPOLI", "idImpianto": 35769, "points": [{"type": "Feature", "properties": {}, "geometry": {"type": "Point", "coordinates": [14.24405202269554, 40.90692752195723]}}], "price": 2.139, "ultima_rilevazione": "14/06/2022 13:26:30"}, {"Gestore": "ALFIERI CIRO", "Bandiera": "Tamoil", "Tipo impianto": "Altro", "Indirizzo": "via pietro nenni  80026", "Nome impianto": "tamoil", "Comune": "CASORIA", "idImpianto": 19419, "points": [{"type": "Feature", "properties": {}, "geometry": {"type": "Point", "coordinates": [14.284238889813423, 40.91321339870182]}}], "price": 2.079, "ultima_rilevazione": "14/06/2022 15:10:12"}, {"Gestore": "IP SERVICES S.R.L.", "Bandiera": "Api-Ip", "Tipo impianto": "Altro", "Indirizzo": "CORSO GARIBALDI 202 80100", "Nome impianto": "GRUMO NEVANO - GARIBALDI 202", "Comune": "GRUMO NEVANO", "idImpianto": 37906, "points": [{"type": "Feature", "properties": {}, "geometry": {"type": "Point", "coordinates": [14.263854741104524, 40.92588581405797]}}], "price": 2.109, "ultima_rilevazione": "14/06/2022 16:01:54"}, {"Gestore": "IP SERVICES S.R.L.", "Bandiera": "Api-Ip", "Tipo impianto": "Altro", "Indirizzo": "VIA LUIGI SAN ROCCO 64 80100", "Nome impianto": "ARZANO - LUIGI SAN ROCCO 64", "Comune": "ARZANO", "idImpianto": 32757, "points": [{"type": "Feature", "properties": {}, "geometry": {"type": "Point", "coordinates": [14.271959766864711, 40.91250912138149]}}], "price": 2.109, "ultima_rilevazione": "14/06/2022 16:01:58"}, {"Gestore": "PIT -  STOP CARBURANTE S.A.S. DI ASCIONE LUCIA & C.", "Bandiera": "Pompe Bianche", "Tipo impianto": "Altro", "Indirizzo": "via paolo borsellino 200 80025", "Nome impianto": "pit stop carburante sas", "Comune": "CASANDRINO", "idImpianto": 15902, "points": [{"type": "Feature", "properties": {}, "geometry": {"type": "Point", "coordinates": [14.250720124606346, 40.9177032983733]}}], "price": 2.069, "ultima_rilevazione": "14/06/2022 17:15:26"}, {"Gestore": "LA CAVA S.R.L", "Bandiera": "Api-Ip", "Tipo impianto": "Altro", "Indirizzo": "VIA REMO DE FEO 4 80022", "Nome impianto": "IP 45373", "Comune": "ARZANO", "idImpianto": 43902, "points": [{"type": "Feature", "properties": {}, "geometry": {"type": "Point", "coordinates": [14.275783000000049, 40.918197107197024]}}], "price": 2.019, "ultima_rilevazione": "14/06/2022 22:21:39"}, {"Gestore": "IP SERVICES S.R.L.", "Bandiera": "Api-Ip", "Tipo impianto": "Altro", "Indirizzo": "SS 87 SANNITICA KM. 7,710  80023", "Nome impianto": "CASORIA - S.S. 87 KM.7,710", "Comune": "CASORIA", "idImpianto": 30634, "points": [{"type": "Feature", "properties": {}, "geometry": {"type": "Point", "coordinates": [14.291124139881164, 40.91663749667929]}}], "price": 2.109, "ultima_rilevazione": "14/06/2022 23:02:19"}, {"Gestore": "GESTIONI INNOVATIVE ITALIA S.R.L.", "Bandiera": "Agip Eni", "Tipo impianto": "Altro", "Indirizzo": "CORSO S.D'AMATO LOC.RETTIFILO 20, 80022", "Nome impianto": "PV 8086", "Comune": "ARZANO", "idImpianto": 25273, "points": [{"type": "Feature", "properties": {}, "geometry": {"type": "Point", "coordinates": [14.276156723499298, 40.906906845069386]}}], "price": 2.049, "ultima_rilevazione": "15/06/2022 06:06:04"}], "3": [{"Gestore": "PALLADINO  ANTONINO", "Bandiera": "Agip Eni", "Tipo impianto": "Altro", "Indirizzo": "VIA MARCONI 209 80020", "Nome impianto": "STAZIONE CASAVATORE", "Comune": "CASAVATORE", "idImpianto": 42376, "points": [{"type": "Feature", "properties": {}, "geometry": {"type": "Point", "coordinates": [14.278422260713228, 40.893851911513394]}}], "price": 2.099, "ultima_rilevazione": "14/06/2022 13:35:33"}, {"Gestore": "QUOTIDIANO EMANUELE", "Bandiera": "Agip Eni", "Tipo impianto": "Altro", "Indirizzo": "via miano 151 80145", "Nome impianto": "quotidiano emanuele", "Comune": "NAPOLI", "idImpianto": 44235, "points": [{"type": "Feature", "properties": {}, "geometry": {"type": "Point", "coordinates": [14.250550000123, 40.888578000123]}}], "price": 2.109, "ultima_rilevazione": "11/06/2022 09:58:35"}, {"Gestore": "VITALE ENRICO", "Bandiera": "Pompe Bianche", "Tipo impianto": "Altro", "Indirizzo": "corso cirillo 76 80028", "Nome impianto": "V.E. Carburantii Grumo Nevano", "Comune": "GRUMO NEVANO", "idImpianto": 43978, "points": [{"type": "Feature", "properties": {}, "geometry": {"type": "Point", "coordinates": [14.255795387731496, 40.93667813116261]}}], "price": 1.859, "ultima_rilevazione": "25/03/2022 21:25:11"}, {"Gestore": "RELLA PASQUALE", "Bandiera": "Agip Eni", "Tipo impianto": "Strada Statale", "Indirizzo": "7 Via Appia, Km. 22+144, NAPOLI 80017", "Nome impianto": "pasquale rella", "Comune": "MELITO DI NAPOLI", "idImpianto": 51314, "points": [{"type": "Feature", "properties": {}, "geometry": {"type": "Point", "coordinates": [14.235650609751051, 40.915841431703065]}}], "price": 1.779, "ultima_rilevazione": "23/04/2022 13:12:32"}, {"Gestore": "CAIAZZO & CO. SOCIETA' A RESPONSABILITA' LIMITATA SEMPLIFICATA", "Bandiera": "Total Erg", "Tipo impianto": "Altro", "Indirizzo": "CORSO ENRICO DE NICOLA 2 80021", "Nome impianto": "CPETROLI", "Comune": "AFRAGOLA", "idImpianto": 42403, "points": [{"type": "Feature", "properties": {}, "geometry": {"type": "Point", "coordinates": [14.307874053474052, 40.92039715802028]}}], "price": 1.854, "ultima_rilevazione": "25/05/2022 17:54:01"}, {"Gestore": "AL.MA S.N.C. DI RUSSO FABIO", "Bandiera": "Api-Ip", "Tipo impianto": "Altro", "Indirizzo": "VIA CIRCUMVALLAZIONE ESTERNA 98 80100", "Nome impianto": "ALMA", "Comune": "CASORIA", "idImpianto": 44071, "points": [{"type": "Feature", "properties": {}, "geometry": {"type": "Point", "coordinates": [14.303845046626977, 40.89698222598175]}}], "price": 2.12, "ultima_rilevazione": "03/06/2022 15:39:16"}, {"Gestore": "MECK OIL S.R.L.", "Bandiera": "Pompe Bianche", "Tipo impianto": "Altro", "Indirizzo": "VIA GIOVANNI XXIII 131 80020", "Nome impianto": "MECK OIL - FRATTAMINORE", "Comune": "FRATTAMINORE", "idImpianto": 33496, "points": [{"type": "Feature", "properties": {}, "geometry": {"type": "Point", "coordinates": [14.271504431962969, 40.94951728248129]}}], "price": 2.099, "ultima_rilevazione": "08/06/2022 10:45:26"}, {"Gestore": "EUROPETROL S.A.S. DI FUSCO GERARDO & C.", "Bandiera": "Api-Ip", "Tipo impianto": "Altro", "Indirizzo": "VIA NUOVA BELVEDERE 157 80024", "Nome impianto": "TOTALERG", "Comune": "CARDITO", "idImpianto": 16073, "points": [{"type": "Feature", "properties": {}, "geometry": {"type": "Point", "coordinates": [14.284775984731256, 40.94322867055087]}}], "price": 2.09, "ultima_rilevazione": "08/06/2022 21:14:55"}, {"Gestore": "SANTANGELO CARBURANTI DI SANTANGELO PASQUALE", "Bandiera": "Q8", "Tipo impianto": "Altro", "Indirizzo": "VIA DEL CASSANO 181-ABC, 80144", "Nome impianto": "santangelo carburanti", "Comune": "NAPOLI", "idImpianto": 18622, "points": [{"type": "Feature", "properties": {}, "geometry": {"type": "Point", "coordinates": [14.26982154106986, 40.88963560826791]}}], "price": 2.049, "ultima_rilevazione": "09/06/2022 11:31:14"}, {"Gestore": "TOCCO ASSUNTA", "Bandiera": "Pompe Bianche", "Tipo impianto": "Altro", "Indirizzo": "CORSO GIUSEPPE GARIBALDI 155 80028", "Nome impianto": "TOCCO ASSUNTA", "Comune": "GRUMO NEVANO", "idImpianto": 32618, "points": [{"type": "Feature", "properties": {}, "geometry": {"type": "Point", "coordinates": [14.26202813617624, 40.93158103505807]}}], "price": 1.999, "ultima_rilevazione": "09/06/2022 13:38:44"}, {"Gestore": "FERRARIO GROUP S.A.S. DI FERRARIO FABRIZIO & C.", "Bandiera": "Esso", "Tipo impianto": "Altro", "Indirizzo": "VIA DARIO FIORE 61 80021", "Nome impianto": "esso", "Comune": "AFRAGOLA", "idImpianto": 48749, "points": [{"type": "Feature", "properties": {}, "geometry": {"type": "Point", "coordinates": [14.304020845403668, 40.92498209306916]}}], "price": 2.069, "ultima_rilevazione": "15/06/2022 07:08:28"}, {"Gestore": "EASY SERVICE S.R.L.", "Bandiera": "Energas", "Tipo impianto": "Altro", "Indirizzo": "Via Janfolla 316 80100", "Nome impianto": "Easy Service Via Janfolla", "Comune": "NAPOLI", "idImpianto": 38607, "points": [{"type": "Feature", "properties": {}, "geometry": {"type": "Point", "coordinates": [14.238584339618685, 40.88518282183775]}}], "price": 2.099, "ultima_rilevazione": "10/06/2022 14:38:14"}, {"Gestore": "START S.R.L.", "Bandiera": "Energas", "Tipo impianto": "Altro", "Indirizzo": "VIA CIRCUMVALLAZIONE ESTERNA 24/26 80026", "Nome impianto": "Energas Spa", "Comune": "CASORIA", "idImpianto": 48033, "points": [{"type": "Feature", "properties": {}, "geometry": {"type": "Point", "coordinates": [14.29590151653291, 40.89587429614623]}}], "price": 2.029, "ultima_rilevazione": "10/06/2022 21:03:10"}, {"Gestore": "SERVIZI & GESTIONI ITALIA S.R.L.", "Bandiera": "Q8", "Tipo impianto": "Altro", "Indirizzo": "S.P. MELITO-MUGNANO SNC 80018", "Nome impianto": "MUGNANO - S.P. MELITO-MUGNANO  SNC", "Comune": "MUGNANO DI NAPOLI", "idImpianto": 31878, "points": [{"type": "Feature", "properties": {}, "geometry": {"type": "Point", "coordinates": [14.222807586193085, 40.91692099516414]}}], "price": 2.039, "ultima_rilevazione": "11/06/2022 01:42:05"}, {"Gestore": "AURINO ALFREDO E C. DI ALFREDO AURINO SAS", "Bandiera": "Agip Eni", "Tipo impianto": "Altro", "Indirizzo": "VIA CASERTA AL BRAVO 116 80144", "Nome impianto": "ENI", "Comune": "NAPOLI", "idImpianto": 35599, "points": [{"type": "Feature", "properties": {}, "geometry": {"type": "Point", "coordinates": [14.278779923915865, 40.89066579584919]}}], "price": 2.044, "ultima_rilevazione": "11/06/2022 08:57:42"}, {"Gestore": "SANGERMANO VINCENZO", "Bandiera": "Pompe Bianche", "Tipo impianto": "Altro", "Indirizzo": "via Regina Margherita  107 80145", "Nome impianto": "GHEPARDOIL", "Comune": "NAPOLI", "idImpianto": 40405, "points": [{"type": "Feature", "properties": {}, "geometry": {"type": "Point", "coordinates": [14.257028303726202, 40.88898121442208]}}], "price": 2.09, "ultima_rilevazione": "11/06/2022 10:01:57"}, {"Gestore": "ESPOSITO ANTONIO", "Bandiera": "Agip Eni", "Tipo impianto": "Altro", "Indirizzo": "Via Miano (fronte caserma Caretto)  80145", "Nome impianto": "AGIP", "Comune": "NAPOLI", "idImpianto": 13181, "points": [{"type": "Feature", "properties": {}, "geometry": {"type": "Point", "coordinates": [14.255109196505371, 40.89514532961387]}}], "price": 2.049, "ultima_rilevazione": "11/06/2022 14:17:18"}, {"Gestore": "C.M.PETROLIO S.R.L.", "Bandiera": "Pompe Bianche", "Tipo impianto": "Altro", "Indirizzo": "corso europa snc   ", "Nome impianto": "your fuel", "Comune": "MELITO DI NAPOLI", "idImpianto": 20367, "points": [{"type": "Feature", "properties": {}, "geometry": {"type": "Point", "coordinates": [14.230032744817436, 40.91518496486265]}}], "price": 2.028, "ultima_rilevazione": "12/06/2022 00:07:43"}, {"Gestore": "SARNI S.R.L.", "Bandiera": "Q8", "Tipo impianto": "Autostradale", "Indirizzo": "Autostrada A1 MILANO-NAPOLI Ramo Capodichino, Km. 1+600, dir. Tangenzial 80144", "Nome impianto": "S.PIETRO", "Comune": "NAPOLI", "idImpianto": 3513, "points": [{"type": "Feature", "properties": {}, "geometry": {"type": "Point", "coordinates": [14.29818723411563, 40.88415920489065]}}], "price": 2.079, "ultima_rilevazione": "13/06/2022 06:00:09"}, {"Gestore": "DORANTOIL S.A.S. DI MIELE RAFFAELE", "Bandiera": "Esso", "Tipo impianto": "Altro", "Indirizzo": "VIA PROVINCIALE CRISPANO - FRATTAMAGGIORE S.N.C. 80020", "Nome impianto": "DORANTOIL SAS", "Comune": "CRISPANO", "idImpianto": 18094, "points": [{"type": "Feature", "properties": {}, "geometry": {"type": "Point", "coordinates": [14.282879680395126, 40.94835180733347]}}], "price": 2.039, "ultima_rilevazione": "13/06/2022 07:46:49"}, {"Gestore": "B. & A. S.A.S. DI FRANZESE PASQUALE & C.", "Bandiera": "Italiana Carburanti", "Tipo impianto": "Altro", "Indirizzo": "via circumvalazione esterna  80026", "Nome impianto": "B & A S.A.S DI FRANZESE PASQUALE", "Comune": "CASORIA", "idImpianto": 42479, "points": [{"type": "Feature", "properties": {}, "geometry": {"type": "Point", "coordinates": [14.294319953372906, 40.89610105495309]}}], "price": 1.999, "ultima_rilevazione": "13/06/2022 12:30:15"}, {"Gestore": "A.G. GAS S.R.L.", "Bandiera": "Pompe Bianche", "Tipo impianto": "Altro", "Indirizzo": "VIA PIETRO NENNI 42 80018", "Nome impianto": "MY EN", "Comune": "MUGNANO DI NAPOLI", "idImpianto": 37236, "points": [{"type": "Feature", "properties": {}, "geometry": {"type": "Point", "coordinates": [14.221272692084312, 40.91297421794075]}}], "price": 1.989, "ultima_rilevazione": "13/06/2022 15:42:44"}, {"Gestore": "MALFITANO ROSSANA", "Bandiera": "Api-Ip", "Tipo impianto": "Altro", "Indirizzo": "VIA MIANO SNC 80145", "Nome impianto": "ITALIANA PETROLI   IP ", "Comune": "NAPOLI", "idImpianto": 49095, "points": [{"type": "Feature", "properties": {}, "geometry": {"type": "Point", "coordinates": [14.248791111663536, 40.87976462583335]}}], "price": 2.089, "ultima_rilevazione": "13/06/2022 17:49:40"}, {"Gestore": "FADDIMM  S.R.L.", "Bandiera": "Repsol", "Tipo impianto": "Altro", "Indirizzo": "VIA PROV.CIRCUMVALLAZIONE EST. 6 80017", "Nome impianto": "REPSOL", "Comune": "MELITO DI NAPOLI", "idImpianto": 45655, "points": [{"type": "Feature", "properties": {}, "geometry": {"type": "Point", "coordinates": [14.23086918106037, 40.90966889745]}}], "price": 2.029, "ultima_rilevazione": "13/06/2022 20:50:05"}, {"Gestore": "TILOGICA S.R.L.", "Bandiera": "Pompe Bianche", "Tipo impianto": "Altro", "Indirizzo": "Via Armando Diaz  106 80026", "Nome impianto": "Tilogica Station", "Comune": "CASORIA", "idImpianto": 51357, "points": [{"type": "Feature", "properties": {}, "geometry": {"type": "Point", "coordinates": [14.297259183898626, 40.91087696870597]}}], "price": 2.029, "ultima_rilevazione": "14/06/2022 07:30:47"}, {"Gestore": "SORVILLO VINCENZO", "Bandiera": "Api-Ip", "Tipo impianto": "Altro", "Indirizzo": "VIA P.MARIO VERGARA 98 80027", "Nome impianto": "IP", "Comune": "FRATTAMAGGIORE", "idImpianto": 31887, "points": [{"type": "Feature", "properties": {}, "geometry": {"type": "Point", "coordinates": [14.280422284866404, 40.937370855372606]}}], "price": 2.069, "ultima_rilevazione": "14/06/2022 07:56:43"}, {"Gestore": "SIRIUS PETROLI S.R.L.", "Bandiera": "Pompe Bianche", "Tipo impianto": "Altro", "Indirizzo": "PIAZZA CASTELLO  80021", "Nome impianto": "SP FUEL  -  NA", "Comune": "AFRAGOLA", "idImpianto": 47164, "points": [{"type": "Feature", "properties": {}, "geometry": {"type": "Point", "coordinates": [14.3142677798272, 40.919833719705046]}}], "price": 2.009, "ultima_rilevazione": "14/06/2022 08:31:35"}, {"Gestore": "IP PETROLI SOCIETA' A RESPONSABILITA' LIMITATA SEMPLIFICATA", "Bandiera": "Q8", "Tipo impianto": "Altro", "Indirizzo": "via giacomo matteotti 30 80028", "Nome impianto": "ip petroli", "Comune": "GRUMO NEVANO", "idImpianto": 49512, "points": [{"type": "Feature", "properties": {}, "geometry": {"type": "Point", "coordinates": [14.264296692441205, 40.93692637383571]}}], "price": 2.059, "ultima_rilevazione": "14/06/2022 09:06:40"}, {"Gestore": "C.R. PETROLI SOCIETA' A RESPONSABILITA' LIMITATA SEMPLIFICATA", "Bandiera": "Pompe Bianche", "Tipo impianto": "Altro", "Indirizzo": "Via Roma  169 80029", "Nome impianto": "C.R. PETROLI", "Comune": "SANT'ANTIMO", "idImpianto": 49765, "points": [{"type": "Feature", "properties": {}, "geometry": {"type": "Point", "coordinates": [14.234772805910149, 40.93317344216066]}}], "price": 2.019, "ultima_rilevazione": "14/06/2022 10:13:33"}, {"Gestore": "VITULLO S.A.S. DI TESORONE PATRIZIA", "Bandiera": "Esso", "Tipo impianto": "Altro", "Indirizzo": "VIA CASERTA AL BRAVO 8 80144", "Nome impianto": "ESSO - VITULLO S.A.S. DI TESORONE PATRIZIA", "Comune": "NAPOLI", "idImpianto": 49879, "points": [{"type": "Feature", "properties": {}, "geometry": {"type": "Point", "coordinates": [14.27635153580922, 40.88637862409743]}}], "price": 2.279, "ultima_rilevazione": "14/06/2022 10:58:30"}, {"Gestore": "PENTA PETROLI SRL", "Bandiera": "Pompe Bianche", "Tipo impianto": "Altro", "Indirizzo": "VIA CASERTA AL BRAVO 83 80144", "Nome impianto": "EWA CAPODICHINO", "Comune": "NAPOLI", "idImpianto": 29982, "points": [{"type": "Feature", "properties": {}, "geometry": {"type": "Point", "coordinates": [14.27830584347248, 40.88991247146935]}}], "price": 2.029, "ultima_rilevazione": "14/06/2022 11:12:14"}, {"Gestore": "IP SERVICES S.R.L.", "Bandiera": "Api-Ip", "Tipo impianto": "Altro", "Indirizzo": "VIA PIETRO NENNI 33 80018", "Nome impianto": "MUGNANO DI NAPOLI - NENNI", "Comune": "MUGNANO DI NAPOLI", "idImpianto": 30379, "points": [{"type": "Feature", "properties": {}, "geometry": {"type": "Point", "coordinates": [14.215518775463124, 40.915614188149846]}}], "price": 2.039, "ultima_rilevazione": "14/06/2022 12:04:10"}, {"Gestore": "IP SERVICES S.R.L.", "Bandiera": "Api-Ip", "Tipo impianto": "Altro", "Indirizzo": "Via P.Nenni  54 80018", "Nome impianto": "Mugnano di Napoli", "Comune": "MUGNANO DI NAPOLI", "idImpianto": 5955, "points": [{"type": "Feature", "properties": {}, "geometry": {"type": "Point", "coordinates": [14.222520589828491, 40.91201991863902]}}], "price": 2.039, "ultima_rilevazione": "14/06/2022 12:06:16"}, {"Gestore": "4M CARBURANTI S.A.S. DI MIGLIACCIO RAFFAELE & C.", "Bandiera": "Pompe Bianche", "Tipo impianto": "Altro", "Indirizzo": "VIA PIROZZI SNC 80027", "Nome impianto": "migliaccio carburanti", "Comune": "FRATTAMAGGIORE", "idImpianto": 38382, "points": [{"type": "Feature", "properties": {}, "geometry": {"type": "Point", "coordinates": [14.271732419729233, 40.946660788432176]}}], "price": 2.099, "ultima_rilevazione": "14/06/2022 12:58:58"}, {"Gestore": "SALZANO ANTONIO", "Bandiera": "Pompe Bianche", "Tipo impianto": "Altro", "Indirizzo": "VIA DARIO FIORE 131 80021", "Nome impianto": "Salzano Antonio", "Comune": "AFRAGOLA", "idImpianto": 27853, "points": [{"type": "Feature", "properties": {}, "geometry": {"type": "Point", "coordinates": [14.299802244705234, 40.92684578451861]}}], "price": 2.029, "ultima_rilevazione": "14/06/2022 13:47:48"}, {"Gestore": "SALZANO GIOVANNI E FIGLIO S.A.S. DI SALZANO GIOVANNI", "Bandiera": "Api-Ip", "Tipo impianto": "Altro", "Indirizzo": "VIA DARIO FIORE 133 80021", "Nome impianto": "Impianto IP", "Comune": "AFRAGOLA", "idImpianto": 16173, "points": [{"type": "Feature", "properties": {}, "geometry": {"type": "Point", "coordinates": [14.299805886438776, 40.92684392956943]}}], "price": 2.029, "ultima_rilevazione": "14/06/2022 13:49:50"}, {"Gestore": "EURO CARBURANTI S.A.S DI SALZANO FRANCESCO E C.", "Bandiera": "Pompe Bianche", "Tipo impianto": "Altro", "Indirizzo": "CORSO ITALIA ANG. VIA PALERMO SNC 80024", "Nome impianto": "EURO CARBURANTI", "Comune": "CARDITO", "idImpianto": 44197, "points": [{"type": "Feature", "properties": {}, "geometry": {"type": "Point", "coordinates": [14.293399, 40.929749]}}], "price": 2.029, "ultima_rilevazione": "14/06/2022 13:51:44"}, {"Gestore": "D'ANGELO S.R.L.", "Bandiera": "Eco Fuel", "Tipo impianto": "Altro", "Indirizzo": "VIA P.BORSELLINO (EX VIA NAPOLI) 39 80025", "Nome impianto": "EcoFuel", "Comune": "CASANDRINO", "idImpianto": 47114, "points": [{"type": "Feature", "properties": {}, "geometry": {"type": "Point", "coordinates": [14.24665242433548, 40.93330270923944]}}], "price": 1.948, "ultima_rilevazione": "14/06/2022 17:18:50"}, {"Gestore": "CRISPINO LUIGI E C. SN.C.", "Bandiera": "Pompe Bianche", "Tipo impianto": "Altro", "Indirizzo": "VIA ALCIDE DE GASPERI 110 80021", "Nome impianto": "CRISPINO LUIGI & C. s.n.c.", "Comune": "AFRAGOLA", "idImpianto": 13186, "points": [{"type": "Feature", "properties": {}, "geometry": {"type": "Point", "coordinates": [14.3096628968201, 40.92847474908711]}}], "price": 2.029, "ultima_rilevazione": "14/06/2022 17:28:02"}, {"Gestore": "GESTIONE ITALIA SOCIETA' A RESPONSABILITA' LIMITATA", "Bandiera": "ALIFUEL", "Tipo impianto": "Strada Statale", "Indirizzo": "7 Via Appia, Km. 20,500, Aversa 80029", "Nome impianto": "ALI FUEL - SANT'ANTIMO", "Comune": "SANT'ANTIMO", "idImpianto": 41171, "points": [{"type": "Feature", "properties": {}, "geometry": {"type": "Point", "coordinates": [14.224498718976974, 40.93083661242735]}}], "price": 2.029, "ultima_rilevazione": "15/06/2022 00:16:14"}, {"Gestore": "SERVIZI & GESTIONI ITALIA S.R.L.", "Bandiera": "Q8", "Tipo impianto": "Altro", "Indirizzo": "SS SANNITICA 87 PAL.RUSSO  80026", "Nome impianto": "SS SANNITICA 87 PAL.RUSSO - CASORIA", "Comune": "CASORIA", "idImpianto": 29726, "points": [{"type": "Feature", "properties": {}, "geometry": {"type": "Point", "coordinates": [14.296560555819724, 40.92404121584755]}}], "price": 2.084, "ultima_rilevazione": "15/06/2022 02:08:43"}, {"Gestore": "SERVIZI & GESTIONI ITALIA S.R.L.", "Bandiera": "Q8", "Tipo impianto": "Altro", "Indirizzo": "CORSO EUROPA 37 80029", "Nome impianto": "S.ANTIMO CORSO EUROPA, 37", "Comune": "SANT'ANTIMO", "idImpianto": 7496, "points": [{"type": "Feature", "properties": {}, "geometry": {"type": "Point", "coordinates": [14.230506867170334, 40.93010872140122]}}], "price": 2.039, "ultima_rilevazione": "15/06/2022 02:08:44"}, {"Gestore": "FULL SERVICE S.A.S. DI DEL PRETE SOSIO & C.", "Bandiera": "Tamoil", "Tipo impianto": "Altro", "Indirizzo": "VIA EX STRADA PR.LE GRUMO-FRATTA 12/14 80028", "Nome impianto": "TAMOIL", "Comune": "GRUMO NEVANO", "idImpianto": 15394, "points": [{"type": "Feature", "properties": {}, "geometry": {"type": "Point", "coordinates": [14.258404523134232, 40.946680439922034]}}], "price": 2.079, "ultima_rilevazione": "15/06/2022 06:52:05"}, {"Gestore": "SERVIZI & GESTIONI ITALIA S.R.L.", "Bandiera": "Q8", "Tipo impianto": "Altro", "Indirizzo": "SP PER AFRAGOLA S/N 80027", "Nome impianto": "FRATTAMAGGIORE-SP PER AFRAGOLA", "Comune": "FRATTAMAGGIORE", "idImpianto": 11739, "points": [{"type": "Feature", "properties": {}, "geometry": {"type": "Point", "coordinates": [14.283683906745864, 40.93547163223486]}}], "price": 2.119, "ultima_rilevazione": "15/06/2022 07:06:56"}, {"Gestore": "FERRARIO GROUP S.A.S. DI FERRARIO FABRIZIO & C.", "Bandiera": "Esso", "Tipo impianto": "Altro", "Indirizzo": "VIA CIRCUMVALLAZIONE ESTERNA 60 80017", "Nome impianto": "ESSO", "Comune": "MELITO DI NAPOLI", "idImpianto": 31920, "points": [{"type": "Feature", "properties": {}, "geometry": {"type": "Point", "coordinates": [14.229415208101273, 40.90983519430475]}}], "price": 2.029, "ultima_rilevazione": "15/06/2022 07:07:23"}, {"Gestore": "CAMPECE GIUSEPPE", "Bandiera": "Agip Eni", "Tipo impianto": "Altro", "Indirizzo": "VIA A. DIAZ  80026", "Nome impianto": "Giuseppe Campece", "Comune": "CASORIA", "idImpianto": 11285, "points": [{"type": "Feature", "properties": {}, "geometry": {"type": "Point", "coordinates": [14.294157857880464, 40.905396106582586]}}], "price": 2.069, "ultima_rilevazione": "15/06/2022 07:56:41"}], "5": [{"Gestore": "CARBURANTI IPPOLITO MARCELLO", "Bandiera": "Api-Ip", "Tipo impianto": "Altro", "Indirizzo": "corso europa 1 80016", "Nome impianto": "totalerg", "Comune": "MARANO DI NAPOLI", "idImpianto": 32434, "points": [{"type": "Feature", "properties": {}, "geometry": {"type": "Point", "coordinates": [14.195237906745888, 40.89825880812903]}}], "price": 2.049, "ultima_rilevazione": "13/06/2022 11:59:54"}, {"Gestore": "DE LUCA LUIGI", "Bandiera": "Agip Eni", "Tipo impianto": "Altro", "Indirizzo": "VIA STADERA A POGGIOREALE  80143", "Nome impianto": "DE LUCA LUIGI", "Comune": "NAPOLI", "idImpianto": 35375, "points": [{"type": "Feature", "properties": {}, "geometry": {"type": "Point", "coordinates": [14.306204840540886, 40.874918260187705]}}], "price": 2.214, "ultima_rilevazione": "11/06/2022 08:06:36"}, {"Gestore": "IANNONE ANTONIO", "Bandiera": "Pompe Bianche", "Tipo impianto": "Altro", "Indirizzo": "Via miano a Capodimonte  7 80131", "Nome impianto": "EnerGas ", "Comune": "NAPOLI", "idImpianto": 47614, "points": [{"type": "Feature", "properties": {}, "geometry": {"type": "Point", "coordinates": [14.24970134582224, 40.86879072161305]}}], "price": 1.699, "ultima_rilevazione": "10/04/2022 19:27:46"}, {"Gestore": "PARISI ANTONIO", "Bandiera": "Total Erg", "Tipo impianto": "Altro", "Indirizzo": "VIALE COLLI AMINEI 31 80131", "Nome impianto": "TOTALERG PARISI ANTONIO", "Comune": "NAPOLI", "idImpianto": 35654, "points": [{"type": "Feature", "properties": {}, "geometry": {"type": "Point", "coordinates": [14.245581552386284, 40.87057295997321]}}], "price": 1.729, "ultima_rilevazione": "22/04/2022 18:03:50"}, {"Gestore": "A.G. CARBURANTI S.R.L.S.", "Bandiera": "Pompe Bianche", "Tipo impianto": "Altro", "Indirizzo": "via Guglielmo Marconi 62 80029", "Nome impianto": "SANTANTIMO", "Comune": "SANT'ANTIMO", "idImpianto": 49006, "points": [{"type": "Feature", "properties": {}, "geometry": {"type": "Point", "coordinates": [14.243863171214205, 40.9459497105326]}}], "price": 1.799, "ultima_rilevazione": "05/05/2022 12:14:07"}, {"Gestore": "MECK OIL S.R.L.", "Bandiera": "Pompe Bianche", "Tipo impianto": "Altro", "Indirizzo": " STR.PROVINCIALE AVERSA-CAIVANO SNC 80020", "Nome impianto": "Mekoil Crispano", "Comune": "CRISPANO", "idImpianto": 36173, "points": [{"type": "Feature", "properties": {}, "geometry": {"type": "Point", "coordinates": [14.290754646062853, 40.95971152764272]}}], "price": 2.099, "ultima_rilevazione": "08/06/2022 10:45:43"}, {"Gestore": "MECK OIL S.R.L.", "Bandiera": "Pompe Bianche", "Tipo impianto": "Altro", "Indirizzo": "VIA ALESSANDRO VOLTA 122 81030", "Nome impianto": "MECK OIL ", "Comune": "SANT'ARPINO", "idImpianto": 41048, "points": [{"type": "Feature", "properties": {}, "geometry": {"type": "Point", "coordinates": [14.253828374868815, 40.95046617175665]}}], "price": 2.099, "ultima_rilevazione": "08/06/2022 10:46:04"}, {"Gestore": "A. SERVIZI S.R.L.", "Bandiera": "Pompe Bianche", "Tipo impianto": "Altro", "Indirizzo": "Viale Umberto Maddalena 180 80143", "Nome impianto": "VIALE MADDALENA", "Comune": "NAPOLI", "idImpianto": 35028, "points": [{"type": "Feature", "properties": {}, "geometry": {"type": "Point", "coordinates": [14.27816212560731, 40.875841762819945]}}], "price": 1.999, "ultima_rilevazione": "08/06/2022 10:49:27"}, {"Gestore": "AMATO GIOVANNINA", "Bandiera": "Total Erg", "Tipo impianto": "Altro", "Indirizzo": "VIA DON BOSCO 84 80141", "Nome impianto": "TOTALERG ", "Comune": "NAPOLI", "idImpianto": 36224, "points": [{"type": "Feature", "properties": {}, "geometry": {"type": "Point", "coordinates": [14.2726718634367, 40.8671967359026]}}], "price": 2.069, "ultima_rilevazione": "09/06/2022 11:04:54"}, {"Gestore": "FIORETTI PAOLO", "Bandiera": "Agip Eni", "Tipo impianto": "Altro", "Indirizzo": " SANTA MARIA A CUBITO 850 80145", "Nome impianto": "ENI", "Comune": "NAPOLI", "idImpianto": 44910, "points": [{"type": "Feature", "properties": {}, "geometry": {"type": "Point", "coordinates": [14.207089000123, 40.897948000123]}}], "price": 2.049, "ultima_rilevazione": "09/06/2022 12:42:59"}, {"Gestore": "ACANFORA STEFANIA", "Bandiera": "Total Erg", "Tipo impianto": "Altro", "Indirizzo": "VIA MACELLO  80143", "Nome impianto": "acanfora stefania", "Comune": "NAPOLI", "idImpianto": 12555, "points": [{"type": "Feature", "properties": {}, "geometry": {"type": "Point", "coordinates": [14.293411170835611, 40.862960192370096]}}], "price": 2.069, "ultima_rilevazione": "09/06/2022 20:21:19"}, {"Gestore": "ACANFORA STEFANIA", "Bandiera": "Total Erg", "Tipo impianto": "Altro", "Indirizzo": "VIA MIRAGLIA ANG.P.ZZA ARABIA  80143", "Nome impianto": "acanfora stefania", "Comune": "NAPOLI", "idImpianto": 20622, "points": [{"type": "Feature", "properties": {}, "geometry": {"type": "Point", "coordinates": [14.294732338039807, 40.86439910023402]}}], "price": 2.069, "ultima_rilevazione": "09/06/2022 20:21:55"}, {"Gestore": "ANGELINO PETROLI S.A.S. DI ANGELINO CARMINE & C.", "Bandiera": "Energas", "Tipo impianto": "Altro", "Indirizzo": "via oasi del sacro cuore  119 80014", "Nome impianto": "EnerGas", "Comune": "GIUGLIANO IN CAMPANIA", "idImpianto": 35766, "points": [{"type": "Feature", "properties": {}, "geometry": {"type": "Point", "coordinates": [14.20791988769679, 40.93894261107274]}}], "price": 1.979, "ultima_rilevazione": "10/06/2022 13:58:26"}, {"Gestore": "SANTANGELO ANTONIO", "Bandiera": "Q8", "Tipo impianto": "Altro", "Indirizzo": "PIAZZA PODERICO S.N. 80141", "Nome impianto": "Staz.Q8 Santangelo A.", "Comune": "NAPOLI", "idImpianto": 17040, "points": [{"type": "Feature", "properties": {}, "geometry": {"type": "Point", "coordinates": [14.270334894045618, 40.860093110866615]}}], "price": 2.079, "ultima_rilevazione": "10/06/2022 23:50:19"}, {"Gestore": "CARUFFO VALENTINA", "Bandiera": "Pompe Bianche", "Tipo impianto": "Altro", "Indirizzo": "VIA NUOVA POGGIOREALE SNC, 80143  ", "Nome impianto": "CARUFFO VALENTINA", "Comune": "NAPOLI", "idImpianto": 18241, "points": [{"type": "Feature", "properties": {}, "geometry": {"type": "Point", "coordinates": [14.280980819582396, 40.86192487605891]}}], "price": 2.055, "ultima_rilevazione": "11/06/2022 06:34:23"}, {"Gestore": "SERVIZI & GESTIONI ITALIA S.R.L.", "Bandiera": "Q8", "Tipo impianto": "Altro", "Indirizzo": "VIALE COLLI AMINEI  80131", "Nome impianto": "NAPOLI VIALE COLLI AMINEI", "Comune": "NAPOLI", "idImpianto": 42394, "points": [{"type": "Feature", "properties": {}, "geometry": {"type": "Point", "coordinates": [14.232789066864823, 40.86842037340507]}}], "price": 2.087, "ultima_rilevazione": "11/06/2022 07:07:27"}, {"Gestore": "SERVIZI & GESTIONI ITALIA S.R.L.", "Bandiera": "Q8", "Tipo impianto": "Altro", "Indirizzo": "CORSO ITALIA 63/B 80018", "Nome impianto": "MUGNANO DI NAPOLI CORSO ITALIA 63/B", "Comune": "MUGNANO DI NAPOLI", "idImpianto": 44129, "points": [{"type": "Feature", "properties": {}, "geometry": {"type": "Point", "coordinates": [14.19595163128281, 40.91316758167302]}}], "price": 2.029, "ultima_rilevazione": "11/06/2022 07:07:27"}, {"Gestore": "SERVIZI & GESTIONI ITALIA S.R.L.", "Bandiera": "Q8", "Tipo impianto": "Altro", "Indirizzo": "CORSO EUROPA 68 80016", "Nome impianto": "MARANO DI NAPOLI - CORSO EUROPA 68", "Comune": "MARANO DI NAPOLI", "idImpianto": 31857, "points": [{"type": "Feature", "properties": {}, "geometry": {"type": "Point", "coordinates": [14.197599313491764, 40.89801275007502]}}], "price": 2.039, "ultima_rilevazione": "11/06/2022 07:07:28"}, {"Gestore": "IOVINO S.A.S. DI IOVINO ASSUNTA", "Bandiera": "Esso", "Tipo impianto": "Strada Statale", "Indirizzo": "87 Sannitica, Km. 11.217, napoli 80024", "Nome impianto": "EG ITALIA", "Comune": "CARDITO", "idImpianto": 41439, "points": [{"type": "Feature", "properties": {}, "geometry": {"type": "Point", "coordinates": [14.29911643266678, 40.9448143335362]}}], "price": 2.019, "ultima_rilevazione": "11/06/2022 07:14:25"}, {"Gestore": "DISTRIBUTORE AGIP DI DI VINCENZO GENNARO", "Bandiera": "Agip Eni", "Tipo impianto": "Altro", "Indirizzo": "VIA PROV.LE MARANO-GIUGLIANO SNC 80012", "Nome impianto": "di vincenzo gennaro", "Comune": "CALVIZZANO", "idImpianto": 17918, "points": [{"type": "Feature", "properties": {}, "geometry": {"type": "Point", "coordinates": [14.195469841361046, 40.90493987675014]}}], "price": 2.044, "ultima_rilevazione": "11/06/2022 09:07:24"}, {"Gestore": "PETROLJ - SOCIETA' A RESPONSABILITA' LIMITATA", "Bandiera": "Esso", "Tipo impianto": "Altro", "Indirizzo": "via Oreste Salomone 38 80144", "Nome impianto": "Esso 6519", "Comune": "NAPOLI", "idImpianto": 33025, "points": [{"type": "Feature", "properties": {}, "geometry": {"type": "Point", "coordinates": [14.284850899475032, 40.87225247686746]}}], "price": 2.059, "ultima_rilevazione": "11/06/2022 09:13:01"}, {"Gestore": "M.E. S.R.L.", "Bandiera": "Esso", "Tipo impianto": "Altro", "Indirizzo": "VIA COM.LE VIOTTOLO DEI SERPI SNC 80021", "Nome impianto": "ESSO", "Comune": "AFRAGOLA", "idImpianto": 44496, "points": [{"type": "Feature", "properties": {}, "geometry": {"type": "Point", "coordinates": [14.303855895996094, 40.9447120213266]}}], "price": 2.019, "ultima_rilevazione": "11/06/2022 13:03:23"}, {"Gestore": "VARRIALE GIOVANNI", "Bandiera": "Agip Eni", "Tipo impianto": "Altro", "Indirizzo": "Via Santa Maria a cubito 728 80145", "Nome impianto": "Eni station di Giovanni Varriale", "Comune": "NAPOLI", "idImpianto": 34520, "points": [{"type": "Feature", "properties": {}, "geometry": {"type": "Point", "coordinates": [14.214620143175123, 40.89584297708164]}}], "price": 2.069, "ultima_rilevazione": "11/06/2022 19:52:53"}, {"Gestore": "CONSOLINO MAURIZIO", "Bandiera": "Retitalia", "Tipo impianto": "Altro", "Indirizzo": "VIA ARENACCIA 77 80141", "Nome impianto": "retitalia", "Comune": "NAPOLI", "idImpianto": 24454, "points": [{"type": "Feature", "properties": {}, "geometry": {"type": "Point", "coordinates": [14.27059772143923, 40.85875967622646]}}], "price": 2.059, "ultima_rilevazione": "12/06/2022 23:52:52"}, {"Gestore": "SARNI S.R.L.", "Bandiera": "Q8", "Tipo impianto": "Autostradale", "Indirizzo": "Autostrada A1 MILANO-NAPOLI, Km. 754+000, dir. Nord 80026", "Nome impianto": "MASSERIA EST", "Comune": "CASORIA", "idImpianto": 3515, "points": [{"type": "Feature", "properties": {}, "geometry": {"type": "Point", "coordinates": [14.318506530094282, 40.89188839734464]}}], "price": 2.079, "ultima_rilevazione": "13/06/2022 06:30:28"}, {"Gestore": "ALBOREA S.R.L.", "Bandiera": "Agip Eni", "Tipo impianto": "Autostradale", "Indirizzo": "TANG.LE DI NAPOLI, Km. 19,4, OVEST ", "Nome impianto": "DOGANELLA OVEST", "Comune": "NAPOLI", "idImpianto": 50584, "points": [{"type": "Feature", "properties": {}, "geometry": {"type": "Point", "coordinates": [14.278909115960005, 40.87269129600387]}}], "price": 2.159, "ultima_rilevazione": "13/06/2022 09:49:38"}, {"Gestore": "FUTUROIL S.R.L.", "Bandiera": "Pompe Bianche", "Tipo impianto": "Altro", "Indirizzo": "VIA GIUSEPPE DI VITTORIO SNC 80018", "Nome impianto": "FC CARBURANTI", "Comune": "MUGNANO DI NAPOLI", "idImpianto": 47139, "points": [{"type": "Feature", "properties": {}, "geometry": {"type": "Point", "coordinates": [14.204929223176212, 40.89953086450736]}}], "price": 2.029, "ultima_rilevazione": "13/06/2022 10:19:03"}, {"Gestore": "SARNI S.R.L.", "Bandiera": "Sarni Oil", "Tipo impianto": "Autostradale", "Indirizzo": "A1 MILANO-NAPOLI, Km. 755,700, SUD 80026", "Nome impianto": "CITTADELLA", "Comune": "CASORIA", "idImpianto": 41853, "points": [{"type": "Feature", "properties": {}, "geometry": {"type": "Point", "coordinates": [14.317010790109634, 40.8863581307136]}}], "price": 2.088, "ultima_rilevazione": "13/06/2022 11:00:26"}, {"Gestore": "GRIMALDI CONCETTA", "Bandiera": "Agip Eni", "Tipo impianto": "Altro", "Indirizzo": "via stadera  80143", "Nome impianto": "ENI 08063", "Comune": "NAPOLI", "idImpianto": 48194, "points": [{"type": "Feature", "properties": {}, "geometry": {"type": "Point", "coordinates": [14.30035925986909, 40.87103647502646]}}], "price": 2.049, "ultima_rilevazione": "13/06/2022 11:54:31"}, {"Gestore": "E' - OIL GROUP S.R.L.", "Bandiera": "Pompe Bianche", "Tipo impianto": "Altro", "Indirizzo": "nazionale delle puglie 220 80100", "Nome impianto": "E-OIL (naz.puglie)", "Comune": "NAPOLI", "idImpianto": 40643, "points": [{"type": "Feature", "properties": {}, "geometry": {"type": "Point", "coordinates": [14.310928881168364, 40.87709724243798]}}], "price": 1.999, "ultima_rilevazione": "13/06/2022 12:05:31"}, {"Gestore": "CAR.IO S.R.L.", "Bandiera": "Q8", "Tipo impianto": "Altro", "Indirizzo": "VIA DELLE PUGLIE 176/A 80026", "Nome impianto": "BENZINA - GASOLIO - HIQ CASORIA", "Comune": "CASORIA", "idImpianto": 29071, "points": [{"type": "Feature", "properties": {}, "geometry": {"type": "Point", "coordinates": [14.31901598762738, 40.883618858465454]}}], "price": 2.049, "ultima_rilevazione": "13/06/2022 12:15:24"}, {"Gestore": "ASSO PETROLI S.R.L.", "Bandiera": "Pompe Bianche", "Tipo impianto": "Altro", "Indirizzo": "VIA ENRICO FERMI 71 80010", "Nome impianto": "Asso", "Comune": "VILLARICCA", "idImpianto": 28988, "points": [{"type": "Feature", "properties": {}, "geometry": {"type": "Point", "coordinates": [14.196116466235708, 40.91935712879931]}}], "price": 2.029, "ultima_rilevazione": "13/06/2022 12:37:44"}, {"Gestore": "APPIA STORE S.R.L.", "Bandiera": "CONAD", "Tipo impianto": "Altro", "Indirizzo": "VIA APPIA KM 18,700 SNC 80014", "Nome impianto": "CONAD SUPERMERCATO", "Comune": "GIUGLIANO IN CAMPANIA", "idImpianto": 22265, "points": [{"type": "Feature", "properties": {}, "geometry": {"type": "Point", "coordinates": [14.216533899307253, 40.94266533861124]}}], "price": 1.975, "ultima_rilevazione": "13/06/2022 12:46:40"}, {"Gestore": "MARINOIL S.R.L.", "Bandiera": "Esso", "Tipo impianto": "Altro", "Indirizzo": "VIA DEL RIPOSO SNC 80144", "Nome impianto": "ESSO", "Comune": "NAPOLI", "idImpianto": 27723, "points": [{"type": "Feature", "properties": {}, "geometry": {"type": "Point", "coordinates": [14.28497314453125, 40.87055987770187]}}], "price": 2.059, "ultima_rilevazione": "13/06/2022 15:28:33"}, {"Gestore": "DI MARSILIO ANTONIO", "Bandiera": "Esso", "Tipo impianto": "Altro", "Indirizzo": "VIA MARTIRI ATELLANI 30 81030", "Nome impianto": "DI MARSILIO ANTONIO", "Comune": "SANT'ARPINO", "idImpianto": 43645, "points": [{"type": "Feature", "properties": {}, "geometry": {"type": "Point", "coordinates": [14.24407404662702, 40.96383583572239]}}], "price": 2.079, "ultima_rilevazione": "13/06/2022 16:59:30"}, {"Gestore": "DI MARSILIO ANTONIO", "Bandiera": "Esso", "Tipo impianto": "Altro", "Indirizzo": "VIA CASERTA 25 81030", "Nome impianto": "DI MARSILIO ANTONIO", "Comune": "SUCCIVO", "idImpianto": 43647, "points": [{"type": "Feature", "properties": {}, "geometry": {"type": "Point", "coordinates": [14.261868224536896, 40.96857903788038]}}], "price": 2.039, "ultima_rilevazione": "13/06/2022 17:00:14"}, {"Gestore": "EASY SERVICE S.R.L.", "Bandiera": "Energas", "Tipo impianto": "Altro", "Indirizzo": "Via Vecchia Nazionale delle Puglie SNC 80013", "Nome impianto": "Easy Service Casalnuovo Meridiana", "Comune": "CASALNUOVO DI NAPOLI", "idImpianto": 38747, "points": [{"type": "Feature", "properties": {}, "geometry": {"type": "Point", "coordinates": [14.337139427661896, 40.90041641829387]}}], "price": 2.039, "ultima_rilevazione": "13/06/2022 18:21:18"}, {"Gestore": "SCARPATO SOCCORSO STRADALE DI SCARPATO ANTONIO", "Bandiera": "Agip Eni", "Tipo impianto": "Altro", "Indirizzo": "Viale Umberto Maddalena 53 80144", "Nome impianto": "ADS ENI MADDALENA", "Comune": "NAPOLI", "idImpianto": 47763, "points": [{"type": "Feature", "properties": {}, "geometry": {"type": "Point", "coordinates": [14.284129958826911, 40.87055235871878]}}], "price": 2.049, "ultima_rilevazione": "14/06/2022 00:54:52"}, {"Gestore": "GOTTI CLAUDIO", "Bandiera": "Pompe Bianche", "Tipo impianto": "Altro", "Indirizzo": "VIA NICOLA NICOLINI FRONTE 40 80141", "Nome impianto": "TIBER", "Comune": "NAPOLI", "idImpianto": 35669, "points": [{"type": "Feature", "properties": {}, "geometry": {"type": "Point", "coordinates": [14.266964194482966, 40.86996616260606]}}], "price": 2.079, "ultima_rilevazione": "14/06/2022 07:08:09"}, {"Gestore": "VESUVIO GAS S.R.L.", "Bandiera": "Pompe Bianche", "Tipo impianto": "Altro", "Indirizzo": "VIA CUPA POMIGLIANO S.N.C. 80027", "Nome impianto": "VESUVIOGAS SRL", "Comune": "FRATTAMAGGIORE", "idImpianto": 16956, "points": [{"type": "Feature", "properties": {}, "geometry": {"type": "Point", "coordinates": [14.267773479223251, 40.95377120368689]}}], "price": 2.069, "ultima_rilevazione": "14/06/2022 07:40:07"}, {"Gestore": "SANNINO PETROLI S.R.L.", "Bandiera": "Pompe Bianche", "Tipo impianto": "Altro", "Indirizzo": "corso michelangelo  snc 80029", "Nome impianto": "sannino petroli", "Comune": "SANT'ANTIMO", "idImpianto": 51074, "points": [{"type": "Feature", "properties": {}, "geometry": {"type": "Point", "coordinates": [14.232742310660308, 40.95471832145436]}}], "price": 2.059, "ultima_rilevazione": "14/06/2022 09:05:35"}, {"Gestore": "IP PETROLI SOCIETA' A RESPONSABILITA' LIMITATA SEMPLIFICATA", "Bandiera": "Pompe Bianche", "Tipo impianto": "Altro", "Indirizzo": "VIA DANTE ALIGHIERI SNC 80029", "Nome impianto": "GT PETROLI", "Comune": "SANT'ANTIMO", "idImpianto": 47663, "points": [{"type": "Feature", "properties": {}, "geometry": {"type": "Point", "coordinates": [14.225222635581956, 40.935021157700255]}}], "price": 2.059, "ultima_rilevazione": "14/06/2022 09:06:31"}, {"Gestore": "SCUDILLO GRILL S.R.L.", "Bandiera": "Api-Ip", "Tipo impianto": "Autostradale", "Indirizzo": "Autostrada TANG.LE DI NAPOLI, Km. 16+200, dir. Sud 80136", "Nome impianto": "SCUDILLO EST", "Comune": "NAPOLI", "idImpianto": 35333, "points": [{"type": "Feature", "properties": {}, "geometry": {"type": "Point", "coordinates": [14.243335537612438, 40.86577798287299]}}], "price": 2.199, "ultima_rilevazione": "14/06/2022 09:37:00"}, {"Gestore": "GAS S.R.L.", "Bandiera": "Pompe Bianche", "Tipo impianto": "Altro", "Indirizzo": "VIA TOSCANELLA 87 80145", "Nome impianto": "TOSCANELLA", "Comune": "NAPOLI", "idImpianto": 35435, "points": [{"type": "Feature", "properties": {}, "geometry": {"type": "Point", "coordinates": [14.217247368717151, 40.882235354381535]}}], "price": 2.049, "ultima_rilevazione": "14/06/2022 09:51:37"}, {"Gestore": "T.D.M. S.R.L.", "Bandiera": "Tamoil", "Tipo impianto": "Altro", "Indirizzo": "VIALE MADDALENA UMBERTO  80144", "Nome impianto": "8335", "Comune": "NAPOLI", "idImpianto": 46945, "points": [{"type": "Feature", "properties": {}, "geometry": {"type": "Point", "coordinates": [14.281972039881111, 40.87210163102492]}}], "price": 2.029, "ultima_rilevazione": "14/06/2022 09:54:03"}, {"Gestore": "MARINO ROSA", "Bandiera": "Pompe Bianche", "Tipo impianto": "Altro", "Indirizzo": "VIA STADERA A POGGIOREALE 76 80143", "Nome impianto": "Staroil", "Comune": "NAPOLI", "idImpianto": 36303, "points": [{"type": "Feature", "properties": {}, "geometry": {"type": "Point", "coordinates": [14.302085129695683, 40.87240924540136]}}], "price": 2.019, "ultima_rilevazione": "14/06/2022 10:39:01"}, {"Gestore": "BO.GA. PETROLI S.R.L.", "Bandiera": "Api-Ip", "Tipo impianto": "Strada Statale", "Indirizzo": "Statale 162 dir del Centro Direzionale, Km. 14, dir. SUD 80014", "Nome impianto": "BO.GA PETROLI", "Comune": "GIUGLIANO IN CAMPANIA", "idImpianto": 13558, "points": [{"type": "Feature", "properties": {}, "geometry": {"type": "Point", "coordinates": [14.213653206825256, 40.93626311965497]}}], "price": 2.009, "ultima_rilevazione": "14/06/2022 10:40:38"}, {"Gestore": "EGI-2GO S.R.L.", "Bandiera": "Esso", "Tipo impianto": "Altro", "Indirizzo": "VIALE COLLI AMINEI 295 80131", "Nome impianto": "colli aminei", "Comune": "NAPOLI", "idImpianto": 48717, "points": [{"type": "Feature", "properties": {}, "geometry": {"type": "Point", "coordinates": [14.237648224536912, 40.869954915167455]}}], "price": 2.029, "ultima_rilevazione": "14/06/2022 11:10:45"}, {"Gestore": "RI.AL.GA. PETROLI S.A.S. DI COPPOLA RITA & C.", "Bandiera": "Agip Eni", "Tipo impianto": "Altro", "Indirizzo": "CORSO UMBERTO KM 12,900  80023", "Nome impianto": "RI.AL.GA. PETROLI SAS", "Comune": "CAIVANO", "idImpianto": 28161, "points": [{"type": "Feature", "properties": {}, "geometry": {"type": "Point", "coordinates": [14.3068465590477, 40.95861044266464]}}], "price": 2.049, "ultima_rilevazione": "14/06/2022 11:41:08"}, {"Gestore": "VITALE GIUSEPPE", "Bandiera": "Tamoil", "Tipo impianto": "Altro", "Indirizzo": "VIA ULDERICO MASONI SNC 80141", "Nome impianto": "Tamoil di Vitale G.ppe", "Comune": "NAPOLI", "idImpianto": 20214, "points": [{"type": "Feature", "properties": {}, "geometry": {"type": "Point", "coordinates": [14.26477633894376, 40.87437238345071]}}], "price": 2.029, "ultima_rilevazione": "15/06/2022 06:40:12"}, {"Gestore": "DARIO GIUSEPPE", "Bandiera": "Tamoil", "Tipo impianto": "Altro", "Indirizzo": "VIA S.MARIA A CUBITO 539 80145", "Nome impianto": "TAMOIL NAPOLI DI DARIO GIUSEPPE", "Comune": "NAPOLI", "idImpianto": 19810, "points": [{"type": "Feature", "properties": {}, "geometry": {"type": "Point", "coordinates": [14.217036677384954, 40.89402778312683]}}], "price": 2.049, "ultima_rilevazione": "15/06/2022 07:12:06"}, {"Gestore": "MASI DOMENICO", "Bandiera": "Api-Ip", "Tipo impianto": "Altro", "Indirizzo": "via e. scaglione 115 80145", "Nome impianto": "Italiana petroli s.p.a", "Comune": "NAPOLI", "idImpianto": 35626, "points": [{"type": "Feature", "properties": {}, "geometry": {"type": "Point", "coordinates": [14.231468439102173, 40.88236816022563]}}], "price": 2.109, "ultima_rilevazione": "14/06/2022 15:10:01"}, {"Gestore": "PONTICELLI TOMMASO", "Bandiera": "Api-Ip", "Tipo impianto": "Altro", "Indirizzo": "CORSO UMBERTO 17 80023", "Nome impianto": "IP", "Comune": "CAIVANO", "idImpianto": 51276, "points": [{"type": "Feature", "properties": {}, "geometry": {"type": "Point", "coordinates": [14.302432538623066, 40.949442548318544]}}], "price": 2.079, "ultima_rilevazione": "14/06/2022 15:19:42"}, {"Gestore": "ORGANIZZAZIONE SERVIZI AUTO - O.S.A. - S.P.A.", "Bandiera": "Esso", "Tipo impianto": "Altro", "Indirizzo": "via tommaso de amicis 80 80131", "Nome impianto": "ESSO AMICIS", "Comune": "NAPOLI", "idImpianto": 49732, "points": [{"type": "Feature", "properties": {}, "geometry": {"type": "Point", "coordinates": [14.222141953372942, 40.87047689159751]}}], "price": 2.049, "ultima_rilevazione": "14/06/2022 15:54:57"}, {"Gestore": "IP SERVICES S.R.L.", "Bandiera": "Api-Ip", "Tipo impianto": "Altro", "Indirizzo": "VIA MARCONI 5 81100", "Nome impianto": "SUCCIVO - MARCONI", "Comune": "SUCCIVO", "idImpianto": 32873, "points": [{"type": "Feature", "properties": {}, "geometry": {"type": "Point", "coordinates": [14.260538892030697, 40.96622126592551]}}], "price": 2.109, "ultima_rilevazione": "14/06/2022 16:01:58"}, {"Gestore": "IP SERVICES S.R.L.", "Bandiera": "Api-Ip", "Tipo impianto": "Altro", "Indirizzo": "VIA MARTIRI ATELLANI  80100", "Nome impianto": "FRATTAMINORE - MARTIRI ATELLANI", "Comune": "FRATTAMINORE", "idImpianto": 30242, "points": [{"type": "Feature", "properties": {}, "geometry": {"type": "Point", "coordinates": [14.264659766864725, 40.96120101274002]}}], "price": 2.109, "ultima_rilevazione": "14/06/2022 16:02:00"}, {"Gestore": "EDDY RISTOCAR S.R.L.", "Bandiera": "Esso", "Tipo impianto": "Autostradale", "Indirizzo": "Autostrada TANG.LE DI NAPOLI, Km. 14, dir. ovest 80136", "Nome impianto": "SCUDILLO OVEST", "Comune": "NAPOLI", "idImpianto": 4023, "points": [{"type": "Feature", "properties": {}, "geometry": {"type": "Point", "coordinates": [14.242064580321312, 40.865729742550826]}}], "price": 2.079, "ultima_rilevazione": "14/06/2022 17:05:34"}, {"Gestore": "EUROCARB S.R.L.", "Bandiera": "Esso", "Tipo impianto": "Altro", "Indirizzo": "Via Nazionale delle Puglie km 34+923  80026", "Nome impianto": "Eurocarb srl", "Comune": "CASORIA", "idImpianto": 35061, "points": [{"type": "Feature", "properties": {}, "geometry": {"type": "Point", "coordinates": [14.329589009284971, 40.8965886816468]}}], "price": 2.039, "ultima_rilevazione": "14/06/2022 17:07:40"}, {"Gestore": "EASY SERVICE S.R.L.", "Bandiera": "Energas", "Tipo impianto": "Altro", "Indirizzo": "VIALE X MAGGIO  SNC 80024", "Nome impianto": "Easy Service Cardito", "Comune": "CARDITO", "idImpianto": 38134, "points": [{"type": "Feature", "properties": {}, "geometry": {"type": "Point", "coordinates": [14.303525320376592, 40.94033678958917]}}], "price": 2.049, "ultima_rilevazione": "14/06/2022 19:20:29"}, {"Gestore": "EDIL GA S.R.L.", "Bandiera": "Pit stop", "Tipo impianto": "Altro", "Indirizzo": "Via Appia Km 19,800 SNC 80014", "Nome impianto": "Pit Stop", "Comune": "GIUGLIANO IN CAMPANIA", "idImpianto": 50261, "points": [{"type": "Feature", "properties": {}, "geometry": {"type": "Point", "coordinates": [14.22273993492126, 40.93326097817131]}}], "price": 2.029, "ultima_rilevazione": "14/06/2022 19:46:53"}, {"Gestore": "ROTI S.A.S. DI IORIO GIOVANNI & C.", "Bandiera": "Pompe Bianche", "Tipo impianto": "Altro", "Indirizzo": "VIA DETTA NUOVA CASORIA SNC 80144", "Nome impianto": "ROTI FUEL", "Comune": "NAPOLI", "idImpianto": 49343, "points": [{"type": "Feature", "properties": {}, "geometry": {"type": "Point", "coordinates": [14.306723540811822, 40.88122260177593]}}], "price": 2.059, "ultima_rilevazione": "14/06/2022 20:51:29"}, {"Gestore": "IP SERVICES S.R.L.", "Bandiera": "Api-Ip", "Tipo impianto": "Altro", "Indirizzo": "VIA NUOVA TOSCANELLA snc 80145", "Nome impianto": "NAPOLI - NUOVA TOSCANELLA", "Comune": "NAPOLI", "idImpianto": 29745, "points": [{"type": "Feature", "properties": {}, "geometry": {"type": "Point", "coordinates": [14.217489271163911, 40.88566755526838]}}], "price": 2.089, "ultima_rilevazione": "14/06/2022 23:02:36"}, {"Gestore": "TOIL S.P.A.", "Bandiera": "Toil", "Tipo impianto": "Altro", "Indirizzo": "VIA TORIELLO SIPARIELLO SNC 80029", "Nome impianto": "TOIL S.ANTIMO", "Comune": "SANT'ANTIMO", "idImpianto": 35547, "points": [{"type": "Feature", "properties": {}, "geometry": {"type": "Point", "coordinates": [14.24148716032505, 40.95368835219109]}}], "price": 2.039, "ultima_rilevazione": "15/06/2022 00:10:08"}, {"Gestore": " MAXI GARAGE  DI MONTESCURO MASSIMILIANO & C. S.A.S.", "Bandiera": "Api-Ip", "Tipo impianto": "Strada Statale", "Indirizzo": "Statale 162 dir del Centro Direzionale, Km. 162, dir. USCITA NAPOLI 80142", "Nome impianto": "totalerg", "Comune": "NAPOLI", "idImpianto": 32831, "points": [{"type": "Feature", "properties": {}, "geometry": {"type": "Point", "coordinates": [14.287518560886385, 40.86229217758946]}}], "price": 2.099, "ultima_rilevazione": "15/06/2022 06:27:47"}, {"Gestore": " MAXI GARAGE  DI MONTESCURO MASSIMILIANO & C. S.A.S.", "Bandiera": "Api-Ip", "Tipo impianto": "Altro", "Indirizzo": "INGRESSO RAMPA DIR.PAESI VESUVIANI SNC 80100", "Nome impianto": "TOTALERG", "Comune": "NAPOLI", "idImpianto": 40691, "points": [{"type": "Feature", "properties": {}, "geometry": {"type": "Point", "coordinates": [14.287491738796234, 40.862242479019024]}}], "price": 2.099, "ultima_rilevazione": "15/06/2022 06:28:27"}, {"Gestore": "DISTRIBUTORE CARBURANTI ESSO MEO ANDREA", "Bandiera": "Esso", "Tipo impianto": "Altro", "Indirizzo": "VIA FORIA  200 80136", "Nome impianto": "esso", "Comune": "NAPOLI", "idImpianto": 29789, "points": [{"type": "Feature", "properties": {}, "geometry": {"type": "Point", "coordinates": [14.262575384440652, 40.85974447977975]}}], "price": 2.189, "ultima_rilevazione": "15/06/2022 06:44:44"}, {"Gestore": "G.I.C.A. DI LA ROCCA GAETANO &  C. - S.N.C.", "Bandiera": "Esso", "Tipo impianto": "Altro", "Indirizzo": "S.S. 7 bis Km 18+188  80014", "Nome impianto": "ESSO \"on the run caf\u00e8\"", "Comune": "GIUGLIANO IN CAMPANIA", "idImpianto": 13437, "points": [{"type": "Feature", "properties": {}, "geometry": {"type": "Point", "coordinates": [14.215379369641823, 40.947283654622]}}], "price": 2.049, "ultima_rilevazione": "15/06/2022 07:01:58"}, {"Gestore": "SERVIZI & GESTIONI ITALIA S.R.L.", "Bandiera": "Q8", "Tipo impianto": "Altro", "Indirizzo": "VIA COLONNE 101 80014", "Nome impianto": "GIUGLIANO IN CAMPANIA-VIA COLONNE 101", "Comune": "GIUGLIANO IN CAMPANIA", "idImpianto": 11727, "points": [{"type": "Feature", "properties": {}, "geometry": {"type": "Point", "coordinates": [14.211885423278773, 40.92848955674073]}}], "price": 2.099, "ultima_rilevazione": "15/06/2022 07:06:56"}]}, "Gasolio": {"1": [{"Gestore": "CAFFETTERIA PENTA DI PIERNO ROSARIO E DI RICCI GIOVANNI MARCO S.N .C.", "Bandiera": "Api-Ip", "Tipo impianto": "Altro", "Indirizzo": "VIA NAPOLI ROMA VERSO SCAMPIA 52B-52C 80144", "Nome impianto": "IP", "Comune": "NAPOLI", "idImpianto": 50923, "points": [{"type": "Feature", "properties": {}, "geometry": {"type": "Point", "coordinates": [14.254184067249298, 40.89965847100691]}}], "price": 1.583, "ultima_rilevazione": "26/10/2021 10:45:47"}, {"Gestore": "B GROUP DI LUCA BARBATO", "Bandiera": "Esso", "Tipo impianto": "Altro", "Indirizzo": "VIA GUGLIELMO MARCONI 110 80020", "Nome impianto": "BGROUP di Luca Barbato", "Comune": "CASAVATORE", "idImpianto": 50926, "points": [{"type": "Feature", "properties": {}, "geometry": {"type": "Point", "coordinates": [14.277507282137622, 40.89822028884527]}}], "price": 1.699, "ultima_rilevazione": "22/02/2022 07:48:38"}, {"Gestore": "AREA SERVIZIO SAN MICHELE S.A.S. DI BUGLIONE SALVATORE E C.", "Bandiera": "Esso", "Tipo impianto": "Altro", "Indirizzo": "Via Circumvallazione esterna di Arzano, Km. 20+500  80022", "Nome impianto": "Area Servizio San Michele sas", "Comune": "ARZANO", "idImpianto": 32682, "points": [{"type": "Feature", "properties": {}, "geometry": {"type": "Point", "coordinates": [14.25217106938362, 40.91071817376809]}}], "price": 2.199, "ultima_rilevazione": "14/06/2022 08:39:37"}, {"Gestore": "MAURO E PASQUALE CIARAMELLA S.N.C.", "Bandiera": "Esso", "Tipo impianto": "Altro", "Indirizzo": "via principe di piemonte 38 80026", "Nome impianto": "mauro e pasquale ciaramella snc", "Comune": "CASORIA", "idImpianto": 17704, "points": [{"type": "Feature", "properties": {}, "geometry": {"type": "Point", "coordinates": [14.285856963458857, 40.902248283429614]}}], "price": 2.119, "ultima_rilevazione": "15/06/2022 07:18:53"}, {"Gestore": "L.S. Q8 S.A.S. DI AUFIERO TOMMASINA & MOTTOLA SABINO", "Bandiera": "Q8", "Tipo impianto": "Altro", "Indirizzo": "VIA LIMITONE D'ARZANO 6 80144", "Nome impianto": "L.S.Q8sas", "Comune": "NAPOLI", "idImpianto": 8602, "points": [{"type": "Feature", "properties": {}, "geometry": {"type": "Point", "coordinates": [14.262000024318697, 40.901842031383175]}}], "price": 2.149, "ultima_rilevazione": "21/03/2022 12:42:57"}, {"Gestore": "CANCELLO FRANCESCO", "Bandiera": "Agip Eni", "Tipo impianto": "Altro", "Indirizzo": "sp1 circumvallazione esterna di napoli 1 80100", "Nome impianto": "Francesco Cancello 56409", "Comune": "NAPOLI", "idImpianto": 45422, "points": [{"type": "Feature", "properties": {}, "geometry": {"type": "Point", "coordinates": [14.267061746873878, 40.90039997614225]}}], "price": 1.724, "ultima_rilevazione": "13/06/2022 09:11:32"}, {"Gestore": "RUSSO RAFFAELE", "Bandiera": "Esso", "Tipo impianto": "Altro", "Indirizzo": "VIA ROMA VERSO SCAMPIA SNC 80144", "Nome impianto": "RUSSO RAFFAELE", "Comune": "NAPOLI", "idImpianto": 38070, "points": [{"type": "Feature", "properties": {}, "geometry": {"type": "Point", "coordinates": [14.25569397699303, 40.89807390517839]}}], "price": 1.749, "ultima_rilevazione": "24/05/2022 11:24:01"}, {"Gestore": "AUTOSTAZIONE CANCELLO CARLO", "Bandiera": "Esso", "Tipo impianto": "Altro", "Indirizzo": "VIA CIRC.NE ARZANO SNC 80022", "Nome impianto": "AUTOSTAZIONE CANCELLO CARLO", "Comune": "ARZANO", "idImpianto": 31941, "points": [{"type": "Feature", "properties": {}, "geometry": {"type": "Point", "coordinates": [14.264139086008072, 40.90419284727805]}}], "price": 1.999, "ultima_rilevazione": "09/06/2022 14:48:16"}, {"Gestore": "SERVIZI & GESTIONI ITALIA S.R.L.", "Bandiera": "Q8", "Tipo impianto": "Altro", "Indirizzo": "EX SS 87 DIREZIONE CE  80027", "Nome impianto": "FRATTAMAGGIORE EX SS 87 DIREZIONE CE", "Comune": "FRATTAMAGGIORE", "idImpianto": 35900, "points": [{"type": "Feature", "properties": {}, "geometry": {"type": "Point", "coordinates": [14.283426851034164, 40.926981859975164]}}], "price": 1.999, "ultima_rilevazione": "11/06/2022 07:07:26"}, {"Gestore": "SERVIZI & GESTIONI ITALIA S.R.L.", "Bandiera": "Q8", "Tipo impianto": "Altro", "Indirizzo": "RETTIFILO AL BRAVO S/N 80022", "Nome impianto": "ARZANO-RETTIFILO AL BRAVO", "Comune": "ARZANO", "idImpianto": 11735, "points": [{"type": "Feature", "properties": {}, "geometry": {"type": "Point", "coordinates": [14.274977784061434, 40.91677567789187]}}], "price": 1.979, "ultima_rilevazione": "11/06/2022 07:07:28"}, {"Gestore": "SERVIZI & GESTIONI ITALIA srl", "Bandiera": "Q8", "Tipo impianto": "Altro", "Indirizzo": "VIA ROMA IMP. Q8 262 80027", "Nome impianto": "FRATTAMAGGIORE VIA ROMA  262 IMP. Q8", "Comune": "FRATTAMAGGIORE", "idImpianto": 6700, "points": [{"type": "Feature", "properties": {}, "geometry": {"type": "Point", "coordinates": [14.272496311045074, 40.93349968936316]}}], "price": 1.969, "ultima_rilevazione": "11/06/2022 08:11:59"}, {"Gestore": "BNC POWER S.R.L.", "Bandiera": "Pompe Bianche", "Tipo impianto": "Altro", "Indirizzo": "Via Roma 251 80027", "Nome impianto": "BNC Power", "Comune": "FRATTAMAGGIORE", "idImpianto": 46579, "points": [{"type": "Feature", "properties": {}, "geometry": {"type": "Point", "coordinates": [14.27222428483458, 40.93356082719643]}}], "price": 1.949, "ultima_rilevazione": "11/06/2022 14:52:06"}, {"Gestore": "VELAR S.R.L.", "Bandiera": "Oceania", "Tipo impianto": "Altro", "Indirizzo": "VIA DON SEBASTIANO DE ROSA SNC 80022", "Nome impianto": "OCEANIA (ARZANO)", "Comune": "ARZANO", "idImpianto": 48457, "points": [{"type": "Feature", "properties": {}, "geometry": {"type": "Point", "coordinates": [14.259299588954931, 40.91623163920552]}}], "price": 1.949, "ultima_rilevazione": "11/06/2022 23:18:10"}, {"Gestore": "VELAR S.R.L.", "Bandiera": "Oceania", "Tipo impianto": "Altro", "Indirizzo": "VIA PIETRO NENNI SNC 80026", "Nome impianto": "OCEANIA (CASORIA)", "Comune": "CASORIA", "idImpianto": 46730, "points": [{"type": "Feature", "properties": {}, "geometry": {"type": "Point", "coordinates": [14.287055748886928, 40.91233049813255]}}], "price": 1.949, "ultima_rilevazione": "11/06/2022 23:18:56"}, {"Gestore": "CANCELLO FRANCESCO", "Bandiera": "Agip Eni", "Tipo impianto": "Strada Statale", "Indirizzo": "7 Via Appia, Km. 23+579, napoli 80144", "Nome impianto": "cancello francesco", "Comune": "NAPOLI", "idImpianto": 44415, "points": [{"type": "Feature", "properties": {}, "geometry": {"type": "Point", "coordinates": [14.247570636460864, 40.9055444592129]}}], "price": 1.964, "ultima_rilevazione": "13/06/2022 09:11:17"}, {"Gestore": "SANNINO PETROLI S.R.L. ", "Bandiera": "Pompe Bianche", "Tipo impianto": "Altro", "Indirizzo": "VIA SETTE RE 5 80022", "Nome impianto": "SP PETROLI ARZANO", "Comune": "ARZANO", "idImpianto": 16194, "points": [{"type": "Feature", "properties": {}, "geometry": {"type": "Point", "coordinates": [14.268480804025671, 40.91604799563869]}}], "price": 1.969, "ultima_rilevazione": "13/06/2022 17:57:27"}, {"Gestore": "CARBURANTI S.N.C. DI GIORGIO VARRIALE", "Bandiera": "Q8", "Tipo impianto": "Altro", "Indirizzo": "VIA CIRCUMVALLAZIONE ESTERNA 31 80144", "Nome impianto": "CARBURANTI S.N.C. DI GIORGIO VARRIALE", "Comune": "NAPOLI", "idImpianto": 33636, "points": [{"type": "Feature", "properties": {}, "geometry": {"type": "Point", "coordinates": [14.266694063337695, 40.900292927556215]}}], "price": 2.069, "ultima_rilevazione": "14/06/2022 06:59:34"}, {"Gestore": "LC S.R.L.", "Bandiera": "Api-Ip", "Tipo impianto": "Altro", "Indirizzo": "Via Roma 365 80027", "Nome impianto": "IP FRATTAMAGGIORE 46001", "Comune": "FRATTAMAGGIORE", "idImpianto": 50666, "points": [{"type": "Feature", "properties": {}, "geometry": {"type": "Point", "coordinates": [14.27351691381773, 40.924100379431295]}}], "price": 1.989, "ultima_rilevazione": "14/06/2022 07:51:07"}, {"Gestore": "CARBURANTI DI MARIO FEBBRARO", "Bandiera": "Q8", "Tipo impianto": "Altro", "Indirizzo": "via ex s.s. 87 Sannitica km 5+30  snc 80027", "Nome impianto": "GP CARBURANTI", "Comune": "FRATTAMAGGIORE", "idImpianto": 46264, "points": [{"type": "Feature", "properties": {}, "geometry": {"type": "Point", "coordinates": [14.283864457242087, 40.92637677035637]}}], "price": 1.999, "ultima_rilevazione": "14/06/2022 09:04:38"}, {"Gestore": "B.M. CARBURANTI S.R.L.", "Bandiera": "Pompe Bianche", "Tipo impianto": "Altro", "Indirizzo": "CORSO D'AMATO SNC 80022", "Nome impianto": "BM CARBURANTI", "Comune": "ARZANO", "idImpianto": 45924, "points": [{"type": "Feature", "properties": {}, "geometry": {"type": "Point", "coordinates": [14.275883835594756, 40.910711967494414]}}], "price": 1.959, "ultima_rilevazione": "14/06/2022 10:28:26"}, {"Gestore": "CAIAZZO CARBURANTI DI CAIAZZO DOMENICO", "Bandiera": "Api-Ip", "Tipo impianto": "Altro", "Indirizzo": "Via baku snc 80144", "Nome impianto": "Italiana petroli s.p.a", "Comune": "NAPOLI", "idImpianto": 35769, "points": [{"type": "Feature", "properties": {}, "geometry": {"type": "Point", "coordinates": [14.24405202269554, 40.90692752195723]}}], "price": 2.019, "ultima_rilevazione": "14/06/2022 13:26:30"}, {"Gestore": "ALFIERI CIRO", "Bandiera": "Tamoil", "Tipo impianto": "Altro", "Indirizzo": "via pietro nenni  80026", "Nome impianto": "tamoil", "Comune": "CASORIA", "idImpianto": 19419, "points": [{"type": "Feature", "properties": {}, "geometry": {"type": "Point", "coordinates": [14.284238889813423, 40.91321339870182]}}], "price": 1.989, "ultima_rilevazione": "14/06/2022 15:10:12"}, {"Gestore": "IP SERVICES S.R.L.", "Bandiera": "Api-Ip", "Tipo impianto": "Altro", "Indirizzo": "CORSO GARIBALDI 202 80100", "Nome impianto": "GRUMO NEVANO - GARIBALDI 202", "Comune": "GRUMO NEVANO", "idImpianto": 37906, "points": [{"type": "Feature", "properties": {}, "geometry": {"type": "Point", "coordinates": [14.263854741104524, 40.92588581405797]}}], "price": 1.999, "ultima_rilevazione": "14/06/2022 16:01:54"}, {"Gestore": "IP SERVICES S.R.L.", "Bandiera": "Api-Ip", "Tipo impianto": "Altro", "Indirizzo": "VIA LUIGI SAN ROCCO 64 80100", "Nome impianto": "ARZANO - LUIGI SAN ROCCO 64", "Comune": "ARZANO", "idImpianto": 32757, "points": [{"type": "Feature", "properties": {}, "geometry": {"type": "Point", "coordinates": [14.271959766864711, 40.91250912138149]}}], "price": 1.999, "ultima_rilevazione": "14/06/2022 16:01:58"}, {"Gestore": "PIT -  STOP CARBURANTE S.A.S. DI ASCIONE LUCIA & C.", "Bandiera": "Pompe Bianche", "Tipo impianto": "Altro", "Indirizzo": "via paolo borsellino 200 80025", "Nome impianto": "pit stop carburante sas", "Comune": "CASANDRINO", "idImpianto": 15902, "points": [{"type": "Feature", "properties": {}, "geometry": {"type": "Point", "coordinates": [14.250720124606346, 40.9177032983733]}}], "price": 1.979, "ultima_rilevazione": "14/06/2022 17:15:26"}, {"Gestore": "LA CAVA S.R.L", "Bandiera": "Api-Ip", "Tipo impianto": "Altro", "Indirizzo": "VIA REMO DE FEO 4 80022", "Nome impianto": "IP 45373", "Comune": "ARZANO", "idImpianto": 43902, "points": [{"type": "Feature", "properties": {}, "geometry": {"type": "Point", "coordinates": [14.275783000000049, 40.918197107197024]}}], "price": 1.949, "ultima_rilevazione": "14/06/2022 22:21:39"}, {"Gestore": "IP SERVICES S.R.L.", "Bandiera": "Api-Ip", "Tipo impianto": "Altro", "Indirizzo": "SS 87 SANNITICA KM. 7,710  80023", "Nome impianto": "CASORIA - S.S. 87 KM.7,710", "Comune": "CASORIA", "idImpianto": 30634, "points": [{"type": "Feature", "properties": {}, "geometry": {"type": "Point", "coordinates": [14.291124139881164, 40.91663749667929]}}], "price": 1.969, "ultima_rilevazione": "14/06/2022 23:02:19"}, {"Gestore": "GESTIONI INNOVATIVE ITALIA S.R.L.", "Bandiera": "Agip Eni", "Tipo impianto": "Altro", "Indirizzo": "CORSO S.D'AMATO LOC.RETTIFILO 20, 80022", "Nome impianto": "PV 8086", "Comune": "ARZANO", "idImpianto": 25273, "points": [{"type": "Feature", "properties": {}, "geometry": {"type": "Point", "coordinates": [14.276156723499298, 40.906906845069386]}}], "price": 1.989, "ultima_rilevazione": "15/06/2022 06:06:04"}], "3": [{"Gestore": "PALLADINO  ANTONINO", "Bandiera": "Agip Eni", "Tipo impianto": "Altro", "Indirizzo": "VIA MARCONI 209 80020", "Nome impianto": "STAZIONE CASAVATORE", "Comune": "CASAVATORE", "idImpianto": 42376, "points": [{"type": "Feature", "properties": {}, "geometry": {"type": "Point", "coordinates": [14.278422260713228, 40.893851911513394]}}], "price": 2.299, "ultima_rilevazione": "14/06/2022 13:35:33"}, {"Gestore": "QUOTIDIANO EMANUELE", "Bandiera": "Agip Eni", "Tipo impianto": "Altro", "Indirizzo": "via miano 151 80145", "Nome impianto": "quotidiano emanuele", "Comune": "NAPOLI", "idImpianto": 44235, "points": [{"type": "Feature", "properties": {}, "geometry": {"type": "Point", "coordinates": [14.250550000123, 40.888578000123]}}], "price": 2.059, "ultima_rilevazione": "11/06/2022 09:58:35"}, {"Gestore": "VITALE ENRICO", "Bandiera": "Pompe Bianche", "Tipo impianto": "Altro", "Indirizzo": "corso cirillo 76 80028", "Nome impianto": "V.E. Carburantii Grumo Nevano", "Comune": "GRUMO NEVANO", "idImpianto": 43978, "points": [{"type": "Feature", "properties": {}, "geometry": {"type": "Point", "coordinates": [14.255795387731496, 40.93667813116261]}}], "price": 1.799, "ultima_rilevazione": "25/03/2022 21:25:11"}, {"Gestore": "RELLA PASQUALE", "Bandiera": "Agip Eni", "Tipo impianto": "Strada Statale", "Indirizzo": "7 Via Appia, Km. 22+144, NAPOLI 80017", "Nome impianto": "pasquale rella", "Comune": "MELITO DI NAPOLI", "idImpianto": 51314, "points": [{"type": "Feature", "properties": {}, "geometry": {"type": "Point", "coordinates": [14.235650609751051, 40.915841431703065]}}], "price": 1.769, "ultima_rilevazione": "23/04/2022 13:12:32"}, {"Gestore": "CAIAZZO & CO. SOCIETA' A RESPONSABILITA' LIMITATA SEMPLIFICATA", "Bandiera": "Total Erg", "Tipo impianto": "Altro", "Indirizzo": "CORSO ENRICO DE NICOLA 2 80021", "Nome impianto": "CPETROLI", "Comune": "AFRAGOLA", "idImpianto": 42403, "points": [{"type": "Feature", "properties": {}, "geometry": {"type": "Point", "coordinates": [14.307874053474052, 40.92039715802028]}}], "price": 1.709, "ultima_rilevazione": "25/05/2022 17:54:01"}, {"Gestore": "AL.MA S.N.C. DI RUSSO FABIO", "Bandiera": "Api-Ip", "Tipo impianto": "Altro", "Indirizzo": "VIA CIRCUMVALLAZIONE ESTERNA 98 80100", "Nome impianto": "ALMA", "Comune": "CASORIA", "idImpianto": 44071, "points": [{"type": "Feature", "properties": {}, "geometry": {"type": "Point", "coordinates": [14.303845046626977, 40.89698222598175]}}], "price": 1.969, "ultima_rilevazione": "03/06/2022 15:39:16"}, {"Gestore": "MECK OIL S.R.L.", "Bandiera": "Pompe Bianche", "Tipo impianto": "Altro", "Indirizzo": "VIA GIOVANNI XXIII 131 80020", "Nome impianto": "MECK OIL - FRATTAMINORE", "Comune": "FRATTAMINORE", "idImpianto": 33496, "points": [{"type": "Feature", "properties": {}, "geometry": {"type": "Point", "coordinates": [14.271504431962969, 40.94951728248129]}}], "price": 1.999, "ultima_rilevazione": "08/06/2022 10:45:26"}, {"Gestore": "EUROPETROL S.A.S. DI FUSCO GERARDO & C.", "Bandiera": "Api-Ip", "Tipo impianto": "Altro", "Indirizzo": "VIA NUOVA BELVEDERE 157 80024", "Nome impianto": "TOTALERG", "Comune": "CARDITO", "idImpianto": 16073, "points": [{"type": "Feature", "properties": {}, "geometry": {"type": "Point", "coordinates": [14.284775984731256, 40.94322867055087]}}], "price": 2.07, "ultima_rilevazione": "08/06/2022 21:14:55"}, {"Gestore": "SANTANGELO CARBURANTI DI SANTANGELO PASQUALE", "Bandiera": "Q8", "Tipo impianto": "Altro", "Indirizzo": "VIA DEL CASSANO 181-ABC, 80144", "Nome impianto": "santangelo carburanti", "Comune": "NAPOLI", "idImpianto": 18622, "points": [{"type": "Feature", "properties": {}, "geometry": {"type": "Point", "coordinates": [14.26982154106986, 40.88963560826791]}}], "price": 1.939, "ultima_rilevazione": "09/06/2022 11:31:14"}, {"Gestore": "TOCCO ASSUNTA", "Bandiera": "Pompe Bianche", "Tipo impianto": "Altro", "Indirizzo": "CORSO GIUSEPPE GARIBALDI 155 80028", "Nome impianto": "TOCCO ASSUNTA", "Comune": "GRUMO NEVANO", "idImpianto": 32618, "points": [{"type": "Feature", "properties": {}, "geometry": {"type": "Point", "coordinates": [14.26202813617624, 40.93158103505807]}}], "price": 1.929, "ultima_rilevazione": "09/06/2022 13:38:44"}, {"Gestore": "FERRARIO GROUP S.A.S. DI FERRARIO FABRIZIO & C.", "Bandiera": "Esso", "Tipo impianto": "Altro", "Indirizzo": "VIA DARIO FIORE 61 80021", "Nome impianto": "esso", "Comune": "AFRAGOLA", "idImpianto": 48749, "points": [{"type": "Feature", "properties": {}, "geometry": {"type": "Point", "coordinates": [14.304020845403668, 40.92498209306916]}}], "price": 1.959, "ultima_rilevazione": "15/06/2022 07:08:28"}, {"Gestore": "EASY SERVICE S.R.L.", "Bandiera": "Energas", "Tipo impianto": "Altro", "Indirizzo": "Via Janfolla 316 80100", "Nome impianto": "Easy Service Via Janfolla", "Comune": "NAPOLI", "idImpianto": 38607, "points": [{"type": "Feature", "properties": {}, "geometry": {"type": "Point", "coordinates": [14.238584339618685, 40.88518282183775]}}], "price": 1.999, "ultima_rilevazione": "10/06/2022 14:38:14"}, {"Gestore": "START S.R.L.", "Bandiera": "Energas", "Tipo impianto": "Altro", "Indirizzo": "VIA CIRCUMVALLAZIONE ESTERNA 24/26 80026", "Nome impianto": "Energas Spa", "Comune": "CASORIA", "idImpianto": 48033, "points": [{"type": "Feature", "properties": {}, "geometry": {"type": "Point", "coordinates": [14.29590151653291, 40.89587429614623]}}], "price": 1.979, "ultima_rilevazione": "10/06/2022 21:03:10"}, {"Gestore": "SERVIZI & GESTIONI ITALIA S.R.L.", "Bandiera": "Q8", "Tipo impianto": "Altro", "Indirizzo": "S.P. MELITO-MUGNANO SNC 80018", "Nome impianto": "MUGNANO - S.P. MELITO-MUGNANO  SNC", "Comune": "MUGNANO DI NAPOLI", "idImpianto": 31878, "points": [{"type": "Feature", "properties": {}, "geometry": {"type": "Point", "coordinates": [14.222807586193085, 40.91692099516414]}}], "price": 1.969, "ultima_rilevazione": "11/06/2022 01:42:05"}, {"Gestore": "AURINO ALFREDO E C. DI ALFREDO AURINO SAS", "Bandiera": "Agip Eni", "Tipo impianto": "Altro", "Indirizzo": "VIA CASERTA AL BRAVO 116 80144", "Nome impianto": "ENI", "Comune": "NAPOLI", "idImpianto": 35599, "points": [{"type": "Feature", "properties": {}, "geometry": {"type": "Point", "coordinates": [14.278779923915865, 40.89066579584919]}}], "price": 1.964, "ultima_rilevazione": "11/06/2022 08:57:42"}, {"Gestore": "SANGERMANO VINCENZO", "Bandiera": "Pompe Bianche", "Tipo impianto": "Altro", "Indirizzo": "via Regina Margherita  107 80145", "Nome impianto": "GHEPARDOIL", "Comune": "NAPOLI", "idImpianto": 40405, "points": [{"type": "Feature", "properties": {}, "geometry": {"type": "Point", "coordinates": [14.257028303726202, 40.88898121442208]}}], "price": 2.035, "ultima_rilevazione": "11/06/2022 10:01:57"}, {"Gestore": "ESPOSITO ANTONIO", "Bandiera": "Agip Eni", "Tipo impianto": "Altro", "Indirizzo": "Via Miano (fronte caserma Caretto)  80145", "Nome impianto": "AGIP", "Comune": "NAPOLI", "idImpianto": 13181, "points": [{"type": "Feature", "properties": {}, "geometry": {"type": "Point", "coordinates": [14.255109196505371, 40.89514532961387]}}], "price": 1.969, "ultima_rilevazione": "11/06/2022 14:17:18"}, {"Gestore": "C.M.PETROLIO S.R.L.", "Bandiera": "Pompe Bianche", "Tipo impianto": "Altro", "Indirizzo": "corso europa snc   ", "Nome impianto": "your fuel", "Comune": "MELITO DI NAPOLI", "idImpianto": 20367, "points": [{"type": "Feature", "properties": {}, "geometry": {"type": "Point", "coordinates": [14.230032744817436, 40.91518496486265]}}], "price": 1.992, "ultima_rilevazione": "12/06/2022 00:07:43"}, {"Gestore": "SARNI S.R.L.", "Bandiera": "Q8", "Tipo impianto": "Autostradale", "Indirizzo": "Autostrada A1 MILANO-NAPOLI Ramo Capodichino, Km. 1+600, dir. Tangenzial 80144", "Nome impianto": "S.PIETRO", "Comune": "NAPOLI", "idImpianto": 3513, "points": [{"type": "Feature", "properties": {}, "geometry": {"type": "Point", "coordinates": [14.29818723411563, 40.88415920489065]}}], "price": 2.049, "ultima_rilevazione": "13/06/2022 06:00:09"}, {"Gestore": "DORANTOIL S.A.S. DI MIELE RAFFAELE", "Bandiera": "Esso", "Tipo impianto": "Altro", "Indirizzo": "VIA PROVINCIALE CRISPANO - FRATTAMAGGIORE S.N.C. 80020", "Nome impianto": "DORANTOIL SAS", "Comune": "CRISPANO", "idImpianto": 18094, "points": [{"type": "Feature", "properties": {}, "geometry": {"type": "Point", "coordinates": [14.282879680395126, 40.94835180733347]}}], "price": 1.989, "ultima_rilevazione": "13/06/2022 07:46:49"}, {"Gestore": "B. & A. S.A.S. DI FRANZESE PASQUALE & C.", "Bandiera": "Italiana Carburanti", "Tipo impianto": "Altro", "Indirizzo": "via circumvalazione esterna  80026", "Nome impianto": "B & A S.A.S DI FRANZESE PASQUALE", "Comune": "CASORIA", "idImpianto": 42479, "points": [{"type": "Feature", "properties": {}, "geometry": {"type": "Point", "coordinates": [14.294319953372906, 40.89610105495309]}}], "price": 1.959, "ultima_rilevazione": "13/06/2022 12:30:15"}, {"Gestore": "A.G. GAS S.R.L.", "Bandiera": "Pompe Bianche", "Tipo impianto": "Altro", "Indirizzo": "VIA PIETRO NENNI 42 80018", "Nome impianto": "MY EN", "Comune": "MUGNANO DI NAPOLI", "idImpianto": 37236, "points": [{"type": "Feature", "properties": {}, "geometry": {"type": "Point", "coordinates": [14.221272692084312, 40.91297421794075]}}], "price": 1.919, "ultima_rilevazione": "13/06/2022 15:42:44"}, {"Gestore": "MALFITANO ROSSANA", "Bandiera": "Api-Ip", "Tipo impianto": "Altro", "Indirizzo": "VIA MIANO SNC 80145", "Nome impianto": "ITALIANA PETROLI   IP ", "Comune": "NAPOLI", "idImpianto": 49095, "points": [{"type": "Feature", "properties": {}, "geometry": {"type": "Point", "coordinates": [14.248791111663536, 40.87976462583335]}}], "price": 1.969, "ultima_rilevazione": "13/06/2022 17:49:40"}, {"Gestore": "FADDIMM  S.R.L.", "Bandiera": "Repsol", "Tipo impianto": "Altro", "Indirizzo": "VIA PROV.CIRCUMVALLAZIONE EST. 6 80017", "Nome impianto": "REPSOL", "Comune": "MELITO DI NAPOLI", "idImpianto": 45655, "points": [{"type": "Feature", "properties": {}, "geometry": {"type": "Point", "coordinates": [14.23086918106037, 40.90966889745]}}], "price": 1.968, "ultima_rilevazione": "13/06/2022 20:50:05"}, {"Gestore": "TILOGICA S.R.L.", "Bandiera": "Pompe Bianche", "Tipo impianto": "Altro", "Indirizzo": "Via Armando Diaz  106 80026", "Nome impianto": "Tilogica Station", "Comune": "CASORIA", "idImpianto": 51357, "points": [{"type": "Feature", "properties": {}, "geometry": {"type": "Point", "coordinates": [14.297259183898626, 40.91087696870597]}}], "price": 1.979, "ultima_rilevazione": "14/06/2022 07:30:47"}, {"Gestore": "SORVILLO VINCENZO", "Bandiera": "Api-Ip", "Tipo impianto": "Altro", "Indirizzo": "VIA P.MARIO VERGARA 98 80027", "Nome impianto": "IP", "Comune": "FRATTAMAGGIORE", "idImpianto": 31887, "points": [{"type": "Feature", "properties": {}, "geometry": {"type": "Point", "coordinates": [14.280422284866404, 40.937370855372606]}}], "price": 1.999, "ultima_rilevazione": "14/06/2022 07:56:43"}, {"Gestore": "SIRIUS PETROLI S.R.L.", "Bandiera": "Pompe Bianche", "Tipo impianto": "Altro", "Indirizzo": "PIAZZA CASTELLO  80021", "Nome impianto": "SP FUEL  -  NA", "Comune": "AFRAGOLA", "idImpianto": 47164, "points": [{"type": "Feature", "properties": {}, "geometry": {"type": "Point", "coordinates": [14.3142677798272, 40.919833719705046]}}], "price": 1.929, "ultima_rilevazione": "14/06/2022 08:31:35"}, {"Gestore": "IP PETROLI SOCIETA' A RESPONSABILITA' LIMITATA SEMPLIFICATA", "Bandiera": "Q8", "Tipo impianto": "Altro", "Indirizzo": "via giacomo matteotti 30 80028", "Nome impianto": "ip petroli", "Comune": "GRUMO NEVANO", "idImpianto": 49512, "points": [{"type": "Feature", "properties": {}, "geometry": {"type": "Point", "coordinates": [14.264296692441205, 40.93692637383571]}}], "price": 1.999, "ultima_rilevazione": "14/06/2022 09:06:40"}, {"Gestore": "C.R. PETROLI SOCIETA' A RESPONSABILITA' LIMITATA SEMPLIFICATA", "Bandiera": "Pompe Bianche", "Tipo impianto": "Altro", "Indirizzo": "Via Roma  169 80029", "Nome impianto": "C.R. PETROLI", "Comune": "SANT'ANTIMO", "idImpianto": 49765, "points": [{"type": "Feature", "properties": {}, "geometry": {"type": "Point", "coordinates": [14.234772805910149, 40.93317344216066]}}], "price": 1.929, "ultima_rilevazione": "14/06/2022 10:13:33"}, {"Gestore": "VITULLO S.A.S. DI TESORONE PATRIZIA", "Bandiera": "Esso", "Tipo impianto": "Altro", "Indirizzo": "VIA CASERTA AL BRAVO 8 80144", "Nome impianto": "ESSO - VITULLO S.A.S. DI TESORONE PATRIZIA", "Comune": "NAPOLI", "idImpianto": 49879, "points": [{"type": "Feature", "properties": {}, "geometry": {"type": "Point", "coordinates": [14.27635153580922, 40.88637862409743]}}], "price": 1.959, "ultima_rilevazione": "14/06/2022 10:58:30"}, {"Gestore": "PENTA PETROLI SRL", "Bandiera": "Pompe Bianche", "Tipo impianto": "Altro", "Indirizzo": "VIA CASERTA AL BRAVO 83 80144", "Nome impianto": "EWA CAPODICHINO", "Comune": "NAPOLI", "idImpianto": 29982, "points": [{"type": "Feature", "properties": {}, "geometry": {"type": "Point", "coordinates": [14.27830584347248, 40.88991247146935]}}], "price": 1.954, "ultima_rilevazione": "14/06/2022 11:12:14"}, {"Gestore": "IP SERVICES S.R.L.", "Bandiera": "Api-Ip", "Tipo impianto": "Altro", "Indirizzo": "VIA PIETRO NENNI 33 80018", "Nome impianto": "MUGNANO DI NAPOLI - NENNI", "Comune": "MUGNANO DI NAPOLI", "idImpianto": 30379, "points": [{"type": "Feature", "properties": {}, "geometry": {"type": "Point", "coordinates": [14.215518775463124, 40.915614188149846]}}], "price": 1.969, "ultima_rilevazione": "14/06/2022 12:04:10"}, {"Gestore": "IP SERVICES S.R.L.", "Bandiera": "Api-Ip", "Tipo impianto": "Altro", "Indirizzo": "Via P.Nenni  54 80018", "Nome impianto": "Mugnano di Napoli", "Comune": "MUGNANO DI NAPOLI", "idImpianto": 5955, "points": [{"type": "Feature", "properties": {}, "geometry": {"type": "Point", "coordinates": [14.222520589828491, 40.91201991863902]}}], "price": 1.969, "ultima_rilevazione": "14/06/2022 12:06:16"}, {"Gestore": "4M CARBURANTI S.A.S. DI MIGLIACCIO RAFFAELE & C.", "Bandiera": "Pompe Bianche", "Tipo impianto": "Altro", "Indirizzo": "VIA PIROZZI SNC 80027", "Nome impianto": "migliaccio carburanti", "Comune": "FRATTAMAGGIORE", "idImpianto": 38382, "points": [{"type": "Feature", "properties": {}, "geometry": {"type": "Point", "coordinates": [14.271732419729233, 40.946660788432176]}}], "price": 2.019, "ultima_rilevazione": "14/06/2022 12:58:58"}, {"Gestore": "SALZANO ANTONIO", "Bandiera": "Pompe Bianche", "Tipo impianto": "Altro", "Indirizzo": "VIA DARIO FIORE 131 80021", "Nome impianto": "Salzano Antonio", "Comune": "AFRAGOLA", "idImpianto": 27853, "points": [{"type": "Feature", "properties": {}, "geometry": {"type": "Point", "coordinates": [14.299802244705234, 40.92684578451861]}}], "price": 1.955, "ultima_rilevazione": "14/06/2022 13:47:48"}, {"Gestore": "SALZANO GIOVANNI E FIGLIO S.A.S. DI SALZANO GIOVANNI", "Bandiera": "Api-Ip", "Tipo impianto": "Altro", "Indirizzo": "VIA DARIO FIORE 133 80021", "Nome impianto": "Impianto IP", "Comune": "AFRAGOLA", "idImpianto": 16173, "points": [{"type": "Feature", "properties": {}, "geometry": {"type": "Point", "coordinates": [14.299805886438776, 40.92684392956943]}}], "price": 1.955, "ultima_rilevazione": "14/06/2022 13:49:50"}, {"Gestore": "EURO CARBURANTI S.A.S DI SALZANO FRANCESCO E C.", "Bandiera": "Pompe Bianche", "Tipo impianto": "Altro", "Indirizzo": "CORSO ITALIA ANG. VIA PALERMO SNC 80024", "Nome impianto": "EURO CARBURANTI", "Comune": "CARDITO", "idImpianto": 44197, "points": [{"type": "Feature", "properties": {}, "geometry": {"type": "Point", "coordinates": [14.293399, 40.929749]}}], "price": 1.955, "ultima_rilevazione": "14/06/2022 13:51:44"}, {"Gestore": "D'ANGELO S.R.L.", "Bandiera": "Eco Fuel", "Tipo impianto": "Altro", "Indirizzo": "VIA P.BORSELLINO (EX VIA NAPOLI) 39 80025", "Nome impianto": "EcoFuel", "Comune": "CASANDRINO", "idImpianto": 47114, "points": [{"type": "Feature", "properties": {}, "geometry": {"type": "Point", "coordinates": [14.24665242433548, 40.93330270923944]}}], "price": 1.978, "ultima_rilevazione": "14/06/2022 17:18:50"}, {"Gestore": "CRISPINO LUIGI E C. SN.C.", "Bandiera": "Pompe Bianche", "Tipo impianto": "Altro", "Indirizzo": "VIA ALCIDE DE GASPERI 110 80021", "Nome impianto": "CRISPINO LUIGI & C. s.n.c.", "Comune": "AFRAGOLA", "idImpianto": 13186, "points": [{"type": "Feature", "properties": {}, "geometry": {"type": "Point", "coordinates": [14.3096628968201, 40.92847474908711]}}], "price": 1.955, "ultima_rilevazione": "14/06/2022 17:28:02"}, {"Gestore": "GESTIONE ITALIA SOCIETA' A RESPONSABILITA' LIMITATA", "Bandiera": "ALIFUEL", "Tipo impianto": "Strada Statale", "Indirizzo": "7 Via Appia, Km. 20,500, Aversa 80029", "Nome impianto": "ALI FUEL - SANT'ANTIMO", "Comune": "SANT'ANTIMO", "idImpianto": 41171, "points": [{"type": "Feature", "properties": {}, "geometry": {"type": "Point", "coordinates": [14.224498718976974, 40.93083661242735]}}], "price": 1.979, "ultima_rilevazione": "15/06/2022 00:16:14"}, {"Gestore": "SERVIZI & GESTIONI ITALIA S.R.L.", "Bandiera": "Q8", "Tipo impianto": "Altro", "Indirizzo": "SS SANNITICA 87 PAL.RUSSO  80026", "Nome impianto": "SS SANNITICA 87 PAL.RUSSO - CASORIA", "Comune": "CASORIA", "idImpianto": 29726, "points": [{"type": "Feature", "properties": {}, "geometry": {"type": "Point", "coordinates": [14.296560555819724, 40.92404121584755]}}], "price": 1.964, "ultima_rilevazione": "15/06/2022 02:08:43"}, {"Gestore": "SERVIZI & GESTIONI ITALIA S.R.L.", "Bandiera": "Q8", "Tipo impianto": "Altro", "Indirizzo": "CORSO EUROPA 37 80029", "Nome impianto": "S.ANTIMO CORSO EUROPA, 37", "Comune": "SANT'ANTIMO", "idImpianto": 7496, "points": [{"type": "Feature", "properties": {}, "geometry": {"type": "Point", "coordinates": [14.230506867170334, 40.93010872140122]}}], "price": 1.969, "ultima_rilevazione": "15/06/2022 02:08:44"}, {"Gestore": "FULL SERVICE S.A.S. DI DEL PRETE SOSIO & C.", "Bandiera": "Tamoil", "Tipo impianto": "Altro", "Indirizzo": "VIA EX STRADA PR.LE GRUMO-FRATTA 12/14 80028", "Nome impianto": "TAMOIL", "Comune": "GRUMO NEVANO", "idImpianto": 15394, "points": [{"type": "Feature", "properties": {}, "geometry": {"type": "Point", "coordinates": [14.258404523134232, 40.946680439922034]}}], "price": 1.999, "ultima_rilevazione": "15/06/2022 06:52:05"}, {"Gestore": "SERVIZI & GESTIONI ITALIA S.R.L.", "Bandiera": "Q8", "Tipo impianto": "Altro", "Indirizzo": "SP PER AFRAGOLA S/N 80027", "Nome impianto": "FRATTAMAGGIORE-SP PER AFRAGOLA", "Comune": "FRATTAMAGGIORE", "idImpianto": 11739, "points": [{"type": "Feature", "properties": {}, "geometry": {"type": "Point", "coordinates": [14.283683906745864, 40.93547163223486]}}], "price": 1.989, "ultima_rilevazione": "15/06/2022 07:06:56"},