{"area_comune": "[{\"type\": \"Feature\", \"properties\": {}, \"geometry\": {\"type\": \"Polygon\", \"coordinates\": [[[9.575706320683489, 45.67501331901325], [9.584158987759709, 45.67429719533365], [9.576061134110653, 45.65899007431978], [9.569877389141318, 45.64798606049968], [9.563462624495875, 45.64697379379353], [9.563370207315483, 45.648396373731885], [9.554310315439237, 45.657549546510054], [9.547516030150787, 45.65727940817849], [9.542131232567753, 45.65773400446686], [9.542106474346978, 45.66182048527222], [9.542792496867783, 45.66772177155712], [9.545706863724513, 45.67170424958646], [9.55045849514265, 45.67272046576456], [9.55978216183711, 45.6730184697474], [9.573506657970725, 45.674610344397436], [9.575706320683489, 45.67501331901325]]]}}]", "comune": "bonate-sotto", "buffer_1": "[{\"type\": \"Feature\", \"properties\": {}, \"geometry\": {\"type\": \"Polygon\", \"coordinates\": [[[9.571839688564548, 45.68359615524393], [9.573163475207647, 45.68383568711436], [9.574516099733009, 45.683975197211836], [9.57588222227493, 45.68401310340472], [9.577246349679498, 45.683948975837446], [9.585700340456745, 45.683232732825786], [9.586927008728766, 45.68308618495501], [9.588127671567054, 45.68285709169217], [9.589291049352203, 45.68254760534406], [9.590406213233397, 45.68216063344926], [9.59146268791173, 45.681699811425716], [9.59245055013443, 45.68116946837384], [9.593360521970386, 45.68057458635824], [9.594184057987606, 45.67992075355311], [9.594913425512017, 45.67921411169383], [9.595541777213448, 45.678461298330795], [9.596063215338228, 45.677669384430864], [9.59647284698774, 45.6768458079145], [9.596766829927782, 45.67599830375528], [9.596942408503695, 45.675134831300454], [9.596997939330242, 45.67426349949618], [9.59693290652198, 45.67339249072132], [9.59674792632869, 45.672529983945466], [9.59644474114017, 45.67168407793315], [9.596026202924492, 45.67086271521486], [9.595496246262721, 45.67007360753813], [9.57479596619734, 45.642752258812564], [9.574135710922075, 45.641976908488175], [9.57336802462922, 45.641251868541275], [9.572500638351894, 45.640584436810734], [9.571542285710242, 45.63998133104294], [9.570502614957764, 45.63944862134164], [9.569392091868714, 45.638991669138356], [9.568221894443152, 45.63861507329374], [9.567003800486642, 45.638322623869854], [9.565750069191592, 45.63811726403533], [9.564473317905888, 45.63800106048481], [9.563186395321642, 45.63797518266793], [9.561902252351857, 45.63803989103593], [9.560633811985374, 45.63819453442313], [9.559393839420512, 45.638437556589516], [9.55819481377501, 45.63876651185916], [9.557048802654634, 45.639178089698284], [9.555967340834776, 45.63966814798716], [9.554961314269242, 45.64023175465341], [9.554040850588267, 45.64086323725027], [9.553215217184205, 45.64155623998399], [9.552492727908831, 45.64230378761922], [9.546993235805544, 45.64865773477766], [9.541855106807844, 45.64873539207485], [9.54057904606631, 45.648799375641914], [9.539318402842968, 45.6489521342942], [9.538085699218852, 45.6491921507082], [9.536893180146379, 45.6495170408033], [9.535752691969304, 45.64992357738983], [9.534675564874998, 45.65040772218237], [9.533672500440188, 45.65096466586259], [9.532753465382063, 45.651588875795866], [9.531927592566756, 45.652274150931014], [9.531203090256705, 45.65301368334014], [9.53058716049854, 45.653800125791086], [9.530085927464162, 45.65462566468357], [9.52970437646058, 45.65548209762782], [9.529446304219757, 45.65636091489706], [9.529314280969126, 45.65725338394721], [9.529309624667581, 45.65815063616542], [9.529968615029954, 45.66813848684756], [9.530094759312622, 45.669047469563026], [9.530351644100499, 45.669942810119615], [9.530736630509441, 45.670815289542745], [9.53124576014081, 45.6716559238335], [9.531873795618774, 45.672456056517], [9.532614274330212, 45.67320744783284], [9.533459574821366, 45.67390235964652], [9.534400995173474, 45.6745336352044], [9.53542884255422, 45.675094772907464], [9.536532533024694, 45.67557999334089], [9.537700700573758, 45.67598429886518], [9.538921314254512, 45.67630352515191], [9.571839688564548, 45.68359615524393]]]}}]", "buffer_3": "[{\"type\": \"Feature\", \"properties\": {}, \"geometry\": {\"type\": \"Polygon\", \"coordinates\": [[[9.531703806733203, 45.63177592086924], [9.529998352695609, 45.63210795868565], [9.526421695854426, 45.63308233721622], [9.523000948669319, 45.634301599442324], [9.519770073267278, 45.635753644266664], [9.516761154311276, 45.63742405915888], [9.514004081050098, 45.6392962626958], [9.511526250778175, 45.641351668608365], [9.509352296632825, 45.6435698697335], [9.507503842431207, 45.64592884007291], [9.505999286997543, 45.648405152979834], [9.5048536201545, 45.65097421333321], [9.504078272253235, 45.65361050141728], [9.503680998796698, 45.656287826104055], [9.503665801373272, 45.65897958483974], [9.50432024339807, 45.66896760121684], [9.504697449974906, 45.671694638264114], [9.505466953231705, 45.6743808327426], [9.50662088383347, 45.676998520643366], [9.508147408883953, 45.67952073972459], [9.510030851795738, 45.68192150757643], [9.51225185204484, 45.684176089725185], [9.514787563233142, 45.68626125499135], [9.51761188747202, 45.68815551544413], [9.520695743708792, 45.689839348449816], [9.524007367248922, 45.69129539849427], [9.527512637385854, 45.692508656667755], [9.531175429741191, 45.69346661593099], [9.564102909848184, 45.700761413189404], [9.568075424060032, 45.7014802240767], [9.572134558754383, 45.70189887972284], [9.576234237251033, 45.702012628054256], [9.580327920749657, 45.701820178155955], [9.588784560743207, 45.701103696269826], [9.592465691642008, 45.70066390956083], [9.596068707161322, 45.69997641422697], [9.59955972992058, 45.69904767528011], [9.602905940013802, 45.6978864258425], [9.606075884611457, 45.696503584694504], [9.609039774453285, 45.694912153213025], [9.611769764405159, 45.69312709268767], [9.614240215414775, 45.69116518318978], [9.616427935388526, 45.689044865343234], [9.618312396723617, 45.68678606650761], [9.619875928462449, 45.684410013030465], [9.62110388128809, 45.681939030354954], [9.621984763847145, 45.6793963328813], [9.622510349166784, 45.6768058055734], [9.62267575022285, 45.67419177937677], [9.622479464012889, 45.6715788025672], [9.621923383788525, 45.66899141018369], [9.62101277940291, 45.66645389371246], [9.619756246027892, 45.66399007318167], [9.618165621789675, 45.661623073799255], [9.59745751811898, 45.63430583208194], [9.595476174624974, 45.63198016176648], [9.59317276738623, 45.629805454377305], [9.590570503441706, 45.627803586872275], [9.587695587828131, 45.62599469532472], [9.584576959555413, 45.62439697296179], [9.581246000502864, 45.62302648775996], [9.57773622015634, 45.62189702140334], [9.574082919332254, 45.621019931196834], [9.570322836229685, 45.62040403629759], [9.56649377831529, 45.62005552938725], [9.56263424367624, 45.619977914655344], [9.558783035573155, 45.62017197270544], [9.554978873987396, 45.62063575272947], [9.551260007984643, 45.62136459202793], [9.547663832709421, 45.622351162684346], [9.544226514782912, 45.62358554493443], [9.540982629799547, 45.62505532650822], [9.537964815506818, 45.62674572696565], [9.535203444108129, 45.62863974579953], [9.532726316951488, 45.630718332842854], [9.531703806733203, 45.63177592086924]]]}}]", "buffer_5": "[{\"type\": \"Feature\", \"properties\": {}, \"geometry\": {\"type\": \"Polygon\", \"coordinates\": [[[9.516162948131347, 45.616590330860646], [9.515956366107822, 45.61664659998113], [9.510256316075086, 45.61867812502797], [9.504872367148156, 45.62109755102137], [9.49985796029575, 45.623880882727484], [9.495262892687897, 45.62700051185622], [9.49113282419296, 45.630425489391044], [9.487508823808485, 45.634121831065784], [9.484426960524699, 45.63805285303501], [9.48191794272472, 45.64217953448314], [9.480006809788538, 45.646460903645725], [9.478712679091474, 45.65085444347604], [9.478048551074703, 45.65531651298565], [9.478021174519515, 45.65980278011829], [9.47867106759453, 45.66979096020499], [9.479297700865501, 45.674336169237144], [9.480578286670271, 45.67881344726026], [9.482499788415007, 45.6831766758385], [9.485042555247981, 45.687380900868376], [9.488180518926736, 45.691382796716226], [9.491881457618414, 45.695141113944146], [9.496107324107802, 45.69861710594643], [9.50081463518171, 45.701774930024435], [9.505954918278855, 45.70458201868154], [9.511475210851428, 45.707009417222004], [9.517318607285981, 45.70903208408283], [9.523424847686503, 45.710629150714325], [9.556361440005059, 45.71792611766696], [9.562984222341024, 45.719124495039594], [9.569751550576711, 45.719822463642465], [9.576586534915917, 45.720012093858294], [9.58341151158494, 45.719691231906765], [9.591870803216027, 45.71897451086549], [9.598007899831993, 45.7182412942426], [9.60401463868395, 45.717095109034325], [9.609834493156692, 45.71554674378493], [9.615412707744786, 45.713610771256924], [9.620696816148373, 45.711305410348295], [9.625637137113731, 45.708652353533445], [9.63018724324395, 45.705676561504134], [9.634304398291988, 45.70240602700165], [9.637949958781132, 45.698871510124704], [9.64108973617102, 45.6951062476678], [9.643694316196585, 45.69114563928757], [9.645739332446789, 45.68702691350883], [9.647205691714634, 45.682788776765896], [9.648079749133712, 45.67847104882561], [9.648353431613904, 45.67411428805675], [9.648024308594245, 45.669759410094564], [9.647095609638725, 45.66544730349822], [9.645576188905972, 45.66121844601455], [9.643480437021116, 45.65711252504268], [9.640828141363391, 45.65316806584118], [9.620112227412777, 45.62585493296656], [9.616809027419558, 45.6219794503643], [9.612969436581885, 45.61835562541771], [9.608632156366411, 45.615019892144346], [9.603840868655915, 45.61200578209191], [9.598643795448085, 45.609343588879796], [9.593093214081694, 45.60706006532845], [9.58724493284006, 45.60517815614103], [9.581157732132715, 45.60371676874762], [9.574892776758034, 45.60269058454537], [9.568513005001043, 45.60210991237113], [9.562082500520598, 45.601980585631], [9.555665853127975, 45.602303904085595], [9.549327514654077, 45.603076620856925], [9.543131156144629, 45.60429097478389], [9.537139032611776, 45.6059347678139], [9.53141136150648, 45.60799148668139], [9.526005720959, 45.610440467692776], [9.520976473665298, 45.61325710301778], [9.516374222075523, 45.61641308647959], [9.516162948131347, 45.616590330860646]]]}}]", "centroid": "[{\"type\": \"Feature\", \"properties\": {}, \"geometry\": {\"type\": \"Point\", \"coordinates\": [9.562936448831788, 45.663040796796274]}}]", "Diesel High Quality": {"1": [], "3": [{"Gestore": "ILHAMI HAMZA", "Bandiera": "Esso", "Tipo impianto": "Altro", "Indirizzo": "Via dalmine 23 24035", "Nome impianto": "Esso di Ilhami Hamza", "Comune": "CURNO", "idImpianto": 44677, "points": [{"type": "Feature", "properties": {}, "geometry": {"type": "Point", "coordinates": [9.602728246486322, 45.685638241888576]}}], "price": 2.189, "ultima_rilevazione": "04/07/2022 09:58:28"}, {"Gestore": "EGI-2GO S.R.L.", "Bandiera": "Esso", "Tipo impianto": "Strada Statale", "Indirizzo": "671 della Val Seriana, Km. 0+750, LECCO 24035", "Nome impianto": "EGI-2GO CURNO", "Comune": "CURNO", "idImpianto": 50728, "points": [{"type": "Feature", "properties": {}, "geometry": {"type": "Point", "coordinates": [9.611357382954363, 45.67949785174545]}}], "price": 2.029, "ultima_rilevazione": "22/07/2022 07:39:20"}, {"Gestore": "R.C. S.N.C. DI ROSSETTI STEFANO E COFFETTI LUCA", "Bandiera": "Esso", "Tipo impianto": "Altro", "Indirizzo": "Via industria  6 24040", "Nome impianto": "Esso Bottanuco ", "Comune": "BOTTANUCO", "idImpianto": 50176, "points": [{"type": "Feature", "properties": {}, "geometry": {"type": "Point", "coordinates": [9.509343504476874, 45.64542076938716]}}], "price": 1.985, "ultima_rilevazione": "21/07/2022 12:00:44"}, {"Gestore": "DORELEI CARBURANTI DI GUALCO DAVIDE & C. S.A.S.", "Bandiera": "Esso", "Tipo impianto": "Strada Statale", "Indirizzo": "Statale 470 della Val Brembana, Km. 1,4, dir. DALMINE 24035", "Nome impianto": "DORELEI CARBURANTI SAS ", "Comune": "CURNO", "idImpianto": 14558, "points": [{"type": "Feature", "properties": {}, "geometry": {"type": "Point", "coordinates": [9.602007865905762, 45.68602346571805]}}], "price": 2.016, "ultima_rilevazione": "22/07/2022 07:40:06"}], "5": [{"Gestore": "SERVIZI & GESTIONI ITALIA S.R.L.", "Bandiera": "Q8", "Tipo impianto": "Altro", "Indirizzo": "C.SO EUROPA  24046", "Nome impianto": "C.SO EUROPA -  OSIO SOTTO", "Comune": "OSIO SOTTO", "idImpianto": 29720, "points": [{"type": "Feature", "properties": {}, "geometry": {"type": "Point", "coordinates": [9.58543326812287, 45.60547838158743]}}], "price": 1.619, "ultima_rilevazione": "18/07/2022 14:04:46"}, {"Gestore": "TRUSSARDI PETROLI SPA", "Bandiera": "Esso", "Tipo impianto": "Altro", "Indirizzo": "VIA FRATELLI KENNEDY 23 24040", "Nome impianto": "PV Levate", "Comune": "LEVATE", "idImpianto": 31413, "points": [{"type": "Feature", "properties": {}, "geometry": {"type": "Point", "coordinates": [9.620638683991956, 45.62810490189467]}}], "price": 2.13, "ultima_rilevazione": "15/07/2022 14:28:43"}, {"Gestore": "SERVIZI & GESTIONI ITALIA S.R.L.", "Bandiera": "Q8", "Tipo impianto": "Altro", "Indirizzo": "VIA MANZONI STATALE BRIANTEA S/N 24036", "Nome impianto": "PONTE SAN PIETRO-VIA MANZONI STATALE BRIANTEA", "Comune": "PONTE SAN PIETRO", "idImpianto": 11484, "points": [{"type": "Feature", "properties": {}, "geometry": {"type": "Point", "coordinates": [9.571070846557632, 45.705104895083466]}}], "price": 2.219, "ultima_rilevazione": "18/07/2022 00:36:43"}, {"Gestore": "SERVIZI & GESTIONI ITALIA S.R.L.", "Bandiera": "Q8", "Tipo impianto": "Altro", "Indirizzo": "VIA MANZONI STATALE BRIANTEA S/N 24036", "Nome impianto": "PONTE SAN PIETRO-VIA MANZONI STATALE BRIANTEA", "Comune": "PONTE SAN PIETRO", "idImpianto": 11484, "points": [{"type": "Feature", "properties": {}, "geometry": {"type": "Point", "coordinates": [9.571070846557632, 45.705104895083466]}}], "price": 2.249, "ultima_rilevazione": "18/07/2022 00:36:43"}, {"Gestore": "CAFFE' SCUDELETTI S.R.L.", "Bandiera": "Q8", "Tipo impianto": "Altro", "Indirizzo": "VIA PROVINCIALE 4 24040", "Nome impianto": "0956", "Comune": "LALLIO", "idImpianto": 49364, "points": [{"type": "Feature", "properties": {}, "geometry": {"type": "Point", "coordinates": [9.633973697424487, 45.66537756829584]}}], "price": 2.307, "ultima_rilevazione": "18/07/2022 10:31:55"}, {"Gestore": "CAFFE' SCUDELETTI S.R.L.", "Bandiera": "Q8", "Tipo impianto": "Altro", "Indirizzo": "VIA PROVINCIALE 4 24040", "Nome impianto": "0956", "Comune": "LALLIO", "idImpianto": 49364, "points": [{"type": "Feature", "properties": {}, "geometry": {"type": "Point", "coordinates": [9.633973697424487, 45.66537756829584]}}], "price": 2.347, "ultima_rilevazione": "18/07/2022 10:31:55"}, {"Gestore": "SERVIZI & GESTIONI ITALIA S.R.L.", "Bandiera": "Q8", "Tipo impianto": "Altro", "Indirizzo": "SS.BRIANTEA 342 VIA BERGAMO 21 24035", "Nome impianto": "CURNO-SS.BRIANTEA 342 VIA BERGAMO 21", "Comune": "CURNO", "idImpianto": 11492, "points": [{"type": "Feature", "properties": {}, "geometry": {"type": "Point", "coordinates": [9.62216897916801, 45.69200117253395]}}], "price": 2.199, "ultima_rilevazione": "18/07/2022 14:04:46"}, {"Gestore": "SERVIZI & GESTIONI ITALIA S.R.L.", "Bandiera": "Q8", "Tipo impianto": "Altro", "Indirizzo": "SS.BRIANTEA 342 VIA BERGAMO 21 24035", "Nome impianto": "CURNO-SS.BRIANTEA 342 VIA BERGAMO 21", "Comune": "CURNO", "idImpianto": 11492, "points": [{"type": "Feature", "properties": {}, "geometry": {"type": "Point", "coordinates": [9.62216897916801, 45.69200117253395]}}], "price": 2.189, "ultima_rilevazione": "18/07/2022 14:04:46"}, {"Gestore": "SERVIZI & GESTIONI ITALIA S.R.L.", "Bandiera": "Q8", "Tipo impianto": "Altro", "Indirizzo": "S.P. 184 KM 1+400  24046", "Nome impianto": "OSIO SOTTO - S.P. 184 KM 1+400", "Comune": "OSIO SOTTO", "idImpianto": 31854, "points": [{"type": "Feature", "properties": {}, "geometry": {"type": "Point", "coordinates": [9.566535276126842, 45.60995496857018]}}], "price": 2.239, "ultima_rilevazione": "18/07/2022 14:04:47"}, {"Gestore": "SERVIZI & GESTIONI ITALIA S.R.L.", "Bandiera": "Q8", "Tipo impianto": "Altro", "Indirizzo": "VIALE EUROPA S/N 24048", "Nome impianto": "TREVIOLO-VIALE EUROPA", "Comune": "TREVIOLO", "idImpianto": 11493, "points": [{"type": "Feature", "properties": {}, "geometry": {"type": "Point", "coordinates": [9.631402682209, 45.67589183113847]}}], "price": 2.219, "ultima_rilevazione": "18/07/2022 14:04:47"}, {"Gestore": "SERVIZI & GESTIONI ITALIA S.R.L.", "Bandiera": "Q8", "Tipo impianto": "Altro", "Indirizzo": "VIALE EUROPA S/N 24048", "Nome impianto": "TREVIOLO-VIALE EUROPA", "Comune": "TREVIOLO", "idImpianto": 11493, "points": [{"type": "Feature", "properties": {}, "geometry": {"type": "Point", "coordinates": [9.631402682209, 45.67589183113847]}}], "price": 2.229, "ultima_rilevazione": "18/07/2022 14:04:47"}, {"Gestore": "SERVIZI & GESTIONI ITALIA S.R.L.", "Bandiera": "Q8", "Tipo impianto": "Altro", "Indirizzo": "VIA DELLE INDUSTRIE 22 24040", "Nome impianto": " FILAGO - VIA DELLE INDUSTRIE 22", "Comune": "FILAGO", "idImpianto": 11495, "points": [{"type": "Feature", "properties": {}, "geometry": {"type": "Point", "coordinates": [9.548567813491786, 45.6212924962764]}}], "price": 2.199, "ultima_rilevazione": "18/07/2022 14:35:03"}, {"Gestore": "SERVIZI & GESTIONI ITALIA S.R.L.", "Bandiera": "Q8", "Tipo impianto": "Altro", "Indirizzo": "VIA DELLE INDUSTRIE 22 24040", "Nome impianto": " FILAGO - VIA DELLE INDUSTRIE 22", "Comune": "FILAGO", "idImpianto": 11495, "points": [{"type": "Feature", "properties": {}, "geometry": {"type": "Point", "coordinates": [9.548567813491786, 45.6212924962764]}}], "price": 2.219, "ultima_rilevazione": "18/07/2022 14:35:03"}, {"Gestore": "ESSEGI DI SCARPELLINI GIUSEPPE & C. SAS", "Bandiera": "Api-Ip", "Tipo impianto": "Strada Statale", "Indirizzo": "525 del Brembo, Km. 1/9, Milano 24046", "Nome impianto": "IP Via Gorizia (Osio Sotto)", "Comune": "OSIO SOTTO", "idImpianto": 45664, "points": [{"type": "Feature", "properties": {}, "geometry": {"type": "Point", "coordinates": [9.59592176930846, 45.61703243456996]}}], "price": 1.919, "ultima_rilevazione": "19/07/2022 20:15:42"}, {"Gestore": "CO.RINA. S.N.C. DI CORNA, RINALDI & C.", "Bandiera": "Q8", "Tipo impianto": "Altro", "Indirizzo": "VIA BRIANTEA, KM 4  24129", "Nome impianto": "co.rina ", "Comune": "BERGAMO", "idImpianto": 8053, "points": [{"type": "Feature", "properties": {}, "geometry": {"type": "Point", "coordinates": [9.626941680908203, 45.69124802532839]}}], "price": 2.289, "ultima_rilevazione": "21/07/2022 12:46:39"}, {"Gestore": "NUOVA SIDAP  S.R.L.", "Bandiera": "Q8", "Tipo impianto": "Autostradale", "Indirizzo": "Autostrada A4 MILANO-BRESCIA, Km. 166, dir. EST 24040", "Nome impianto": "BREMBO SUD", "Comune": "OSIO SOPRA", "idImpianto": 25613, "points": [{"type": "Feature", "properties": {}, "geometry": {"type": "Point", "coordinates": [9.600096659217913, 45.63188736814508]}}], "price": 2.259, "ultima_rilevazione": "21/07/2022 14:30:18"}, {"Gestore": "NUOVA SIDAP  S.R.L.", "Bandiera": "Esso", "Tipo impianto": "Altro", "Indirizzo": "VIA PAPA GIOVANNI XXIII 8 24042", "Nome impianto": "Capriate", "Comune": "CAPRIATE SAN GERVASIO", "idImpianto": 4644, "points": [{"type": "Feature", "properties": {}, "geometry": {"type": "Point", "coordinates": [9.530127346515656, 45.62114690872448]}}], "price": 2.022, "ultima_rilevazione": "22/07/2022 07:07:04"}, {"Gestore": "IP SERVICES S.R.L.", "Bandiera": "Api-Ip", "Tipo impianto": "Altro", "Indirizzo": "via Roma 33 24030", "Nome impianto": "Medolago", "Comune": "MEDOLAGO", "idImpianto": 36320, "points": [{"type": "Feature", "properties": {}, "geometry": {"type": "Point", "coordinates": [9.498976841568949, 45.66921552704797]}}], "price": 1.848, "ultima_rilevazione": "22/07/2022 13:03:27"}, {"Gestore": "SG69.SOCIETA' A RESPONSABILITA' LIMITATA SEMPLIFICATA", "Bandiera": "Esso", "Tipo impianto": "Altro", "Indirizzo": "VIA GRUMELLO 40 24100", "Nome impianto": "Esso", "Comune": "BERGAMO", "idImpianto": 47125, "points": [{"type": "Feature", "properties": {}, "geometry": {"type": "Point", "coordinates": [9.640194017048753, 45.67048560607016]}}], "price": 2.099, "ultima_rilevazione": "22/07/2022 14:30:28"}]}, "Blue Diesel": {"1": [], "3": [{"Gestore": "RAVASIO ORESTE", "Bandiera": "Agip Eni", "Tipo impianto": "Altro", "Indirizzo": "VIA PAPA GIOVANNI XXIII 13 24040", "Nome impianto": "ENI RAVASIO ORESTE", "Comune": "OSIO SOPRA", "idImpianto": 46736, "points": [{"type": "Feature", "properties": {}, "geometry": {"type": "Point", "coordinates": [9.588019597553284, 45.63083460728634]}}], "price": 2.124, "ultima_rilevazione": "18/07/2022 14:10:09"}, {"Gestore": "RAVASIO ORESTE", "Bandiera": "Agip Eni", "Tipo impianto": "Altro", "Indirizzo": "VIA PAPA GIOVANNI XXIII 13 24040", "Nome impianto": "ENI RAVASIO ORESTE", "Comune": "OSIO SOPRA", "idImpianto": 46736, "points": [{"type": "Feature", "properties": {}, "geometry": {"type": "Point", "coordinates": [9.588019597553284, 45.63083460728634]}}], "price": 2.024, "ultima_rilevazione": "18/07/2022 14:10:09"}, {"Gestore": "MA.PI. S.N.C. DEI F.LLI CORNAGO", "Bandiera": "Agip Eni", "Tipo impianto": "Strada Statale", "Indirizzo": "Statale 671 della Val Seriana, Km. 0,982, dir. bergamo 24035", "Nome impianto": "eni", "Comune": "CURNO", "idImpianto": 4981, "points": [{"type": "Feature", "properties": {}, "geometry": {"type": "Point", "coordinates": [9.613474309444427, 45.67956670215767]}}], "price": 2.024, "ultima_rilevazione": "18/07/2022 17:26:09"}, {"Gestore": "INVERNIZZI ROBERTO E C. S.N.C.", "Bandiera": "Agip Eni", "Tipo impianto": "Altro", "Indirizzo": "V.le A. Locatelli 22 24044", "Nome impianto": "eni", "Comune": "DALMINE", "idImpianto": 16536, "points": [{"type": "Feature", "properties": {}, "geometry": {"type": "Point", "coordinates": [9.605836269944804, 45.64660578650458]}}], "price": 2.004, "ultima_rilevazione": "22/07/2022 18:14:22"}], "5": [{"Gestore": "ARIOLI ALDO", "Bandiera": "Agip Eni", "Tipo impianto": "Altro", "Indirizzo": "VIA MATTEOTTI 16 24046", "Nome impianto": "ENI ARIOLI ALDO", "Comune": "OSIO SOTTO", "idImpianto": 11991, "points": [{"type": "Feature", "properties": {}, "geometry": {"type": "Point", "coordinates": [9.593163122672308, 45.61735283788998]}}], "price": 2.129, "ultima_rilevazione": "19/07/2022 18:50:11"}, {"Gestore": "COSMA FABRIZIO", "Bandiera": "Agip Eni", "Tipo impianto": "Altro", "Indirizzo": "VIA ARRIGO BOITO 12 24040", "Nome impianto": "Cosma Fabrizio - Stezzano", "Comune": "STEZZANO", "idImpianto": 12534, "points": [{"type": "Feature", "properties": {}, "geometry": {"type": "Point", "coordinates": [9.63703751564026, 45.671871760248166]}}], "price": 1.999, "ultima_rilevazione": "21/07/2022 16:44:32"}, {"Gestore": "MORA RENATO GAETANO", "Bandiera": "Agip Eni", "Tipo impianto": "Altro", "Indirizzo": "via provinciale 39 24044", "Nome impianto": "mora renato gaetano", "Comune": "DALMINE", "idImpianto": 12959, "points": [{"type": "Feature", "properties": {}, "geometry": {"type": "Point", "coordinates": [9.616631269454956, 45.64649670011112]}}], "price": 1.759, "ultima_rilevazione": "22/07/2022 12:20:41"}, {"Gestore": "MORA RENATO GAETANO", "Bandiera": "Agip Eni", "Tipo impianto": "Altro", "Indirizzo": "via provinciale 39 24044", "Nome impianto": "mora renato gaetano", "Comune": "DALMINE", "idImpianto": 12959, "points": [{"type": "Feature", "properties": {}, "geometry": {"type": "Point", "coordinates": [9.616631269454956, 45.64649670011112]}}], "price": 2.024, "ultima_rilevazione": "22/07/2022 12:20:41"}, {"Gestore": "PIROVA SAS DI ROTA VALENTINO & C.", "Bandiera": "Agip Eni", "Tipo impianto": "Altro", "Indirizzo": "via provinciale  51 24044", "Nome impianto": "Pirova sas di Rota Valentino & C.", "Comune": "DALMINE", "idImpianto": 46205, "points": [{"type": "Feature", "properties": {}, "geometry": {"type": "Point", "coordinates": [9.6187824010849, 45.6491558861246]}}], "price": 2.004, "ultima_rilevazione": "22/07/2022 18:03:03"}, {"Gestore": "PIROVA SAS DI ROTA VALENTINO & C.", "Bandiera": "Agip Eni", "Tipo impianto": "Altro", "Indirizzo": "via provinciale  51 24044", "Nome impianto": "Pirova sas di Rota Valentino & C.", "Comune": "DALMINE", "idImpianto": 46205, "points": [{"type": "Feature", "properties": {}, "geometry": {"type": "Point", "coordinates": [9.6187824010849, 45.6491558861246]}}], "price": 2.104, "ultima_rilevazione": "22/07/2022 18:03:03"}, {"Gestore": "TIRONI VITTORIO DI TIRONI ERNESTO & C.SNC", "Bandiera": "Agip Eni", "Tipo impianto": "Altro", "Indirizzo": "via provinciale dalmine alme 3 24030", "Nome impianto": "ENI", "Comune": "MOZZO", "idImpianto": 28870, "points": [{"type": "Feature", "properties": {}, "geometry": {"type": "Point", "coordinates": [9.604947566986084, 45.70374271843002]}}], "price": 1.994, "ultima_rilevazione": "23/07/2022 07:40:01"}, {"Gestore": "TIRONI VITTORIO DI TIRONI ERNESTO & C.SNC", "Bandiera": "Agip Eni", "Tipo impianto": "Altro", "Indirizzo": "via provinciale dalmine alme 3 24030", "Nome impianto": "ENI", "Comune": "MOZZO", "idImpianto": 28870, "points": [{"type": "Feature", "properties": {}, "geometry": {"type": "Point", "coordinates": [9.604947566986084, 45.70374271843002]}}], "price": 2.074, "ultima_rilevazione": "23/07/2022 07:40:01"}]}, "Gasolio High Quality": {"1": [{"Gestore": "MAZZOLA ROBERTO", "Bandiera": "Pompe Bianche", "Tipo impianto": "Altro", "Indirizzo": "VIA PAPA GIOVANNI XXIII 31 24040", "Nome impianto": "MAZZOLA", "Comune": "MADONE", "idImpianto": 33398, "points": [{"type": "Feature", "properties": {}, "geometry": {"type": "Point", "coordinates": [9.550803765606702, 45.65032548035179]}}], "price": 1.888, "ultima_rilevazione": "22/07/2022 01:02:24"}], "3": [{"Gestore": "DORELEI CARBURANTI DI GUALCO DAVIDE & C. S.A.S.", "Bandiera": "Esso", "Tipo impianto": "Strada Statale", "Indirizzo": "Statale 470 della Val Brembana, Km. 1,4, dir. DALMINE 24035", "Nome impianto": "DORELEI CARBURANTI SAS ", "Comune": "CURNO", "idImpianto": 14558, "points": [{"type": "Feature", "properties": {}, "geometry": {"type": "Point", "coordinates": [9.602007865905762, 45.68602346571805]}}], "price": 2.016, "ultima_rilevazione": "22/07/2022 07:40:06"}], "5": []}, "Benzina": {"1": [{"Gestore": "PREDA SILVANO", "Bandiera": "Pompe Bianche", "Tipo impianto": "Altro", "Indirizzo": "VIA PAPA GIOVANNI XXIII 8 24040", "Nome impianto": "Preda Silvano", "Comune": "MADONE", "idImpianto": 48550, "points": [{"type": "Feature", "properties": {}, "geometry": {"type": "Point", "coordinates": [9.55323758395622, 45.65630343632625]}}], "price": 1.855, "ultima_rilevazione": "20/07/2022 18:25:11"}, {"Gestore": "MAZZOLA ROBERTO", "Bandiera": "Pompe Bianche", "Tipo impianto": "Altro", "Indirizzo": "VIA PAPA GIOVANNI XXIII 31 24040", "Nome impianto": "MAZZOLA", "Comune": "MADONE", "idImpianto": 33398, "points": [{"type": "Feature", "properties": {}, "geometry": {"type": "Point", "coordinates": [9.550803765606702, 45.65032548035179]}}], "price": 1.838, "ultima_rilevazione": "22/07/2022 01:02:24"}, {"Gestore": "A.R. SERVICE S.A.S. DI MUHAMMAD AMIR & C.", "Bandiera": "Oil Italia", "Tipo impianto": "Altro", "Indirizzo": "VIA DONIZZETTI 5 24040", "Nome impianto": "OIL ITALIA", "Comune": "CHIGNOLO D'ISOLA", "idImpianto": 39057, "points": [{"type": "Feature", "properties": {}, "geometry": {"type": "Point", "coordinates": [9.530040757843608, 45.66393007640911]}}], "price": 1.998, "ultima_rilevazione": "22/07/2022 17:53:58"}, {"Gestore": "AF PETROL S.R.L.", "Bandiera": "Pompe Bianche", "Tipo impianto": "Altro", "Indirizzo": "VIA MILANO  9 24040", "Nome impianto": "AF PETROL", "Comune": "BONATE SOPRA", "idImpianto": 46031, "points": [{"type": "Feature", "properties": {}, "geometry": {"type": "Point", "coordinates": [9.568731020832049, 45.68179171980827]}}], "price": 1.838, "ultima_rilevazione": "23/07/2022 00:10:09"}], "3": [{"Gestore": "ILHAMI HAMZA", "Bandiera": "Esso", "Tipo impianto": "Altro", "Indirizzo": "Via dalmine 23 24035", "Nome impianto": "Esso di Ilhami Hamza", "Comune": "CURNO", "idImpianto": 44677, "points": [{"type": "Feature", "properties": {}, "geometry": {"type": "Point", "coordinates": [9.602728246486322, 45.685638241888576]}}], "price": 2.049, "ultima_rilevazione": "04/07/2022 09:58:28"}, {"Gestore": "BAR ONE DI SANGALLI ZEUDI E C. S.A.S.", "Bandiera": "Total Erg", "Tipo impianto": "Altro", "Indirizzo": "Via Lecco 18 24040", "Nome impianto": "Stazione di servizio ip", "Comune": "CURNO", "idImpianto": 47973, "points": [{"type": "Feature", "properties": {}, "geometry": {"type": "Point", "coordinates": [9.600723306134208, 45.69435968371205]}}], "price": 1.969, "ultima_rilevazione": "11/07/2022 09:12:01"}, {"Gestore": "RAVASIO ORESTE", "Bandiera": "Agip Eni", "Tipo impianto": "Altro", "Indirizzo": "VIA PAPA GIOVANNI XXIII 13 24040", "Nome impianto": "ENI RAVASIO ORESTE", "Comune": "OSIO SOPRA", "idImpianto": 46736, "points": [{"type": "Feature", "properties": {}, "geometry": {"type": "Point", "coordinates": [9.588019597553284, 45.63083460728634]}}], "price": 1.974, "ultima_rilevazione": "18/07/2022 14:10:09"}, {"Gestore": "MA.PI. S.N.C. DEI F.LLI CORNAGO", "Bandiera": "Agip Eni", "Tipo impianto": "Strada Statale", "Indirizzo": "Statale 671 della Val Seriana, Km. 0,982, dir. bergamo 24035", "Nome impianto": "eni", "Comune": "CURNO", "idImpianto": 4981, "points": [{"type": "Feature", "properties": {}, "geometry": {"type": "Point", "coordinates": [9.613474309444427, 45.67956670215767]}}], "price": 1.974, "ultima_rilevazione": "18/07/2022 17:26:09"}, {"Gestore": "R.C. S.N.C. DI ROSSETTI STEFANO E COFFETTI LUCA", "Bandiera": "Esso", "Tipo impianto": "Altro", "Indirizzo": "Via industria  6 24040", "Nome impianto": "Esso Bottanuco ", "Comune": "BOTTANUCO", "idImpianto": 50176, "points": [{"type": "Feature", "properties": {}, "geometry": {"type": "Point", "coordinates": [9.509343504476874, 45.64542076938716]}}], "price": 1.887, "ultima_rilevazione": "21/07/2022 12:00:44"}, {"Gestore": "LIGURIA GAS S.R.L.", "Bandiera": "Pompe Bianche", "Tipo impianto": "Altro", "Indirizzo": "VIA GUGLIELMO MARCONI SN 24040", "Nome impianto": "LIGURIA GAS", "Comune": "SUISIO", "idImpianto": 25733, "points": [{"type": "Feature", "properties": {}, "geometry": {"type": "Point", "coordinates": [9.51567828655243, 45.658138658636645]}}], "price": 1.855, "ultima_rilevazione": "21/07/2022 16:48:01"}, {"Gestore": "EGI-2GO S.R.L.", "Bandiera": "Esso", "Tipo impianto": "Strada Statale", "Indirizzo": "671 della Val Seriana, Km. 0+750, LECCO 24035", "Nome impianto": "EGI-2GO CURNO", "Comune": "CURNO", "idImpianto": 50728, "points": [{"type": "Feature", "properties": {}, "geometry": {"type": "Point", "coordinates": [9.611357382954363, 45.67949785174545]}}], "price": 1.869, "ultima_rilevazione": "22/07/2022 07:39:20"}, {"Gestore": "DORELEI CARBURANTI DI GUALCO DAVIDE & C. S.A.S.", "Bandiera": "Esso", "Tipo impianto": "Strada Statale", "Indirizzo": "Statale 470 della Val Brembana, Km. 1,4, dir. DALMINE 24035", "Nome impianto": "DORELEI CARBURANTI SAS ", "Comune": "CURNO", "idImpianto": 14558, "points": [{"type": "Feature", "properties": {}, "geometry": {"type": "Point", "coordinates": [9.602007865905762, 45.68602346571805]}}], "price": 1.876, "ultima_rilevazione": "22/07/2022 07:40:06"}, {"Gestore": "IP SERVICES S.R.L.", "Bandiera": "Api-Ip", "Tipo impianto": "Altro", "Indirizzo": "Via delle Valli 10 24048", "Nome impianto": "TREVIOLO", "Comune": "TREVIOLO", "idImpianto": 5519, "points": [{"type": "Feature", "properties": {}, "geometry": {"type": "Point", "coordinates": [9.601222000000009, 45.671643006037066]}}], "price": 1.839, "ultima_rilevazione": "22/07/2022 09:03:35"}, {"Gestore": "T.D.M. S.R.L.", "Bandiera": "Tamoil", "Tipo impianto": "Altro", "Indirizzo": "VIA CARLINGA CENTRO COMMERCIALE  24035", "Nome impianto": "3676", "Comune": "CURNO", "idImpianto": 47370, "points": [{"type": "Feature", "properties": {}, "geometry": {"type": "Point", "coordinates": [9.607331713372956, 45.68289598467205]}}], "price": 1.829, "ultima_rilevazione": "22/07/2022 11:44:09"}, {"Gestore": "IPERSTAROIL S.R.L.", "Bandiera": "Auchan", "Tipo impianto": "Altro", "Indirizzo": "VIA FERMI ANGOLO VIA CURNASCO SNC 24035", "Nome impianto": "Curno", "Comune": "CURNO", "idImpianto": 50282, "points": [{"type": "Feature", "properties": {}, "geometry": {"type": "Point", "coordinates": [9.617299983614926, 45.68332426509254]}}], "price": 1.819, "ultima_rilevazione": "22/07/2022 15:24:11"}, {"Gestore": "INVERNIZZI ROBERTO E C. S.N.C.", "Bandiera": "Agip Eni", "Tipo impianto": "Altro", "Indirizzo": "V.le A. Locatelli 22 24044", "Nome impianto": "eni", "Comune": "DALMINE", "idImpianto": 16536, "points": [{"type": "Feature", "properties": {}, "geometry": {"type": "Point", "coordinates": [9.605836269944804, 45.64660578650458]}}], "price": 1.954, "ultima_rilevazione": "22/07/2022 18:14:22"}, {"Gestore": "ALL CAR SERVICE S.N.C. DEI F.LLI SANA", "Bandiera": "Esso", "Tipo impianto": "Altro", "Indirizzo": "VIA VITTORIO VENETO 1697 24030", "Nome impianto": "ALL CAR SERVICE SNC", "Comune": "PRESEZZO", "idImpianto": 11306, "points": [{"type": "Feature", "properties": {}, "geometry": {"type": "Point", "coordinates": [9.562004226389265, 45.69084381775606]}}], "price": 1.879, "ultima_rilevazione": "23/07/2022 07:51:01"}], "5": [{"Gestore": "TRUSSARDI PETROLI SPA", "Bandiera": "Esso", "Tipo impianto": "Altro", "Indirizzo": "VIA FRATELLI KENNEDY 23 24040", "Nome impianto": "PV Levate", "Comune": "LEVATE", "idImpianto": 31413, "points": [{"type": "Feature", "properties": {}, "geometry": {"type": "Point", "coordinates": [9.620638683991956, 45.62810490189467]}}], "price": 1.964, "ultima_rilevazione": "15/07/2022 14:28:43"}, {"Gestore": "SERVIZI & GESTIONI ITALIA S.R.L.", "Bandiera": "Q8", "Tipo impianto": "Altro", "Indirizzo": "VIA MANZONI STATALE BRIANTEA S/N 24036", "Nome impianto": "PONTE SAN PIETRO-VIA MANZONI STATALE BRIANTEA", "Comune": "PONTE SAN PIETRO", "idImpianto": 11484, "points": [{"type": "Feature", "properties": {}, "geometry": {"type": "Point", "coordinates": [9.571070846557632, 45.705104895083466]}}], "price": 1.949, "ultima_rilevazione": "18/07/2022 00:36:43"}, {"Gestore": "MZ ENERGIA S.R.L.", "Bandiera": "Pompe Bianche", "Tipo impianto": "Altro", "Indirizzo": "VIA OROBIE 1 24041", "Nome impianto": "MZ ENERGIA", "Comune": "BREMBATE", "idImpianto": 41399, "points": [{"type": "Feature", "properties": {}, "geometry": {"type": "Point", "coordinates": [9.554833173751833, 45.61009655755201]}}], "price": 2.009, "ultima_rilevazione": "18/07/2022 09:43:05"}, {"Gestore": "CAFFE' SCUDELETTI S.R.L.", "Bandiera": "Q8", "Tipo impianto": "Altro", "Indirizzo": "VIA PROVINCIALE 4 24040", "Nome impianto": "0956", "Comune": "LALLIO", "idImpianto": 49364, "points": [{"type": "Feature", "properties": {}, "geometry": {"type": "Point", "coordinates": [9.633973697424487, 45.66537756829584]}}], "price": 1.957, "ultima_rilevazione": "18/07/2022 10:31:55"}, {"Gestore": "SERVIZI & GESTIONI ITALIA S.R.L.", "Bandiera": "Q8", "Tipo impianto": "Altro", "Indirizzo": "S.S. 342 BRIANTEA KM.4,885  24035", "Nome impianto": "CURNO S.S. 342 BRIANTEA KM.4,885 -Q8", "Comune": "CURNO", "idImpianto": 24759, "points": [{"type": "Feature", "properties": {}, "geometry": {"type": "Point", "coordinates": [9.616742851589947, 45.69245442050466]}}], "price": 1.869, "ultima_rilevazione": "18/07/2022 14:04:42"}, {"Gestore": "SERVIZI & GESTIONI ITALIA S.R.L.", "Bandiera": "Q8", "Tipo impianto": "Altro", "Indirizzo": "C.SO EUROPA  24046", "Nome impianto": "C.SO EUROPA -  OSIO SOTTO", "Comune": "OSIO SOTTO", "idImpianto": 29720, "points": [{"type": "Feature", "properties": {}, "geometry": {"type": "Point", "coordinates": [9.58543326812287, 45.60547838158743]}}], "price": 1.979, "ultima_rilevazione": "18/07/2022 14:04:46"}, {"Gestore": "SERVIZI & GESTIONI ITALIA S.R.L.", "Bandiera": "Q8", "Tipo impianto": "Altro", "Indirizzo": "VIA VITTORIO VENETO 8 24042", "Nome impianto": "CAPRIATE S. GERVASIO-VIA VITTORIO VENETO 8", "Comune": "CAPRIATE SAN GERVASIO", "idImpianto": 11490, "points": [{"type": "Feature", "properties": {}, "geometry": {"type": "Point", "coordinates": [9.530714750289915, 45.610106314305874]}}], "price": 1.899, "ultima_rilevazione": "18/07/2022 14:04:46"}, {"Gestore": "SERVIZI & GESTIONI ITALIA S.R.L.", "Bandiera": "Q8", "Tipo impianto": "Altro", "Indirizzo": "SS.BRIANTEA 342 VIA BERGAMO 21 24035", "Nome impianto": "CURNO-SS.BRIANTEA 342 VIA BERGAMO 21", "Comune": "CURNO", "idImpianto": 11492, "points": [{"type": "Feature", "properties": {}, "geometry": {"type": "Point", "coordinates": [9.62216897916801, 45.69200117253395]}}], "price": 1.889, "ultima_rilevazione": "18/07/2022 14:04:46"}, {"Gestore": "SERVIZI & GESTIONI ITALIA S.R.L.", "Bandiera": "Q8", "Tipo impianto": "Altro", "Indirizzo": "S.P. 184 KM 1+400  24046", "Nome impianto": "OSIO SOTTO - S.P. 184 KM 1+400", "Comune": "OSIO SOTTO", "idImpianto": 31854, "points": [{"type": "Feature", "properties": {}, "geometry": {"type": "Point", "coordinates": [9.566535276126842, 45.60995496857018]}}], "price": 1.999, "ultima_rilevazione": "18/07/2022 14:04:47"}, {"Gestore": "SERVIZI & GESTIONI ITALIA S.R.L.", "Bandiera": "Q8", "Tipo impianto": "Altro", "Indirizzo": "VIALE EUROPA S/N 24048", "Nome impianto": "TREVIOLO-VIALE EUROPA", "Comune": "TREVIOLO", "idImpianto": 11493, "points": [{"type": "Feature", "properties": {}, "geometry": {"type": "Point", "coordinates": [9.631402682209, 45.67589183113847]}}], "price": 1.929, "ultima_rilevazione": "18/07/2022 14:04:47"}, {"Gestore": "SERVIZI & GESTIONI ITALIA S.R.L.", "Bandiera": "Q8", "Tipo impianto": "Altro", "Indirizzo": "VIA DELLE INDUSTRIE 22 24040", "Nome impianto": " FILAGO - VIA DELLE INDUSTRIE 22", "Comune": "FILAGO", "idImpianto": 11495, "points": [{"type": "Feature", "properties": {}, "geometry": {"type": "Point", "coordinates": [9.548567813491786, 45.6212924962764]}}], "price": 1.919, "ultima_rilevazione": "18/07/2022 14:35:03"}, {"Gestore": "BELOTTI GIAMPIETRO & C. S.N.C.", "Bandiera": "Api-Ip", "Tipo impianto": "Altro", "Indirizzo": "VIA ROMA 81 24030", "Nome impianto": "BELOTTI GIAMPIETRO & C. S.N.C.", "Comune": "VALBREMBO", "idImpianto": 11305, "points": [{"type": "Feature", "properties": {}, "geometry": {"type": "Point", "coordinates": [9.606021720237775, 45.71050488939503]}}], "price": 1.929, "ultima_rilevazione": "19/07/2022 09:38:22"}, {"Gestore": "MANENTI IVAN & C. S.N.C.", "Bandiera": "Api-Ip", "Tipo impianto": "Altro", "Indirizzo": "Via Padre Cesare Albisetti 10 24030", "Nome impianto": "Area di servizio IP di Manenti Ivan & C. snc", "Comune": "TERNO D'ISOLA", "idImpianto": 26246, "points": [{"type": "Feature", "properties": {}, "geometry": {"type": "Point", "coordinates": [9.517856240272522, 45.6917396529043]}}], "price": 1.929, "ultima_rilevazione": "19/07/2022 14:57:50"}, {"Gestore": "ARIOLI ALDO", "Bandiera": "Agip Eni", "Tipo impianto": "Altro", "Indirizzo": "VIA MATTEOTTI 16 24046", "Nome impianto": "ENI ARIOLI ALDO", "Comune": "OSIO SOTTO", "idImpianto": 11991, "points": [{"type": "Feature", "properties": {}, "geometry": {"type": "Point", "coordinates": [9.593163122672308, 45.61735283788998]}}], "price": 1.994, "ultima_rilevazione": "19/07/2022 18:50:11"}, {"Gestore": "ESSEGI DI SCARPELLINI GIUSEPPE & C. SAS", "Bandiera": "Api-Ip", "Tipo impianto": "Strada Statale", "Indirizzo": "525 del Brembo, Km. 1/9, Milano 24046", "Nome impianto": "IP Via Gorizia (Osio Sotto)", "Comune": "OSIO SOTTO", "idImpianto": 45664, "points": [{"type": "Feature", "properties": {}, "geometry": {"type": "Point", "coordinates": [9.59592176930846, 45.61703243456996]}}], "price": 1.949, "ultima_rilevazione": "19/07/2022 20:15:42"}, {"Gestore": "DALCO DI DALMAGGIONI SIMONE BATTISTA & C. S.N.C.", "Bandiera": "Q8", "Tipo impianto": "Altro", "Indirizzo": "VIA BRUNO LOCATELLI 29 24030", "Nome impianto": "Q8  dalco snc", "Comune": "BREMBATE DI SOPRA", "idImpianto": 16731, "points": [{"type": "Feature", "properties": {}, "geometry": {"type": "Point", "coordinates": [9.582115032540855, 45.71200081939895]}}], "price": 1.929, "ultima_rilevazione": "21/07/2022 12:10:29"}, {"Gestore": "IMMOBILIARE GESTINVEST S.R.L.", "Bandiera": "Q8", "Tipo impianto": "Altro", "Indirizzo": "VIA DONIZETTI 74 24030", "Nome impianto": "Q8 via donizetti 74 brembate sopra", "Comune": "BREMBATE DI SOPRA", "idImpianto": 15806, "points": [{"type": "Feature", "properties": {}, "geometry": {"type": "Point", "coordinates": [9.584220338623028, 45.711260258601385]}}], "price": 1.929, "ultima_rilevazione": "21/07/2022 12:33:08"}, {"Gestore": "CO.RINA. S.N.C. DI CORNA, RINALDI & C.", "Bandiera": "Q8", "Tipo impianto": "Altro", "Indirizzo": "VIA BRIANTEA, KM 4  24129", "Nome impianto": "co.rina ", "Comune": "BERGAMO", "idImpianto": 8053, "points": [{"type": "Feature", "properties": {}, "geometry": {"type": "Point", "coordinates": [9.626941680908203, 45.69124802532839]}}], "price": 1.889, "ultima_rilevazione": "21/07/2022 12:46:39"}, {"Gestore": "NUOVA SIDAP  S.R.L.", "Bandiera": "Q8", "Tipo impianto": "Autostradale", "Indirizzo": "Autostrada A4 MILANO-BRESCIA, Km. 166, dir. EST 24040", "Nome impianto": "BREMBO SUD", "Comune": "OSIO SOPRA", "idImpianto": 25613, "points": [{"type": "Feature", "properties": {}, "geometry": {"type": "Point", "coordinates": [9.600096659217913, 45.63188736814508]}}], "price": 1.999, "ultima_rilevazione": "21/07/2022 14:30:18"}, {"Gestore": "COSMA FABRIZIO", "Bandiera": "Agip Eni", "Tipo impianto": "Altro", "Indirizzo": "VIA ARRIGO BOITO 12 24040", "Nome impianto": "Cosma Fabrizio - Stezzano", "Comune": "STEZZANO", "idImpianto": 12534, "points": [{"type": "Feature", "properties": {}, "geometry": {"type": "Point", "coordinates": [9.63703751564026, 45.671871760248166]}}], "price": 1.954, "ultima_rilevazione": "21/07/2022 16:44:32"}, {"Gestore": "NUOVA SIDAP  S.R.L.", "Bandiera": "Esso", "Tipo impianto": "Altro", "Indirizzo": "VIA PAPA GIOVANNI XXIII 8 24042", "Nome impianto": "Capriate", "Comune": "CAPRIATE SAN GERVASIO", "idImpianto": 4644, "points": [{"type": "Feature", "properties": {}, "geometry": {"type": "Point", "coordinates": [9.530127346515656, 45.62114690872448]}}], "price": 1.892, "ultima_rilevazione": "22/07/2022 07:07:04"}, {"Gestore": "IPER MONTEBELLO S.P.A.", "Bandiera": "Iper Station", "Tipo impianto": "Altro", "Indirizzo": "VIA VITTORIO VENETO 100 24041", "Nome impianto": "IPER STATION BREMBATE", "Comune": "BREMBATE", "idImpianto": 15101, "points": [{"type": "Feature", "properties": {}, "geometry": {"type": "Point", "coordinates": [9.542348831892014, 45.60789035404323]}}], "price": 1.819, "ultima_rilevazione": "22/07/2022 08:22:05"}, {"Gestore": "MORA RENATO GAETANO", "Bandiera": "Agip Eni", "Tipo impianto": "Altro", "Indirizzo": "via provinciale 39 24044", "Nome impianto": "mora renato gaetano", "Comune": "DALMINE", "idImpianto": 12959, "points": [{"type": "Feature", "properties": {}, "geometry": {"type": "Point", "coordinates": [9.616631269454956, 45.64649670011112]}}], "price": 1.974, "ultima_rilevazione": "22/07/2022 12:20:41"}, {"Gestore": "IP SERVICES S.R.L.", "Bandiera": "Api-Ip", "Tipo impianto": "Altro", "Indirizzo": "via Roma 33 24030", "Nome impianto": "Medolago", "Comune": "MEDOLAGO", "idImpianto": 36320, "points": [{"type": "Feature", "properties": {}, "geometry": {"type": "Point", "coordinates": [9.498976841568949, 45.66921552704797]}}], "price": 1.855, "ultima_rilevazione": "22/07/2022 13:03:27"}, {"Gestore": "SG69.SOCIETA' A RESPONSABILITA' LIMITATA SEMPLIFICATA", "Bandiera": "Esso", "Tipo impianto": "Altro", "Indirizzo": "VIA GRUMELLO 40 24100", "Nome impianto": "Esso", "Comune": "BERGAMO", "idImpianto": 47125, "points": [{"type": "Feature", "properties": {}, "geometry": {"type": "Point", "coordinates": [9.640194017048753, 45.67048560607016]}}], "price": 1.909, "ultima_rilevazione": "22/07/2022 14:30:28"}, {"Gestore": "COOP LOMBARDIA SOCIETA' COOPERATIVA", "Bandiera": "Enercoop", "Tipo impianto": "Altro", "Indirizzo": "VIA STRADA REGIA 4 24030", "Nome impianto": "ENERCOOP", "Comune": "MAPELLO", "idImpianto": 34929, "points": [{"type": "Feature", "properties": {}, "geometry": {"type": "Point", "coordinates": [9.56085942685604, 45.71408559561205]}}], "price": 1.839, "ultima_rilevazione": "22/07/2022 15:07:40"}, {"Gestore": "C.T. S.N.C. DI TIRONI ERNESTO &  FUMAGALLI GIACOMO", "Bandiera": "Q8", "Tipo impianto": "Strada Statale", "Indirizzo": "470 della Val Brembana, Km. 5,8, Villa d'alme' 24035", "Nome impianto": "Q8 mozzo", "Comune": "MOZZO", "idImpianto": 15255, "points": [{"type": "Feature", "properties": {}, "geometry": {"type": "Point", "coordinates": [9.605923891067505, 45.70470372147232]}}], "price": 1.929, "ultima_rilevazione": "22/07/2022 18:00:25"}, {"Gestore": "PIROVA SAS DI ROTA VALENTINO & C.", "Bandiera": "Agip Eni", "Tipo impianto": "Altro", "Indirizzo": "via provinciale  51 24044", "Nome impianto": "Pirova sas di Rota Valentino & C.", "Comune": "DALMINE", "idImpianto": 46205, "points": [{"type": "Feature", "properties": {}, "geometry": {"type": "Point", "coordinates": [9.6187824010849, 45.6491558861246]}}], "price": 1.954, "ultima_rilevazione": "22/07/2022 18:03:03"}, {"Gestore": "NUOVA SIDAP  S.R.L.", "Bandiera": "Esso", "Tipo impianto": "Autostradale", "Indirizzo": "Autostrada A4 MILANO-BRESCIA, Km. 349, dir. Nord 24040", "Nome impianto": "BREMBO NORD", "Comune": "OSIO SOPRA", "idImpianto": 4645, "points": [{"type": "Feature", "properties": {}, "geometry": {"type": "Point", "coordinates": [9.598032832145693, 45.63229936377726]}}], "price": 1.982, "ultima_rilevazione": "22/07/2022 18:30:08"}, {"Gestore": "AF PETROL S.R.L.", "Bandiera": "Pompe Bianche", "Tipo impianto": "Altro", "Indirizzo": "VIA BERGAMO  40 24035", "Nome impianto": "AF PETROL SRL", "Comune": "CURNO", "idImpianto": 47362, "points": [{"type": "Feature", "properties": {}, "geometry": {"type": "Point", "coordinates": [9.618496000123, 45.692214000123]}}], "price": 1.819, "ultima_rilevazione": "23/07/2022 00:10:23"}, {"Gestore": "TIRONI VITTORIO DI TIRONI ERNESTO & C.SNC", "Bandiera": "Agip Eni", "Tipo impianto": "Altro", "Indirizzo": "via provinciale dalmine alme 3 24030", "Nome impianto": "ENI", "Comune": "MOZZO", "idImpianto": 28870, "points": [{"type": "Feature", "properties": {}, "geometry": {"type": "Point", "coordinates": [9.604947566986084, 45.70374271843002]}}], "price": 1.924, "ultima_rilevazione": "23/07/2022 07:40:01"}, {"Gestore": "BRIXIA FINANZIARIA S.R.L.", "Bandiera": "Retitalia", "Tipo impianto": "Altro", "Indirizzo": "Via Don Pedrinelli 47 24030", "Nome impianto": "BRIXIA FINANZIARIA SRL - Carvico", "Comune": "CARVICO", "idImpianto": 30989, "points": [{"type": "Feature", "properties": {}, "geometry": {"type": "Point", "coordinates": [9.497610926628113, 45.698837793952364]}}], "price": 1.969, "ultima_rilevazione": "23/07/2022 01:01:49"}, {"Gestore": "COMMERCIALE PAGANONI S.P.A.", "Bandiera": "Pompe Bianche", "Tipo impianto": "Altro", "Indirizzo": "VIA PROVINCIALE 38 24044", "Nome impianto": "DALMINE", "Comune": "DALMINE", "idImpianto": 41994, "points": [{"type": "Feature", "properties": {}, "geometry": {"type": "Point", "coordinates": [9.614684414791554, 45.64347589021752]}}], "price": 1.889, "ultima_rilevazione": "23/07/2022 07:54:09"}, {"Gestore": "F.LLI BELOTTI DI OVIDIO E GIOVANNI S.N.C.", "Bandiera": "OIL ONE", "Tipo impianto": "Altro", "Indirizzo": "VIA GRUMELLO 45/A 24127", "Nome impianto": "IP F.LLI BELOTTI", "Comune": "BERGAMO", "idImpianto": 14436, "points": [{"type": "Feature", "properties": {}, "geometry": {"type": "Point", "coordinates": [9.64323341846466, 45.673581038934536]}}], "price": 1.899, "ultima_rilevazione": "23/07/2022 07:56:29"}]}, "null": {}, "GPL": {"1": [{"Gestore": "PREDA SILVANO", "Bandiera": "Pompe Bianche", "Tipo impianto": "Altro", "Indirizzo": "VIA PAPA GIOVANNI XXIII 8 24040", "Nome impianto": "Preda Silvano", "Comune": "MADONE", "idImpianto": 48550, "points": [{"type": "Feature", "properties": {}, "geometry": {"type": "Point", "coordinates": [9.55323758395622, 45.65630343632625]}}], "price": 0.765, "ultima_rilevazione": "20/07/2022 18:25:11"}], "3": [{"Gestore": "DORELEI CARBURANTI DI GUALCO DAVIDE & C. S.A.S.", "Bandiera": "Esso", "Tipo impianto": "Strada Statale", "Indirizzo": "Statale 470 della Val Brembana, Km. 1,4, dir. DALMINE 24035", "Nome impianto": "DORELEI CARBURANTI SAS ", "Comune": "CURNO", "idImpianto": 14558, "points": [{"type": "Feature", "properties": {}, "geometry": {"type": "Point", "coordinates": [9.602007865905762, 45.68602346571805]}}], "price": 0.876, "ultima_rilevazione": "22/07/2022 07:40:06"}], "5": [{"Gestore": "SERVIZI & GESTIONI ITALIA S.R.L.", "Bandiera": "Q8", "Tipo impianto": "Altro", "Indirizzo": "S.P. 184 KM 1+400  24046", "Nome impianto": "OSIO SOTTO - S.P. 184 KM 1+400", "Comune": "OSIO SOTTO", "idImpianto": 31854, "points": [{"type": "Feature", "properties": {}, "geometry": {"type": "Point", "coordinates": [9.566535276126842, 45.60995496857018]}}], "price": 0.829, "ultima_rilevazione": "18/07/2022 14:04:47"}, {"Gestore": "NUOVA SIDAP  S.R.L.", "Bandiera": "Q8", "Tipo impianto": "Autostradale", "Indirizzo": "Autostrada A4 MILANO-BRESCIA, Km. 166, dir. EST 24040", "Nome impianto": "BREMBO SUD", "Comune": "OSIO SOPRA", "idImpianto": 25613, "points": [{"type": "Feature", "properties": {}, "geometry": {"type": "Point", "coordinates": [9.600096659217913, 45.63188736814508]}}], "price": 0.879, "ultima_rilevazione": "21/07/2022 14:30:18"}, {"Gestore": "NUOVA SIDAP  S.R.L.", "Bandiera": "Esso", "Tipo impianto": "Altro", "Indirizzo": "VIA PAPA GIOVANNI XXIII 8 24042", "Nome impianto": "Capriate", "Comune": "CAPRIATE SAN GERVASIO", "idImpianto": 4644, "points": [{"type": "Feature", "properties": {}, "geometry": {"type": "Point", "coordinates": [9.530127346515656, 45.62114690872448]}}], "price": 0.842, "ultima_rilevazione": "22/07/2022 07:07:04"}, {"Gestore": "MAFFI MARCO", "Bandiera": "Esso", "Tipo impianto": "Altro", "Indirizzo": "VIA GRUMELLO 30 24127", "Nome impianto": "ESSO", "Comune": "BERGAMO", "idImpianto": 7444, "points": [{"type": "Feature", "properties": {}, "geometry": {"type": "Point", "coordinates": [9.64455149517596, 45.67422225122757]}}], "price": 0.809, "ultima_rilevazione": "22/07/2022 09:41:52"}, {"Gestore": "MORA RENATO GAETANO", "Bandiera": "Agip Eni", "Tipo impianto": "Altro", "Indirizzo": "via provinciale 39 24044", "Nome impianto": "mora renato gaetano", "Comune": "DALMINE", "idImpianto": 12959, "points": [{"type": "Feature", "properties": {}, "geometry": {"type": "Point", "coordinates": [9.616631269454956, 45.64649670011112]}}], "price": 0.809, "ultima_rilevazione": "22/07/2022 12:20:41"}, {"Gestore": "SG69.SOCIETA' A RESPONSABILITA' LIMITATA SEMPLIFICATA", "Bandiera": "Esso", "Tipo impianto": "Altro", "Indirizzo": "VIA GRUMELLO 40 24100", "Nome impianto": "Esso", "Comune": "BERGAMO", "idImpianto": 47125, "points": [{"type": "Feature", "properties": {}, "geometry": {"type": "Point", "coordinates": [9.640194017048753, 45.67048560607016]}}], "price": 0.809, "ultima_rilevazione": "22/07/2022 14:30:28"}, {"Gestore": "COOP LOMBARDIA SOCIETA' COOPERATIVA", "Bandiera": "Enercoop", "Tipo impianto": "Altro", "Indirizzo": "VIA STRADA REGIA 4 24030", "Nome impianto": "ENERCOOP", "Comune": "MAPELLO", "idImpianto": 34929, "points": [{"type": "Feature", "properties": {}, "geometry": {"type": "Point", "coordinates": [9.56085942685604, 45.71408559561205]}}], "price": 0.849, "ultima_rilevazione": "22/07/2022 15:07:40"}, {"Gestore": "C.T. S.N.C. DI TIRONI ERNESTO &  FUMAGALLI GIACOMO", "Bandiera": "Q8", "Tipo impianto": "Strada Statale", "Indirizzo": "470 della Val Brembana, Km. 5,8, Villa d'alme' 24035", "Nome impianto": "Q8 mozzo", "Comune": "MOZZO", "idImpianto": 15255, "points": [{"type": "Feature", "properties": {}, "geometry": {"type": "Point", "coordinates": [9.605923891067505, 45.70470372147232]}}], "price": 0.889, "ultima_rilevazione": "22/07/2022 18:00:25"}, {"Gestore": "NUOVA SIDAP  S.R.L.", "Bandiera": "Esso", "Tipo impianto": "Autostradale", "Indirizzo": "Autostrada A4 MILANO-BRESCIA, Km. 349, dir. Nord 24040", "Nome impianto": "BREMBO NORD", "Comune": "OSIO SOPRA", "idImpianto": 4645, "points": [{"type": "Feature", "properties": {}, "geometry": {"type": "Point", "coordinates": [9.598032832145693, 45.63229936377726]}}], "price": 0.892, "ultima_rilevazione": "22/07/2022 18:30:08"}]}, "Gasolio": {"1": [{"Gestore": "PREDA SILVANO", "Bandiera": "Pompe Bianche", "Tipo impianto": "Altro", "Indirizzo": "VIA PAPA GIOVANNI XXIII 8 24040", "Nome impianto": "Preda Silvano", "Comune": "MADONE", "idImpianto": 48550, "points": [{"type": "Feature", "properties": {}, "geometry": {"type": "Point", "coordinates": [9.55323758395622, 45.65630343632625]}}], "price": 1.849, "ultima_rilevazione": "20/07/2022 18:25:11"}, {"Gestore": "MAZZOLA ROBERTO", "Bandiera": "Pompe Bianche", "Tipo impianto": "Altro", "Indirizzo": "VIA PAPA GIOVANNI XXIII 31 24040", "Nome impianto": "MAZZOLA", "Comune": "MADONE", "idImpianto": 33398, "points": [{"type": "Feature", "properties": {}, "geometry": {"type": "Point", "coordinates": [9.550803765606702, 45.65032548035179]}}], "price": 1.838, "ultima_rilevazione": "22/07/2022 01:02:24"}, {"Gestore": "A.R. SERVICE S.A.S. DI MUHAMMAD AMIR & C.", "Bandiera": "Oil Italia", "Tipo impianto": "Altro", "Indirizzo": "VIA DONIZZETTI 5 24040", "Nome impianto": "OIL ITALIA", "Comune": "CHIGNOLO D'ISOLA", "idImpianto": 39057, "points": [{"type": "Feature", "properties": {}, "geometry": {"type": "Point", "coordinates": [9.530040757843608, 45.66393007640911]}}], "price": 1.975, "ultima_rilevazione": "22/07/2022 17:53:58"}, {"Gestore": "AF PETROL S.R.L.", "Bandiera": "Pompe Bianche", "Tipo impianto": "Altro", "Indirizzo": "VIA MILANO  9 24040", "Nome impianto": "AF PETROL", "Comune": "BONATE SOPRA", "idImpianto": 46031, "points": [{"type": "Feature", "properties": {}, "geometry": {"type": "Point", "coordinates": [9.568731020832049, 45.68179171980827]}}], "price": 1.838, "ultima_rilevazione": "23/07/2022 00:10:09"}], "3": [{"Gestore": "ILHAMI HAMZA", "Bandiera": "Esso", "Tipo impianto": "Altro", "Indirizzo": "Via dalmine 23 24035", "Nome impianto": "Esso di Ilhami Hamza", "Comune": "CURNO", "idImpianto": 44677, "points": [{"type": "Feature", "properties": {}, "geometry": {"type": "Point", "coordinates": [9.602728246486322, 45.685638241888576]}}], "price": 2.039, "ultima_rilevazione": "04/07/2022 09:58:28"}, {"Gestore": "BAR ONE DI SANGALLI ZEUDI E C. S.A.S.", "Bandiera": "Total Erg", "Tipo impianto": "Altro", "Indirizzo": "Via Lecco 18 24040", "Nome impianto": "Stazione di servizio ip", "Comune": "CURNO", "idImpianto": 47973, "points": [{"type": "Feature", "properties": {}, "geometry": {"type": "Point", "coordinates": [9.600723306134208, 45.69435968371205]}}], "price": 1.949, "ultima_rilevazione": "11/07/2022 09:12:01"}, {"Gestore": "RAVASIO ORESTE", "Bandiera": "Agip Eni", "Tipo impianto": "Altro", "Indirizzo": "VIA PAPA GIOVANNI XXIII 13 24040", "Nome impianto": "ENI RAVASIO ORESTE", "Comune": "OSIO SOPRA", "idImpianto": 46736, "points": [{"type": "Feature", "properties": {}, "geometry": {"type": "Point", "coordinates": [9.588019597553284, 45.63083460728634]}}], "price": 1.924, "ultima_rilevazione": "18/07/2022 14:10:09"}, {"Gestore": "MA.PI. S.N.C. DEI F.LLI CORNAGO", "Bandiera": "Agip Eni", "Tipo impianto": "Strada Statale", "Indirizzo": "Statale 671 della Val Seriana, Km. 0,982, dir. bergamo 24035", "Nome impianto": "eni", "Comune": "CURNO", "idImpianto": 4981, "points": [{"type": "Feature", "properties": {}, "geometry": {"type": "Point", "coordinates": [9.613474309444427, 45.67956670215767]}}], "price": 1.924, "ultima_rilevazione": "18/07/2022 17:26:09"}, {"Gestore": "R.C. S.N.C. DI ROSSETTI STEFANO E COFFETTI LUCA", "Bandiera": "Esso", "Tipo impianto": "Altro", "Indirizzo": "Via industria  6 24040", "Nome impianto": "Esso Bottanuco ", "Comune": "BOTTANUCO", "idImpianto": 50176, "points": [{"type": "Feature", "properties": {}, "geometry": {"type": "Point", "coordinates": [9.509343504476874, 45.64542076938716]}}], "price": 1.885, "ultima_rilevazione": "21/07/2022 12:00:44"}, {"Gestore": "LIGURIA GAS S.R.L.", "Bandiera": "Pompe Bianche", "Tipo impianto": "Altro", "Indirizzo": "VIA GUGLIELMO MARCONI SN 24040", "Nome impianto": "LIGURIA GAS", "Comune": "SUISIO", "idImpianto": 25733, "points": [{"type": "Feature", "properties": {}, "geometry": {"type": "Point", "coordinates": [9.51567828655243, 45.658138658636645]}}], "price": 1.848, "ultima_rilevazione": "21/07/2022 16:48:01"}, {"Gestore": "EGI-2GO S.R.L.", "Bandiera": "Esso", "Tipo impianto": "Strada Statale", "Indirizzo": "671 della Val Seriana, Km. 0+750, LECCO 24035", "Nome impianto": "EGI-2GO CURNO", "Comune": "CURNO", "idImpianto": 50728, "points": [{"type": "Feature", "properties": {}, "geometry": {"type": "Point", "coordinates": [9.611357382954363, 45.67949785174545]}}], "price": 1.879, "ultima_rilevazione": "22/07/2022 07:39:20"}, {"Gestore": "DORELEI CARBURANTI DI GUALCO DAVIDE & C. S.A.S.", "Bandiera": "Esso", "Tipo impianto": "Strada Statale", "Indirizzo": "Statale 470 della Val Brembana, Km. 1,4, dir. DALMINE 24035", "Nome impianto": "DORELEI CARBURANTI SAS ", "Comune": "CURNO", "idImpianto": 14558, "points": [{"type": "Feature", "properties": {}, "geometry": {"type": "Point", "coordinates": [9.602007865905762, 45.68602346571805]}}], "price": 1.866, "ultima_rilevazione": "22/07/2022 07:40:06"}, {"Gestore": "IP SERVICES S.R.L.", "Bandiera": "Api-Ip", "Tipo impianto": "Altro", "Indirizzo": "Via delle Valli 10 24048", "Nome impianto": "TREVIOLO", "Comune": "TREVIOLO", "idImpianto": 5519, "points": [{"type": "Feature", "properties": {}, "geometry": {"type": "Point", "coordinates": [9.601222000000009, 45.671643006037066]}}], "price": 1.849, "ultima_rilevazione": "22/07/2022 09:03:35"}, {"Gestore": "T.D.M. S.R.L.", "Bandiera": "Tamoil", "Tipo impianto": "Altro", "Indirizzo": "VIA CARLINGA CENTRO COMMERCIALE  24035", "Nome impianto": "3676", "Comune": "CURNO", "idImpianto": 47370, "points": [{"type": "Feature", "properties": {}, "geometry": {"type": "Point", "coordinates": [9.607331713372956, 45.68289598467205]}}], "price": 1.839, "ultima_rilevazione": "22/07/2022 11:44:09"}, {"Gestore": "IPERSTAROIL S.R.L.", "Bandiera": "Auchan", "Tipo impianto": "Altro", "Indirizzo": "VIA FERMI ANGOLO VIA CURNASCO SNC 24035", "Nome impianto": "Curno", "Comune": "CURNO", "idImpianto": 50282, "points": [{"type": "Feature", "properties": {}, "geometry": {"type": "Point", "coordinates": [9.617299983614926, 45.68332426509254]}}], "price": 1.829, "ultima_rilevazione": "22/07/2022 15:24:11"}, {"Gestore": "INVERNIZZI ROBERTO E C. S.N.C.", "Bandiera": "Agip Eni", "Tipo impianto": "Altro", "Indirizzo": "V.le A. Locatelli 22 24044", "Nome impianto": "eni", "Comune": "DALMINE", "idImpianto": 16536, "points": [{"type": "Feature", "properties": {}, "geometry": {"type": "Point", "coordinates": [9.605836269944804, 45.64660578650458]}}], "price": 1.904, "ultima_rilevazione": "22/07/2022 18:14:22"}, {"Gestore": "ALL CAR SERVICE S.N.C. DEI F.LLI SANA", "Bandiera": "Esso", "Tipo impianto": "Altro", "Indirizzo": "VIA VITTORIO VENETO 1697 24030", "Nome impianto": "ALL CAR SERVICE SNC", "Comune": "PRESEZZO", "idImpianto": 11306, "points": [{"type": "Feature", "properties": {}, "geometry": {"type": "Point", "coordinates": [9.562004226389265, 45.69084381775606]}}], "price": 1.849, "ultima_rilevazione": "23/07/2022 07:51:01"}], "5": [{"Gestore": "TRUSSARDI PETROLI SPA", "Bandiera": "Esso", "Tipo impianto": "Altro", "Indirizzo": "VIA FRATELLI KENNEDY 23 24040", "Nome impianto": "PV Levate", "Comune": "LEVATE", "idImpianto": 31413, "points": [{"type": "Feature", "properties": {}, "geometry": {"type": "Point", "coordinates": [9.620638683991956, 45.62810490189467]}}], "price": 1.924, "ultima_rilevazione": "15/07/2022 14:28:43"}, {"Gestore": "SERVIZI & GESTIONI ITALIA S.R.L.", "Bandiera": "Q8", "Tipo impianto": "Altro", "Indirizzo": "S.S. 342 BRIANTEA KM.4,885  24035", "Nome impianto": "CURNO S.S. 342 BRIANTEA KM.4,885 -Q8", "Comune": "CURNO", "idImpianto": 24759, "points": [{"type": "Feature", "properties": {}, "geometry": {"type": "Point", "coordinates": [9.616742851589947, 45.69245442050466]}}], "price": 1.879, "ultima_rilevazione": "18/07/2022 14:04:42"}, {"Gestore": "SERVIZI & GESTIONI ITALIA S.R.L.", "Bandiera": "Q8", "Tipo impianto": "Altro", "Indirizzo": "VIA MANZONI STATALE BRIANTEA S/N 24036", "Nome impianto": "PONTE SAN PIETRO-VIA MANZONI STATALE BRIANTEA", "Comune": "PONTE SAN PIETRO", "idImpianto": 11484, "points": [{"type": "Feature", "properties": {}, "geometry": {"type": "Point", "coordinates": [9.571070846557632, 45.705104895083466]}}], "price": 1.919, "ultima_rilevazione": "18/07/2022 00:36:43"}, {"Gestore": "MZ ENERGIA S.R.L.", "Bandiera": "Pompe Bianche", "Tipo impianto": "Altro", "Indirizzo": "VIA OROBIE 1 24041", "Nome impianto": "MZ ENERGIA", "Comune": "BREMBATE", "idImpianto": 41399, "points": [{"type": "Feature", "properties": {}, "geometry": {"type": "Point", "coordinates": [9.554833173751833, 45.61009655755201]}}], "price": 1.929, "ultima_rilevazione": "18/07/2022 09:43:05"}, {"Gestore": "CAFFE' SCUDELETTI S.R.L.", "Bandiera": "Q8", "Tipo impianto": "Altro", "Indirizzo": "VIA PROVINCIALE 4 24040", "Nome impianto": "0956", "Comune": "LALLIO", "idImpianto": 49364, "points": [{"type": "Feature", "properties": {}, "geometry": {"type": "Point", "coordinates": [9.633973697424487, 45.66537756829584]}}], "price": 1.927, "ultima_rilevazione": "18/07/2022 10:31:55"}, {"Gestore": "SERVIZI & GESTIONI ITALIA S.R.L.", "Bandiera": "Q8", "Tipo impianto": "Altro", "Indirizzo": "C.SO EUROPA  24046", "Nome impianto": "C.SO EUROPA -  OSIO SOTTO", "Comune": "OSIO SOTTO", "idImpianto": 29720, "points": [{"type": "Feature", "properties": {}, "geometry": {"type": "Point", "coordinates": [9.58543326812287, 45.60547838158743]}}], "price": 1.919, "ultima_rilevazione": "18/07/2022 14:04:46"}, {"Gestore": "SERVIZI & GESTIONI ITALIA S.R.L.", "Bandiera": "Q8", "Tipo impianto": "Altro", "Indirizzo": "VIA VITTORIO VENETO 8 24042", "Nome impianto": "CAPRIATE S. GERVASIO-VIA VITTORIO VENETO 8", "Comune": "CAPRIATE SAN GERVASIO", "idImpianto": 11490, "points": [{"type": "Feature", "properties": {}, "geometry": {"type": "Point", "coordinates": [9.530714750289915, 45.610106314305874]}}], "price": 1.879, "ultima_rilevazione": "18/07/2022 14:04:46"}, {"Gestore": "SERVIZI & GESTIONI ITALIA S.R.L.", "Bandiera": "Q8", "Tipo impianto": "Altro", "Indirizzo": "SS.BRIANTEA 342 VIA BERGAMO 21 24035", "Nome impianto": "CURNO-SS.BRIANTEA 342 VIA BERGAMO 21", "Comune": "CURNO", "idImpianto": 11492, "points": [{"type": "Feature", "properties": {}, "geometry": {"type": "Point", "coordinates": [9.62216897916801, 45.69200117253395]}}], "price": 1.899, "ultima_rilevazione": "18/07/2022 14:04:46"}, {"Gestore": "SERVIZI & GESTIONI ITALIA S.R.L.", "Bandiera": "Q8", "Tipo impianto": "Altro", "Indirizzo": "S.P. 184 KM 1+400  24046", "Nome impianto": "OSIO SOTTO - S.P. 184 KM 1+400", "Comune": "OSIO SOTTO", "idImpianto": 31854, "points": [{"type": "Feature", "properties": {}, "geometry": {"type": "Point", "coordinates": [9.566535276126842, 45.60995496857018]}}], "price": 1.939, "ultima_rilevazione": "18/07/2022 14:04:47"}, {"Gestore": "SERVIZI & GESTIONI ITALIA S.R.L.", "Bandiera": "Q8", "Tipo impianto": "Altro", "Indirizzo": "VIALE EUROPA S/N 24048", "Nome impianto": "TREVIOLO-VIALE EUROPA", "Comune": "TREVIOLO", "idImpianto": 11493, "points": [{"type": "Feature", "properties": {}, "geometry": {"type": "Point", "coordinates": [9.631402682209, 45.67589183113847]}}], "price": 1.919, "ultima_rilevazione": "18/07/2022 14:04:47"}, {"Gestore": "SERVIZI & GESTIONI ITALIA S.R.L.", "Bandiera": "Q8", "Tipo impianto": "Altro", "Indirizzo": "VIA DELLE INDUSTRIE 22 24040", "Nome impianto": " FILAGO - VIA DELLE INDUSTRIE 22", "Comune": "FILAGO", "idImpianto": 11495, "points": [{"type": "Feature", "properties": {}, "geometry": {"type": "Point", "coordinates": [9.548567813491786, 45.6212924962764]}}], "price": 1.899, "ultima_rilevazione": "18/07/2022 14:35:03"}, {"Gestore": "BELOTTI GIAMPIETRO & C. S.N.C.", "Bandiera": "Api-Ip", "Tipo impianto": "Altro", "Indirizzo": "VIA ROMA 81 24030", "Nome impianto": "BELOTTI GIAMPIETRO & C. S.N.C.", "Comune": "VALBREMBO", "idImpianto": 11305, "points": [{"type": "Feature", "properties": {}, "geometry": {"type": "Point", "coordinates": [9.606021720237775, 45.71050488939503]}}], "price": 1.929, "ultima_rilevazione": "19/07/2022 09:38:22"}, {"Gestore": "MANENTI IVAN & C. S.N.C.", "Bandiera": "Api-Ip", "Tipo impianto": "Altro", "Indirizzo": "Via Padre Cesare Albisetti 10 24030", "Nome impianto": "Area di servizio IP di Manenti Ivan & C. snc", "Comune": "TERNO D'ISOLA", "idImpianto": 26246, "points": [{"type": "Feature", "properties": {}, "geometry": {"type": "Point", "coordinates": [9.517856240272522, 45.6917396529043]}}], "price": 1.929, "ultima_rilevazione": "19/07/2022 14:57:50"}, {"Gestore": "ARIOLI ALDO", "Bandiera": "Agip Eni", "Tipo impianto": "Altro", "Indirizzo": "VIA MATTEOTTI 16 24046", "Nome impianto": "ENI ARIOLI ALDO", "Comune": "OSIO SOTTO", "idImpianto": 11991, "points": [{"type": "Feature", "properties": {}, "geometry": {"type": "Point", "coordinates": [9.593163122672308, 45.61735283788998]}}], "price": 1.904, "ultima_rilevazione": "19/07/2022 18:50:11"}, {"Gestore": "ESSEGI DI SCARPELLINI GIUSEPPE & C. SAS", "Bandiera": "Api-Ip", "Tipo impianto": "Strada Statale", "Indirizzo": "525 del Brembo, Km. 1/9, Milano 24046", "Nome impianto": "IP Via Gorizia (Osio Sotto)", "Comune": "OSIO SOTTO", "idImpianto": 45664, "points": [{"type": "Feature", "properties": {}, "geometry": {"type": "Point", "coordinates": [9.59592176930846, 45.61703243456996]}}], "price": 1.919, "ultima_rilevazione": "19/07/2022 20:15:42"}, {"Gestore": "DALCO DI DALMAGGIONI SIMONE BATTISTA & C. S.N.C.", "Bandiera": "Q8", "Tipo impianto": "Altro", "Indirizzo": "VIA BRUNO LOCATELLI 29 24030", "Nome impianto": "Q8  dalco snc", "Comune": "BREMBATE DI SOPRA", "idImpianto": 16731, "points": [{"type": "Feature", "properties": {}, "geometry": {"type": "Point", "coordinates": [9.582115032540855, 45.71200081939895]}}], "price": 1.899, "ultima_rilevazione": "21/07/2022 12:10:29"}, {"Gestore": "IMMOBILIARE GESTINVEST S.R.L.", "Bandiera": "Q8", "Tipo impianto": "Altro", "Indirizzo": "VIA DONIZETTI 74 24030", "Nome impianto": "Q8 via donizetti 74 brembate sopra", "Comune": "BREMBATE DI SOPRA", "idImpianto": 15806, "points": [{"type": "Feature", "properties": {}, "geometry": {"type": "Point", "coordinates": [9.584220338623028, 45.711260258601385]}}], "price": 1.899, "ultima_rilevazione": "21/07/2022 12:33:08"}, {"Gestore": "CO.RINA. S.N.C. DI CORNA, RINALDI & C.", "Bandiera": "Q8", "Tipo impianto": "Altro", "Indirizzo": "VIA BRIANTEA, KM 4  24129", "Nome impianto": "co.rina ", "Comune": "BERGAMO", "idImpianto": 8053, "points": [{"type": "Feature", "properties": {}, "geometry": {"type": "Point", "coordinates": [9.626941680908203, 45.69124802532839]}}], "price": 1.889, "ultima_rilevazione": "21/07/2022 12:46:39"}, {"Gestore": "NUOVA SIDAP  S.R.L.", "Bandiera": "Q8", "Tipo impianto": "Autostradale", "Indirizzo": "Autostrada A4 MILANO-BRESCIA, Km. 166, dir. EST 24040", "Nome impianto": "BREMBO SUD", "Comune": "OSIO SOPRA", "idImpianto": 25613, "points": [{"type": "Feature", "properties": {}, "geometry": {"type": "Point", "coordinates": [9.600096659217913, 45.63188736814508]}}], "price": 1.959, "ultima_rilevazione": "21/07/2022 14:30:18"}, {"Gestore": "COSMA FABRIZIO", "Bandiera": "Agip Eni", "Tipo impianto": "Altro", "Indirizzo": "VIA ARRIGO BOITO 12 24040", "Nome impianto": "Cosma Fabrizio - Stezzano", "Comune": "STEZZANO", "idImpianto": 12534, "points": [{"type": "Feature", "properties": {}, "geometry": {"type": "Point", "coordinates": [9.63703751564026, 45.671871760248166]}}], "price": 1.899, "ultima_rilevazione": "21/07/2022 16:44:32"}, {"Gestore": "NUOVA SIDAP  S.R.L.", "Bandiera": "Esso", "Tipo impianto": "Altro", "Indirizzo": "VIA PAPA GIOVANNI XXIII 8 24042", "Nome impianto": "Capriate", "Comune": "CAPRIATE SAN GERVASIO", "idImpianto": 4644, "points": [{"type": "Feature", "properties": {}, "geometry": {"type": "Point", "coordinates": [9.530127346515656, 45.62114690872448]}}], "price": 1.872, "ultima_rilevazione": "22/07/2022 07:07:04"}, {"Gestore": "IPER MONTEBELLO S.P.A.", "Bandiera": "Iper Station", "Tipo impianto": "Altro", "Indirizzo": "VIA VITTORIO VENETO 100 24041", "Nome impianto": "IPER STATION BREMBATE", "Comune": "BREMBATE", "idImpianto": 15101, "points": [{"type": "Feature", "properties": {}, "geometry": {"type": "Point", "coordinates": [9.542348831892014, 45.60789035404323]}}], "price": 1.829, "ultima_rilevazione": "22/07/2022 08:22:05"}, {"Gestore": "MORA RENATO GAETANO", "Bandiera": "Agip Eni", "Tipo impianto": "Altro", "Indirizzo": "via provinciale 39 24044", "Nome impianto": "mora renato gaetano", "Comune": "DALMINE", "idImpianto": 12959, "points": [{"type": "Feature", "properties": {}, "geometry": {"type": "Point", "coordinates": [9.616631269454956, 45.64649670011112]}}], "price": 1.924, "ultima_rilevazione": "22/07/2022 12:20:41"}, {"Gestore": "IP SERVICES S.R.L.", "Bandiera": "Api-Ip", "Tipo impianto": "Altro", "Indirizzo": "via Roma 33 24030", "Nome impianto": "Medolago", "Comune": "MEDOLAGO", "idImpianto": 36320, "points": [{"type": "Feature", "properties": {}, "geometry": {"type": "Point", "coordinates": [9.498976841568949, 45.66921552704797]}}], "price": 1.848, "ultima_rilevazione": "22/07/2022 13:03:27"}, {"Gestore": "SG69.SOCIETA' A RESPONSABILITA' LIMITATA SEMPLIFICATA", "Bandiera": "Esso", "Tipo impianto": "Altro", "Indirizzo": "VIA GRUMELLO 40 24100", "Nome impianto": "Esso", "Comune": "BERGAMO", "idImpianto": 47125, "points": [{"type": "Feature", "properties": {}, "geometry": {"type": "Point", "coordinates": [9.640194017048753, 45.67048560607016]}}], "price": 1.849, "ultima_rilevazione": "22/07/2022 14:30:28"}, {"Gestore": "COOP LOMBARDIA SOCIETA' COOPERATIVA", "Bandiera": "Enercoop", "Tipo impianto": "Altro", "Indirizzo": "VIA STRADA REGIA 4 24030", "Nome impianto": "ENERCOOP", "Comune": "MAPELLO", "idImpianto": 34929, "points": [{"type": "Feature", "properties": {}, "geometry": {"type": "Point", "coordinates": [9.56085942685604, 45.71408559561205]}}], "price": 1.839, "ultima_rilevazione": "22/07/2022 15:07:40"}, {"Gestore": "C.T. S.N.C. DI TIRONI ERNESTO &  FUMAGALLI GIACOMO", "Bandiera": "Q8", "Tipo impianto": "Strada Statale", "Indirizzo": "470 della Val Brembana, Km. 5,8, Villa d'alme' 24035", "Nome impianto": "Q8 mozzo", "Comune": "MOZZO", "idImpianto": 15255, "points": [{"type": "Feature", "properties": {}, "geometry": {"type": "Point", "coordinates": [9.605923891067505, 45.70470372147232]}}], "price": 1.899, "ultima_rilevazione": "22/07/2022 18:00:25"}, {"Gestore": "PIROVA SAS DI ROTA VALENTINO & C.", "Bandiera": "Agip Eni", "Tipo impianto": "Altro", "Indirizzo": "via provinciale  51 24044", "Nome impianto": "Pirova sas di Rota Valentino & C.", "Comune": "DALMINE", "idImpianto": 46205, "points": [{"type": "Feature", "properties": {}, "geometry": {"type": "Point", "coordinates": [9.6187824010849, 45.6491558861246]}}], "price": 1.904, "ultima_rilevazione": "22/07/2022 18:03:03"}, {"Gestore": "NUOVA SIDAP  S.R.L.", "Bandiera": "Esso", "Tipo impianto": "Autostradale", "Indirizzo": "Autostrada A4 MILANO-BRESCIA, Km. 349, dir. Nord 24040", "Nome impianto": "BREMBO NORD", "Comune": "OSIO SOPRA", "idImpianto": 4645, "points": [{"type": "Feature", "properties": {}, "geometry": {"type": "Point", "coordinates": [9.598032832145693, 45.63229936377726]}}], "price": 1.892, "ultima_rilevazione": "22/07/2022 18:30:08"}, {"Gestore": "AF PETROL S.R.L.", "Bandiera": "Pompe Bianche", "Tipo impianto": "Altro", "Indirizzo": "VIA BERGAMO  40 24035", "Nome impianto": "AF PETROL SRL", "Comune": "CURNO", "idImpianto": 47362, "points": [{"type": "Feature", "properties": {}, "geometry": {"type": "Point", "coordinates": [9.618496000123, 45.692214000123]}}], "price": 1.829, "ultima_rilevazione": "23/07/2022 00:10:23"}, {"Gestore": "TIRONI VITTORIO DI TIRONI ERNESTO & C.SNC", "Bandiera": "Agip Eni", "Tipo impianto": "Altro", "Indirizzo": "via provinciale dalmine alme 3 24030", "Nome impianto": "ENI", "Comune": "MOZZO", "idImpianto": 28870, "points": [{"type": "Feature", "properties": {}, "geometry": {"type": "Point", "coordinates": [9.604947566986084, 45.70374271843002]}}], "price": 1.864, "ultima_rilevazione": "23/07/2022 07:40:01"}, {"Gestore": "BRIXIA FINANZIARIA S.R.L.", "Bandiera": "Retitalia", "Tipo impianto": "Altro", "Indirizzo": "Via Don Pedrinelli 47 24030", "Nome impianto": "BRIXIA FINANZIARIA SRL - Carvico", "Comune": "CARVICO", "idImpianto": 30989, "points": [{"type": "Feature", "properties": {}, "geometry": {"type": "Point", "coordinates": [9.497610926628113, 45.698837793952364]}}], "price": 1.969, "ultima_rilevazione": "23/07/2022 01:01:49"}, {"Gestore": "COMMERCIALE PAGANONI S.P.A.", "Bandiera": "Pompe Bianche", "Tipo impianto": "Altro", "Indirizzo": "VIA PROVINCIALE 38 24044", "Nome impianto": "DALMINE", "Comune": "DALMINE", "idImpianto": 41994, "points": [{"type": "Feature", "properties": {}, "geometry": {"type": "Point", "coordinates": [9.614684414791554, 45.64347589021752]}}], "price": 1.889, "ultima_rilevazione": "23/07/2022 07:54:09"}, {"Gestore": "F.LLI BELOTTI DI OVIDIO E GIOVANNI S.N.C.", "Bandiera": "OIL ONE", "Tipo impianto": "Altro", "Indirizzo": "VIA GRUMELLO 45/A 24127", "Nome impianto": "IP F.LLI BELOTTI", "Comune": "BERGAMO", "idImpianto": 14436, "points": [{"type": "Feature", "properties": {}, "geometry": {"type": "Point", "coordinates": [9.64323341846466, 45.673581038934536]}}], "price": 1.859, "ultima_rilevazione": "23/07/2022 07:56:29"}]}, "Metano": {"1": [], "3": [{"Gestore": "MA.PI. S.N.C. DEI F.LLI CORNAGO", "Bandiera": "Agip Eni", "Tipo impianto": "Strada Statale", "Indirizzo": "Statale 671 della Val Seriana, Km. 0,982, dir. bergamo 24035", "Nome impianto": "eni", "Comune": "CURNO", "idImpianto": 4981, "points": [{"type": "Feature", "properties": {}, "geometry": {"type": "Point", "coordinates": [9.613474309444427, 45.67956670215767]}}], "price": 2.231, "ultima_rilevazione": "18/07/2022 17:26:09"}, {"Gestore": "LIGURIA GAS S.R.L.", "Bandiera": "Pompe Bianche", "Tipo impianto": "Altro", "Indirizzo": "VIA GUGLIELMO MARCONI SN 24040", "Nome impianto": "LIGURIA GAS", "Comune": "SUISIO", "idImpianto": 25733, "points": [{"type": "Feature", "properties": {}, "geometry": {"type": "Point", "coordinates": [9.51567828655243, 45.658138658636645]}}], "price": 1.999, "ultima_rilevazione": "21/07/2022 16:48:01"}, {"Gestore": "IPERSTAROIL S.R.L.", "Bandiera": "Auchan", "Tipo impianto": "Altro", "Indirizzo": "VIA FERMI ANGOLO VIA CURNASCO SNC 24035", "Nome impianto": "Curno", "Comune": "CURNO", "idImpianto": 50282, "points": [{"type": "Feature", "properties": {}, "geometry": {"type": "Point", "coordinates": [9.617299983614926, 45.68332426509254]}}], "price": 1.999, "ultima_rilevazione": "22/07/2022 15:24:11"}], "5": [{"Gestore": "IPER MONTEBELLO S.P.A.", "Bandiera": "Iper Station", "Tipo impianto": "Altro", "Indirizzo": "VIA VITTORIO VENETO 100 24041", "Nome impianto": "IPER STATION BREMBATE", "Comune": "BREMBATE", "idImpianto": 15101, "points": [{"type": "Feature", "properties": {}, "geometry": {"type": "Point", "coordinates": [9.542348831892014, 45.60789035404323]}}], "price": 2.999, "ultima_rilevazione": "22/07/2022 08:22:05"}, {"Gestore": "MORA RENATO GAETANO", "Bandiera": "Agip Eni", "Tipo impianto": "Altro", "Indirizzo": "via provinciale 39 24044", "Nome impianto": "mora renato gaetano", "Comune": "DALMINE", "idImpianto": 12959, "points": [{"type": "Feature", "properties": {}, "geometry": {"type": "Point", "coordinates": [9.616631269454956, 45.64649670011112]}}], "price": 1.979, "ultima_rilevazione": "22/07/2022 12:20:41"}, {"Gestore": "COOP LOMBARDIA SOCIETA' COOPERATIVA", "Bandiera": "Enercoop", "Tipo impianto": "Altro", "Indirizzo": "VIA STRADA REGIA 4 24030", "Nome impianto": "ENERCOOP", "Comune": "MAPELLO", "idImpianto": 34929, "points": [{"type": "Feature", "properties": {}, "geometry": {"type": "Point", "coordinates": [9.56085942685604, 45.71408559561205]}}], "price": 1.599, "ultima_rilevazione": "22/07/2022 15:07:40"}]}}