{"area_comune": "[{\"type\": \"Feature\", \"properties\": {}, \"geometry\": {\"type\": \"Polygon\", \"coordinates\": [[[9.55417836757127, 45.69483437715676], [9.554795991076347, 45.69250620458283], [9.55715448402406, 45.690174803967906], [9.565887312194807, 45.686790402717264], [9.582525102902549, 45.68624774422075], [9.586063257667066, 45.686877701818176], [9.589377764189319, 45.68699565622842], [9.5871743102283, 45.680148408860916], [9.584158987759709, 45.67429719533365], [9.575706320683489, 45.67501331901325], [9.573506657970725, 45.674610344397436], [9.55978216183711, 45.6730184697474], [9.55045849514265, 45.67272046576456], [9.545706863724513, 45.67170424958646], [9.539377411254023, 45.6770537781443], [9.546869465690119, 45.68825114659667], [9.545566296075624, 45.692910771732876], [9.55417836757127, 45.69483437715676]]]}}]", "comune": "bonate-sopra", "buffer_1": "[{\"type\": \"Feature\", \"properties\": {}, \"geometry\": {\"type\": \"Polygon\", \"coordinates\": [[[9.543084372490108, 45.69937030848373], [9.54375346679565, 45.70009227956208], [9.54451795060972, 45.70076615315488], [9.545370831929766, 45.70138576311636], [9.546304309107562, 45.701945439639715], [9.547309842209541, 45.70244006119059], [9.548378231168165, 45.70286510142401], [9.54949970000836, 45.703216670653475], [9.550663986376016, 45.70349155149046], [9.551860435545898, 45.70368722832606], [9.55307809804417, 45.70380191038339], [9.554305829986774, 45.70383454812832], [9.55553239520935, 45.703784842887366], [9.556746568247465, 45.703653249584015], [9.557937237217992, 45.703440972568664], [9.559093505653326, 45.703149954580006], [9.56020479235009, 45.70278285894031], [9.56126092831264, 45.7023430451482], [9.56225224989905, 45.70183453809409], [9.563169687313, 45.701261991181696], [9.57106552060655, 45.69583738636662], [9.589219543231737, 45.695995572751706], [9.590478004534305, 45.69596316629195], [9.591725883824727, 45.695844540412914], [9.592951179499451, 45.69564083604421], [9.594142107470333, 45.69535401235188], [9.595287214644854, 45.694986827868846], [9.596375489200804, 45.69454281392847], [9.597396466588648, 45.69402624065816], [9.59834033023706, 45.6934420758623], [9.599198005989312, 45.69279593719247], [9.599961249360106, 45.69209403806733], [9.600622724773062, 45.69134312786543], [9.601176076017795, 45.69055042696822], [9.601615987251648, 45.68972355728127], [9.601938233963562, 45.688870468903474], [9.602139723415455, 45.68799936365226], [9.602218524178864, 45.687118616181166], [9.602173884490364, 45.686236693450034], [9.602006239257449, 45.685362073322544], [9.601717205655985, 45.68450316307405], [9.596495881335855, 45.67180527312047], [9.596081415306966, 45.67095800085518], [9.595548895710785, 45.67014380252388], [9.59490360031687, 45.66937073999279], [9.594151922788075, 45.66864646750163], [9.593301309244895, 45.6679781559322], [9.5923601844504, 45.66737242187036], [9.591337868349646, 45.66683526216085], [9.590244483791112, 45.666371994599466], [9.589090856343114, 45.66598720534732], [9.587888407194718, 45.665684703584255], [9.58664904019728, 45.66546748384795], [9.58538502415936, 45.66533769642907], [9.546938985685598, 45.66274513147104], [9.545689938146467, 45.66270358635879], [9.544441050955601, 45.6627474396556], [9.543204169809304, 45.662876275437405], [9.541991026696031, 45.66308887171187], [9.540813128770647, 45.66338321199205], [9.53968164934599, 45.663756504395835], [9.53860732202911, 45.664205208091694], [9.537600339000452, 45.66472506684142], [9.536670254396157, 45.665311149323756], [9.535825893706475, 45.66595789585874], [9.529496137651318, 45.67130688365442], [9.52871480634195, 45.672039903700515], [9.52804365766764, 45.67282474925565], [9.527489631906679, 45.67365330987649], [9.527058459802067, 45.6745170230085], [9.526754603155373, 45.675406962420794], [9.526581208499147, 45.676313930413755], [9.5265400743353, 45.67722855284841], [9.52663163228794, 45.67814137601718], [9.526854942376069, 45.67904296435554], [9.527207702465937, 45.679923997984986], [9.527686271816256, 45.6807753690785], [9.528285708483226, 45.68158827605077], [9.543084372490108, 45.69937030848373]]]}}]", "buffer_3": "[{\"type\": \"Feature\", \"properties\": {}, \"geometry\": {\"type\": \"Polygon\", \"coordinates\": [[[9.520890980334865, 45.708438951832335], [9.522897789166972, 45.71060524163476], [9.525190981093889, 45.712627262949404], [9.527749589627703, 45.714486502706244], [9.530550211154676, 45.71616593650764], [9.533567218964512, 45.717650184976094], [9.536772997954602, 45.71892565504587], [9.540138197852167, 45.71998066488394], [9.543632002615716, 45.720805551276065], [9.547222413517966, 45.72139275847665], [9.55087654327714, 45.721736907692616], [9.554560918493983, 45.721834846552554], [9.558241787569397, 45.72168567809837], [9.561885431222933, 45.72129076902903], [9.565458472706657, 45.720653737119115], [9.568928184811911, 45.71978041793055], [9.572262790798618, 45.71867881112879], [9.575431756437377, 45.7173590069062], [9.57840607044295, 45.71583309319965], [9.581158510692978, 45.7141150445694], [9.581426985252854, 45.71393058220697], [9.588902992438571, 45.713995363396144], [9.592679583786976, 45.71389810720944], [9.596424386909742, 45.71354211182485], [9.600101352246943, 45.71293080455617], [9.603675086128348, 45.7120700703626], [9.607111192805922, 45.71096819495325], [9.610376606679448, 45.70963578469841], [9.613439911460866, 45.70808566413424], [9.616271643159209, 45.7063327520671], [9.61884457393603, 45.704393917491984], [9.621133974079159, 45.70228781673583], [9.62311784956782, 45.7000347134179], [9.624777152952065, 45.69765628298486], [9.626095965540758, 45.69517540372496], [9.627061649182417, 45.69261593629439], [9.627664966228007, 45.69000249389564], [9.627900166581508, 45.687360205334535], [9.627765041068937, 45.684714473246046], [9.627260940686094, 45.68209072982125], [9.626392761616422, 45.67951419238622], [9.621166344735775, 45.666817445778875], [9.619921983531096, 45.66427589542954], [9.618323631104426, 45.66183362732996], [9.616387152071258, 45.65951481415935], [9.61413175079055, 45.657342403844886], [9.611579780139222, 45.65533789295194], [9.608756519498177, 45.65352111450499], [9.60568992417342, 45.65191004231181], [9.602410348742353, 45.6505206137002], [9.598950247056774, 45.64936657239321], [9.595343851848908, 45.64845933305111], [9.591626837073331, 45.64780786879589], [9.587835966274906, 45.64741862280991], [9.549402090474707, 45.64482681866213], [9.545656143512705, 45.64470221728592], [9.54191067545664, 45.6448337300938], [9.53820117825199, 45.64522011109341], [9.53456280450661, 45.64585769908377], [9.53103003575122, 45.646740452195786], [9.52763635692304, 45.64786000490437], [9.524413940097563, 45.64920574698375], [9.521393340413557, 45.65076492367252], [9.51860320703063, 45.65252275611772], [9.516070011827697, 45.654462580977274], [9.509739650582807, 45.65981048742541], [9.507395294351875, 45.66200913182357], [9.505381251095848, 45.66436328722624], [9.503718366217951, 45.66684863802142], [9.502423865192487, 45.66943951019964], [9.50151117398085, 45.67210913609511], [9.500989778380966, 45.67482993055275], [9.500865123840876, 45.67757377568722], [9.501138556859859, 45.68031231130665], [9.50180730867801, 45.68301722800741], [9.502864521521422, 45.68566055991293], [9.504299317229743, 45.688214974025435], [9.506096907650027, 45.69065405318828], [9.520890980334865, 45.708438951832335]]]}}]", "buffer_5": "[{\"type\": \"Feature\", \"properties\": {}, \"geometry\": {\"type\": \"Polygon\", \"coordinates\": [[[9.49869038540999, 45.71750329937124], [9.502034274814978, 45.72111440990919], [9.505855827152871, 45.7244851131039], [9.510120114281179, 45.727584529429876], [9.514788132508675, 45.73038425989492], [9.519817159215426, 45.73285864753549], [9.525161144436739, 45.7349850138075], [9.530771133801604, 45.73674386764803], [9.536595718895308, 45.73811908523616], [9.542581510833505, 45.73909805875459], [9.54867363259427, 45.73967181274452], [9.554816225459332, 45.73983508695148], [9.560952964768148, 45.739586384876965], [9.567027580090864, 45.73892798757555], [9.572984374880008, 45.73786593256749], [9.578768740666456, 45.73640995806766], [9.584327660922774, 45.73457341306129], [9.589610199825627, 45.732373134079964], [9.590439998240308, 45.731947393602404], [9.594882629479226, 45.731832942449], [9.601125911856993, 45.73123942033194], [9.607255986065002, 45.73022025090579], [9.613213793517737, 45.728785254907464], [9.618941947095259, 45.726948258749665], [9.624385287196146, 45.724726960386946], [9.629491415610657, 45.722142757692], [9.634211201942618, 45.71922054105035], [9.638499257607851, 45.71598845223298], [9.642314372787746, 45.712477611936656], [9.645619912114574, 45.70872181868584], [9.648384165304211, 45.704757222064785], [9.650580649426763, 45.70062197349305], [9.652188360009479, 45.69635585796704], [9.653191968693523, 45.6919999103654], [9.653581965709543, 45.68759602005381], [9.65335474599083, 45.68318652762507], [9.652512638300655, 45.67881381767255], [9.651063877306099, 45.67451991151861], [9.645832372161324, 45.66182431020766], [9.64375683324817, 45.65758883761277], [9.641091591668197, 45.653518935990526], [9.637863140460512, 45.64965487158901], [9.634103525669618, 45.6460348662996], [9.629850026120577, 45.64269472094818], [9.625144782462007, 45.63966746271947], [9.620034379218366, 45.6369830201283], [9.61456938401296, 45.634667928675626], [9.608803848500976, 45.63274507002417], [9.602794775885888, 45.63123344719886], [9.596601560181114, 45.630147997968045], [9.590285402620749, 45.629499448191844], [9.551863678238988, 45.62690840383096], [9.545622424187926, 45.62670079138896], [9.539381964753234, 45.626919901018084], [9.533201378096742, 45.62756365902255], [9.527139179780237, 45.62862597133717], [9.521252772583711, 45.63009678079626], [9.515597906482816, 45.63196216167992], [9.510228153733332, 45.63420445067345], [9.505194403888554, 45.636802413042105], [9.50054438341359, 45.63973144249785], [9.496322204359277, 45.64296379292326], [9.489991240561395, 45.648310618260226], [9.486083378193321, 45.651974332742874], [9.482725646018372, 45.65589728947881], [9.479952827140318, 45.66003898864359], [9.477793685915405, 45.66435666299653], [9.476270666386055, 45.668805718175264], [9.475399655097938, 45.67334019221127], [9.475189810964189, 45.67791322957574], [9.475643464178262, 45.68247756489901], [9.47675608548397, 45.68698601138914], [9.47851632639414, 45.69139194890718], [9.480906130214725, 45.69564980664136], [9.483900912986815, 45.699715535358784], [9.49869038540999, 45.71750329937124]]]}}]", "centroid": "[{\"type\": \"Feature\", \"properties\": {}, \"geometry\": {\"type\": \"Point\", \"coordinates\": [9.564252753237751, 45.68189613012646]}}]", "Benzina": {"1": [{"Gestore": "ALESSIO CRISTIANO", "Bandiera": "Agip Eni", "Tipo impianto": "Altro", "Indirizzo": "Via Vittorio Veneto 483 24030", "Nome impianto": "Agip", "Comune": "PRESEZZO", "idImpianto": 13871, "points": [{"type": "Feature", "properties": {}, "geometry": {"type": "Point", "coordinates": [9.57359640244681, 45.692711103106575]}}], "price": 1.834, "ultima_rilevazione": "05/05/2022 10:30:17"}, {"Gestore": "ALL CAR SERVICE S.N.C. DEI F.LLI SANA", "Bandiera": "Esso", "Tipo impianto": "Altro", "Indirizzo": "VIA VITTORIO VENETO 1697 24030", "Nome impianto": "ALL CAR SERVICE SNC", "Comune": "PRESEZZO", "idImpianto": 11306, "points": [{"type": "Feature", "properties": {}, "geometry": {"type": "Point", "coordinates": [9.562004226389265, 45.69084381775606]}}], "price": 1.819, "ultima_rilevazione": "11/05/2022 08:11:41"}, {"Gestore": "DORELEI CARBURANTI DI GUALCO DAVIDE & C. S.A.S.", "Bandiera": "Esso", "Tipo impianto": "Strada Statale", "Indirizzo": "Statale 470 della Val Brembana, Km. 1,4, dir. DALMINE 24035", "Nome impianto": "DORELEI CARBURANTI SAS ", "Comune": "CURNO", "idImpianto": 14558, "points": [{"type": "Feature", "properties": {}, "geometry": {"type": "Point", "coordinates": [9.602007865905762, 45.68602346571805]}}], "price": 1.786, "ultima_rilevazione": "12/05/2022 05:24:47"}, {"Gestore": "AF PETROL S.R.L.", "Bandiera": "Pompe Bianche", "Tipo impianto": "Altro", "Indirizzo": "VIA MILANO  9 24040", "Nome impianto": "AF PETROL", "Comune": "BONATE SOPRA", "idImpianto": 46031, "points": [{"type": "Feature", "properties": {}, "geometry": {"type": "Point", "coordinates": [9.568731020832049, 45.68179171980827]}}], "price": 1.798, "ultima_rilevazione": "13/05/2022 00:08:11"}], "3": [{"Gestore": "BAR ONE DI SANGALLI ZEUDI E C. S.A.S.", "Bandiera": "Total Erg", "Tipo impianto": "Altro", "Indirizzo": "Via Lecco 18 24040", "Nome impianto": "Stazione di servizio ip", "Comune": "CURNO", "idImpianto": 47973, "points": [{"type": "Feature", "properties": {}, "geometry": {"type": "Point", "coordinates": [9.600723306134208, 45.69435968371205]}}], "price": 1.749, "ultima_rilevazione": "02/05/2022 19:34:20"}, {"Gestore": "DALCO DI DALMAGGIONI SIMONE BATTISTA & C. S.N.C.", "Bandiera": "Q8", "Tipo impianto": "Altro", "Indirizzo": "VIA BRUNO LOCATELLI 29 24030", "Nome impianto": "Q8  dalco snc", "Comune": "BREMBATE DI SOPRA", "idImpianto": 16731, "points": [{"type": "Feature", "properties": {}, "geometry": {"type": "Point", "coordinates": [9.582115032540855, 45.71200081939895]}}], "price": 1.829, "ultima_rilevazione": "04/05/2022 20:17:48"}, {"Gestore": "A.R. SERVICE S.A.S. DI MUHAMMAD AMIR & C.", "Bandiera": "Oil Italia", "Tipo impianto": "Altro", "Indirizzo": "VIA DONIZZETTI 5 24040", "Nome impianto": "OIL ITALIA", "Comune": "CHIGNOLO D'ISOLA", "idImpianto": 39057, "points": [{"type": "Feature", "properties": {}, "geometry": {"type": "Point", "coordinates": [9.530040757843608, 45.66393007640911]}}], "price": 1.898, "ultima_rilevazione": "07/05/2022 07:14:50"}, {"Gestore": "BELOTTI GIAMPIETRO & C. S.N.C.", "Bandiera": "Api-Ip", "Tipo impianto": "Altro", "Indirizzo": "VIA ROMA 81 24030", "Nome impianto": "BELOTTI GIAMPIETRO & C. S.N.C.", "Comune": "VALBREMBO", "idImpianto": 11305, "points": [{"type": "Feature", "properties": {}, "geometry": {"type": "Point", "coordinates": [9.606021720237775, 45.71050488939503]}}], "price": 1.819, "ultima_rilevazione": "09/05/2022 07:14:00"}, {"Gestore": "SERVIZI & GESTIONI ITALIA S.R.L.", "Bandiera": "Q8", "Tipo impianto": "Altro", "Indirizzo": "S.S. 342 BRIANTEA KM.4,885  24035", "Nome impianto": "CURNO S.S. 342 BRIANTEA KM.4,885 -Q8", "Comune": "CURNO", "idImpianto": 24759, "points": [{"type": "Feature", "properties": {}, "geometry": {"type": "Point", "coordinates": [9.616742851589947, 45.69245442050466]}}], "price": 1.749, "ultima_rilevazione": "09/05/2022 15:33:32"}, {"Gestore": "SERVIZI & GESTIONI ITALIA S.R.L.", "Bandiera": "Q8", "Tipo impianto": "Altro", "Indirizzo": "VIA MANZONI STATALE BRIANTEA S/N 24036", "Nome impianto": "PONTE SAN PIETRO-VIA MANZONI STATALE BRIANTEA", "Comune": "PONTE SAN PIETRO", "idImpianto": 11484, "points": [{"type": "Feature", "properties": {}, "geometry": {"type": "Point", "coordinates": [9.571070846557632, 45.705104895083466]}}], "price": 1.799, "ultima_rilevazione": "10/05/2022 07:10:58"}, {"Gestore": "IMMOBILIARE GESTINVEST S.R.L.", "Bandiera": "Q8", "Tipo impianto": "Altro", "Indirizzo": "VIA DONIZETTI 74 24030", "Nome impianto": "Q8 via donizetti 74 brembate sopra", "Comune": "BREMBATE DI SOPRA", "idImpianto": 15806, "points": [{"type": "Feature", "properties": {}, "geometry": {"type": "Point", "coordinates": [9.584220338623028, 45.711260258601385]}}], "price": 1.819, "ultima_rilevazione": "10/05/2022 18:16:32"}, {"Gestore": "PREDA SILVANO", "Bandiera": "Pompe Bianche", "Tipo impianto": "Altro", "Indirizzo": "VIA PAPA GIOVANNI XXIII 8 24040", "Nome impianto": "Preda Silvano", "Comune": "MADONE", "idImpianto": 48550, "points": [{"type": "Feature", "properties": {}, "geometry": {"type": "Point", "coordinates": [9.55323758395622, 45.65630343632625]}}], "price": 1.819, "ultima_rilevazione": "11/05/2022 08:58:25"}, {"Gestore": "COOP LOMBARDIA SOCIETA' COOPERATIVA", "Bandiera": "Enercoop", "Tipo impianto": "Altro", "Indirizzo": "VIA STRADA REGIA 4 24030", "Nome impianto": "ENERCOOP", "Comune": "MAPELLO", "idImpianto": 34929, "points": [{"type": "Feature", "properties": {}, "geometry": {"type": "Point", "coordinates": [9.56085942685604, 45.71408559561205]}}], "price": 1.769, "ultima_rilevazione": "11/05/2022 14:05:21"}, {"Gestore": "MANENTI IVAN & C. S.N.C.", "Bandiera": "Api-Ip", "Tipo impianto": "Altro", "Indirizzo": "Via Padre Cesare Albisetti 10 24030", "Nome impianto": "Area di servizio IP di Manenti Ivan & C. snc", "Comune": "TERNO D'ISOLA", "idImpianto": 26246, "points": [{"type": "Feature", "properties": {}, "geometry": {"type": "Point", "coordinates": [9.517856240272522, 45.6917396529043]}}], "price": 1.829, "ultima_rilevazione": "11/05/2022 15:46:42"}, {"Gestore": "MAZZOLA ROBERTO", "Bandiera": "Pompe Bianche", "Tipo impianto": "Altro", "Indirizzo": "VIA PAPA GIOVANNI XXIII 31 24040", "Nome impianto": "MAZZOLA", "Comune": "MADONE", "idImpianto": 33398, "points": [{"type": "Feature", "properties": {}, "geometry": {"type": "Point", "coordinates": [9.550803765606702, 45.65032548035179]}}], "price": 1.798, "ultima_rilevazione": "11/05/2022 23:49:16"}, {"Gestore": "CO.RINA. S.N.C. DI CORNA, RINALDI & C.", "Bandiera": "Q8", "Tipo impianto": "Altro", "Indirizzo": "VIA BRIANTEA, KM 4  24129", "Nome impianto": "co.rina ", "Comune": "BERGAMO", "idImpianto": 8053, "points": [{"type": "Feature", "properties": {}, "geometry": {"type": "Point", "coordinates": [9.626941680908203, 45.69124802532839]}}], "price": 1.799, "ultima_rilevazione": "12/05/2022 07:02:15"}, {"Gestore": "SERVIZI & GESTIONI ITALIA S.R.L.", "Bandiera": "Q8", "Tipo impianto": "Altro", "Indirizzo": "SS.BRIANTEA 342 VIA BERGAMO 21 24035", "Nome impianto": "CURNO-SS.BRIANTEA 342 VIA BERGAMO 21", "Comune": "CURNO", "idImpianto": 11492, "points": [{"type": "Feature", "properties": {}, "geometry": {"type": "Point", "coordinates": [9.62216897916801, 45.69200117253395]}}], "price": 1.799, "ultima_rilevazione": "12/05/2022 07:37:34"}, {"Gestore": "LIGURIA GAS S.R.L.", "Bandiera": "Pompe Bianche", "Tipo impianto": "Altro", "Indirizzo": "VIA GUGLIELMO MARCONI SN 24040", "Nome impianto": "LIGURIA GAS", "Comune": "SUISIO", "idImpianto": 25733, "points": [{"type": "Feature", "properties": {}, "geometry": {"type": "Point", "coordinates": [9.51567828655243, 45.658138658636645]}}], "price": 1.818, "ultima_rilevazione": "12/05/2022 09:07:14"}, {"Gestore": "MA.PI. S.N.C. DEI F.LLI CORNAGO", "Bandiera": "Agip Eni", "Tipo impianto": "Strada Statale", "Indirizzo": "Statale 671 della Val Seriana, Km. 0,982, dir. bergamo 24035", "Nome impianto": "eni", "Comune": "CURNO", "idImpianto": 4981, "points": [{"type": "Feature", "properties": {}, "geometry": {"type": "Point", "coordinates": [9.613474309444427, 45.67956670215767]}}], "price": 1.839, "ultima_rilevazione": "12/05/2022 09:13:58"}, {"Gestore": "T.D.M. S.R.L.", "Bandiera": "Tamoil", "Tipo impianto": "Altro", "Indirizzo": "VIA CARLINGA CENTRO COMMERCIALE  24035", "Nome impianto": "3676", "Comune": "CURNO", "idImpianto": 47370, "points": [{"type": "Feature", "properties": {}, "geometry": {"type": "Point", "coordinates": [9.607331713372956, 45.68289598467205]}}], "price": 1.769, "ultima_rilevazione": "12/05/2022 11:30:32"}, {"Gestore": "IPERSTAROIL S.R.L.", "Bandiera": "Auchan", "Tipo impianto": "Altro", "Indirizzo": "VIA FERMI ANGOLO VIA CURNASCO SNC 24035", "Nome impianto": "Curno", "Comune": "CURNO", "idImpianto": 50282, "points": [{"type": "Feature", "properties": {}, "geometry": {"type": "Point", "coordinates": [9.617299983614926, 45.68332426509254]}}], "price": 1.769, "ultima_rilevazione": "12/05/2022 11:46:08"}, {"Gestore": "IP SERVICES S.R.L.", "Bandiera": "Api-Ip", "Tipo impianto": "Altro", "Indirizzo": "Via delle Valli 10 24048", "Nome impianto": "TREVIOLO", "Comune": "TREVIOLO", "idImpianto": 5519, "points": [{"type": "Feature", "properties": {}, "geometry": {"type": "Point", "coordinates": [9.601222000000009, 45.671643006037066]}}], "price": 1.769, "ultima_rilevazione": "12/05/2022 12:05:03"}, {"Gestore": "ILHAMI HAMZA", "Bandiera": "Esso", "Tipo impianto": "Altro", "Indirizzo": "Via dalmine 23 24035", "Nome impianto": "Esso di Ilhami Hamza", "Comune": "CURNO", "idImpianto": 44677, "points": [{"type": "Feature", "properties": {}, "geometry": {"type": "Point", "coordinates": [9.602728246486322, 45.685638241888576]}}], "price": 1.829, "ultima_rilevazione": "12/05/2022 18:05:44"}, {"Gestore": "AF PETROL S.R.L.", "Bandiera": "Pompe Bianche", "Tipo impianto": "Altro", "Indirizzo": "VIA BERGAMO  40 24035", "Nome impianto": "AF PETROL SRL", "Comune": "CURNO", "idImpianto": 47362, "points": [{"type": "Feature", "properties": {}, "geometry": {"type": "Point", "coordinates": [9.618496000123, 45.692214000123]}}], "price": 1.749, "ultima_rilevazione": "13/05/2022 00:08:09"}, {"Gestore": "TIRONI VITTORIO DI TIRONI ERNESTO & C.SNC", "Bandiera": "Agip Eni", "Tipo impianto": "Altro", "Indirizzo": "via provinciale dalmine alme 3 24030", "Nome impianto": "ENI", "Comune": "MOZZO", "idImpianto": 28870, "points": [{"type": "Feature", "properties": {}, "geometry": {"type": "Point", "coordinates": [9.604947566986084, 45.70374271843002]}}], "price": 1.839, "ultima_rilevazione": "13/05/2022 05:30:01"}, {"Gestore": "C.T. S.N.C. DI TIRONI ERNESTO &  FUMAGALLI GIACOMO", "Bandiera": "Q8", "Tipo impianto": "Strada Statale", "Indirizzo": "470 della Val Brembana, Km. 5,8, Villa d'alme' 24035", "Nome impianto": "Q8 mozzo", "Comune": "MOZZO", "idImpianto": 15255, "points": [{"type": "Feature", "properties": {}, "geometry": {"type": "Point", "coordinates": [9.605923891067505, 45.70470372147232]}}], "price": 1.839, "ultima_rilevazione": "13/05/2022 06:07:13"}, {"Gestore": "EGI-2GO S.R.L.", "Bandiera": "Esso", "Tipo impianto": "Strada Statale", "Indirizzo": "671 della Val Seriana, Km. 0+750, LECCO 24035", "Nome impianto": "EGI-2GO CURNO", "Comune": "CURNO", "idImpianto": 50728, "points": [{"type": "Feature", "properties": {}, "geometry": {"type": "Point", "coordinates": [9.611357382954363, 45.67949785174545]}}], "price": 1.809, "ultima_rilevazione": "13/05/2022 07:14:49"}], "5": [{"Gestore": "F.LLI BELOTTI DI OVIDIO E GIOVANNI S.N.C.", "Bandiera": "OIL ONE", "Tipo impianto": "Altro", "Indirizzo": "VIA GRUMELLO 45/A 24127", "Nome impianto": "IP F.LLI BELOTTI", "Comune": "BERGAMO", "idImpianto": 14436, "points": [{"type": "Feature", "properties": {}, "geometry": {"type": "Point", "coordinates": [9.64323341846466, 45.673581038934536]}}], "price": 2.159, "ultima_rilevazione": "12/05/2022 08:00:47"}, {"Gestore": "DIEFFE SRL", "Bandiera": "Pompe Bianche", "Tipo impianto": "Altro", "Indirizzo": "VIA Giosu\u00e8 Carducci 450 24127", "Nome impianto": "BergamOil", "Comune": "BERGAMO", "idImpianto": 43500, "points": [{"type": "Feature", "properties": {}, "geometry": {"type": "Point", "coordinates": [9.647449271163964, 45.68944386284728]}}], "price": 2.069, "ultima_rilevazione": "12/05/2022 18:07:02"}, {"Gestore": "GAS S.N.C. DI GREGORIO ALESSIO & SILVANO PREDA", "Bandiera": "Q8", "Tipo impianto": "Altro", "Indirizzo": "VIA CESARE BATTISTI 81 24030", "Nome impianto": "Q8", "Comune": "BREMBATE DI SOPRA", "idImpianto": 31728, "points": [{"type": "Feature", "properties": {}, "geometry": {"type": "Point", "coordinates": [9.583364410381364, 45.72765278972703]}}], "price": 1.799, "ultima_rilevazione": "25/03/2022 18:20:22"}, {"Gestore": "PIROVA SAS DI ROTA VALENTINO & C.", "Bandiera": "Agip Eni", "Tipo impianto": "Altro", "Indirizzo": "via provinciale  51 24044", "Nome impianto": "Pirova sas di Rota Valentino & C.", "Comune": "DALMINE", "idImpianto": 46205, "points": [{"type": "Feature", "properties": {}, "geometry": {"type": "Point", "coordinates": [9.6187824010849, 45.6491558861246]}}], "price": 1.839, "ultima_rilevazione": "05/05/2022 05:13:34"}, {"Gestore": "COSMA FABRIZIO", "Bandiera": "Agip Eni", "Tipo impianto": "Altro", "Indirizzo": "VIA ARRIGO BOITO 12 24040", "Nome impianto": "Cosma Fabrizio - Stezzano", "Comune": "STEZZANO", "idImpianto": 12534, "points": [{"type": "Feature", "properties": {}, "geometry": {"type": "Point", "coordinates": [9.63703751564026, 45.671871760248166]}}], "price": 1.834, "ultima_rilevazione": "05/05/2022 07:40:54"}, {"Gestore": "VATALARO CATERINA", "Bandiera": "Esso", "Tipo impianto": "Strada Statale", "Indirizzo": "Statale 342 Briantea, Km. 5, dir. Bergamo 24030", "Nome impianto": "VATALARO CATERINA", "Comune": "AMBIVERE", "idImpianto": 26670, "points": [{"type": "Feature", "properties": {}, "geometry": {"type": "Point", "coordinates": [9.52908144018386, 45.729309185250735]}}], "price": 1.779, "ultima_rilevazione": "05/05/2022 08:17:55"}, {"Gestore": "AMBROGIO MORO S.P.A.", "Bandiera": "Api-Ip", "Tipo impianto": "Altro", "Indirizzo": "S.S. Briantea - Fraz. La Volpe 40 24030", "Nome impianto": "Moro_Palazzago", "Comune": "PALAZZAGO", "idImpianto": 41493, "points": [{"type": "Feature", "properties": {}, "geometry": {"type": "Point", "coordinates": [9.52909472139163, 45.729357219220326]}}], "price": 1.789, "ultima_rilevazione": "06/05/2022 11:01:03"}, {"Gestore": "IPERSTAROIL S.R.L.", "Bandiera": "Auchan", "Tipo impianto": "Altro", "Indirizzo": "VIA GIOSUE CARDUCCI 4 24127", "Nome impianto": "Bergamo", "Comune": "BERGAMO", "idImpianto": 50283, "points": [{"type": "Feature", "properties": {}, "geometry": {"type": "Point", "coordinates": [9.650376858887563, 45.68715129690769]}}], "price": 1.759, "ultima_rilevazione": "09/05/2022 09:16:04"}, {"Gestore": "CAFFE' SCUDELETTI S.R.L.", "Bandiera": "Q8", "Tipo impianto": "Altro", "Indirizzo": "VIA PROVINCIALE 4 24040", "Nome impianto": "0956", "Comune": "LALLIO", "idImpianto": 49364, "points": [{"type": "Feature", "properties": {}, "geometry": {"type": "Point", "coordinates": [9.633973697424487, 45.66537756829584]}}], "price": 1.839, "ultima_rilevazione": "10/05/2022 10:56:45"}, {"Gestore": "RAVASIO ORESTE", "Bandiera": "Agip Eni", "Tipo impianto": "Altro", "Indirizzo": "VIA PAPA GIOVANNI XXIII 13 24040", "Nome impianto": "ENI RAVASIO ORESTE", "Comune": "OSIO SOPRA", "idImpianto": 46736, "points": [{"type": "Feature", "properties": {}, "geometry": {"type": "Point", "coordinates": [9.588019597553284, 45.63083460728634]}}], "price": 1.829, "ultima_rilevazione": "11/05/2022 08:04:13"}, {"Gestore": "MORA RENATO GAETANO", "Bandiera": "Agip Eni", "Tipo impianto": "Altro", "Indirizzo": "via provinciale 39 24044", "Nome impianto": "mora renato gaetano", "Comune": "DALMINE", "idImpianto": 12959, "points": [{"type": "Feature", "properties": {}, "geometry": {"type": "Point", "coordinates": [9.616631269454956, 45.64649670011112]}}], "price": 1.849, "ultima_rilevazione": "11/05/2022 08:49:30"}, {"Gestore": "NUOVA SIDAP  S.R.L.", "Bandiera": "Esso", "Tipo impianto": "Autostradale", "Indirizzo": "Autostrada A4 MILANO-BRESCIA, Km. 349, dir. Nord 24040", "Nome impianto": "BREMBO NORD", "Comune": "OSIO SOPRA", "idImpianto": 4645, "points": [{"type": "Feature", "properties": {}, "geometry": {"type": "Point", "coordinates": [9.598032832145693, 45.63229936377726]}}], "price": 1.842, "ultima_rilevazione": "11/05/2022 17:30:10"}, {"Gestore": "LA SIESTA DI LAZZARONI OSCAR & C. S.N.C.", "Bandiera": "Tamoil", "Tipo impianto": "Altro", "Indirizzo": "strada provinciale 153 24030", "Nome impianto": "TAMOIL", "Comune": "VALBREMBO", "idImpianto": 40536, "points": [{"type": "Feature", "properties": {}, "geometry": {"type": "Point", "coordinates": [9.610003530979156, 45.72304072139144]}}], "price": 1.799, "ultima_rilevazione": "12/05/2022 08:14:07"}, {"Gestore": "BRIXIA FINANZIARIA S.R.L.", "Bandiera": "Retitalia", "Tipo impianto": "Altro", "Indirizzo": "Via Don Pedrinelli 47 24030", "Nome impianto": "BRIXIA FINANZIARIA SRL - Carvico", "Comune": "CARVICO", "idImpianto": 30989, "points": [{"type": "Feature", "properties": {}, "geometry": {"type": "Point", "coordinates": [9.497610926628113, 45.698837793952364]}}], "price": 1.819, "ultima_rilevazione": "12/05/2022 09:01:46"}, {"Gestore": "GARGANTINI MASSIMO", "Bandiera": "Agip Eni", "Tipo impianto": "Altro", "Indirizzo": "VIA CARDUCCI 236 24127", "Nome impianto": "STAZIONE DI SERVIZIO GARGANTINI MASSIMO", "Comune": "BERGAMO", "idImpianto": 47921, "points": [{"type": "Feature", "properties": {}, "geometry": {"type": "Point", "coordinates": [9.651470482349396, 45.68944822678624]}}], "price": 1.794, "ultima_rilevazione": "12/05/2022 09:06:06"}, {"Gestore": "INVERNIZZI ROBERTO E C. S.N.C.", "Bandiera": "Agip Eni", "Tipo impianto": "Altro", "Indirizzo": "V.le A. Locatelli 22 24044", "Nome impianto": "eni", "Comune": "DALMINE", "idImpianto": 16536, "points": [{"type": "Feature", "properties": {}, "geometry": {"type": "Point", "coordinates": [9.605836269944804, 45.64660578650458]}}], "price": 1.859, "ultima_rilevazione": "12/05/2022 09:46:39"}, {"Gestore": "IP SERVICES S.R.L.", "Bandiera": "Api-Ip", "Tipo impianto": "Altro", "Indirizzo": "via Roma 33 24030", "Nome impianto": "Medolago", "Comune": "MEDOLAGO", "idImpianto": 36320, "points": [{"type": "Feature", "properties": {}, "geometry": {"type": "Point", "coordinates": [9.498976841568949, 45.66921552704797]}}], "price": 1.759, "ultima_rilevazione": "12/05/2022 12:04:48"}, {"Gestore": "IP SERVICES S.R.L.", "Bandiera": "Api-Ip", "Tipo impianto": "Altro", "Indirizzo": "Via BROSETA 75 24128", "Nome impianto": "BROSETA", "Comune": "BERGAMO", "idImpianto": 29630, "points": [{"type": "Feature", "properties": {}, "geometry": {"type": "Point", "coordinates": [9.65200443435856, 45.69376833520888]}}], "price": 1.779, "ultima_rilevazione": "12/05/2022 12:05:34"}, {"Gestore": "R.C. S.N.C. DI ROSSETTI STEFANO E COFFETTI LUCA", "Bandiera": "Esso", "Tipo impianto": "Altro", "Indirizzo": "Via industria  6 24040", "Nome impianto": "Esso Bottanuco ", "Comune": "BOTTANUCO", "idImpianto": 50176, "points": [{"type": "Feature", "properties": {}, "geometry": {"type": "Point", "coordinates": [9.509343504476874, 45.64542076938716]}}], "price": 1.889, "ultima_rilevazione": "12/05/2022 14:04:52"}, {"Gestore": "SG69.SOCIETA' A RESPONSABILITA' LIMITATA SEMPLIFICATA", "Bandiera": "Esso", "Tipo impianto": "Altro", "Indirizzo": "VIA GRUMELLO 40 24100", "Nome impianto": "Esso", "Comune": "BERGAMO", "idImpianto": 47125, "points": [{"type": "Feature", "properties": {}, "geometry": {"type": "Point", "coordinates": [9.640194017048753, 45.67048560607016]}}], "price": 1.799, "ultima_rilevazione": "12/05/2022 14:21:18"}, {"Gestore": "NUOVA SIDAP  S.R.L.", "Bandiera": "Q8", "Tipo impianto": "Autostradale", "Indirizzo": "Autostrada A4 MILANO-BRESCIA, Km. 166, dir. EST 24040", "Nome impianto": "BREMBO SUD", "Comune": "OSIO SOPRA", "idImpianto": 25613, "points": [{"type": "Feature", "properties": {}, "geometry": {"type": "Point", "coordinates": [9.600096659217913, 45.63188736814508]}}], "price": 1.866, "ultima_rilevazione": "12/05/2022 14:30:19"}, {"Gestore": "SERVIZI & GESTIONI ITALIA srl", "Bandiera": "Q8", "Tipo impianto": "Altro", "Indirizzo": "S.P.MILANESE.V.MORONI DISTR.Q8 SNC 24100", "Nome impianto": "BERGAMO S.P.MILANESE.V.MORONI DISTR.Q8", "Comune": "BERGAMO", "idImpianto": 6424, "points": [{"type": "Feature", "properties": {}, "geometry": {"type": "Point", "coordinates": [9.65119043086338, 45.6792499525339]}}], "price": 1.779, "ultima_rilevazione": "12/05/2022 17:10:21"}, {"Gestore": "COMMERCIALE PAGANONI S.P.A.", "Bandiera": "Pompe Bianche", "Tipo impianto": "Altro", "Indirizzo": "VIA PROVINCIALE 38 24044", "Nome impianto": "DALMINE", "Comune": "DALMINE", "idImpianto": 41994, "points": [{"type": "Feature", "properties": {}, "geometry": {"type": "Point", "coordinates": [9.614684414791554, 45.64347589021752]}}], "price": 1.799, "ultima_rilevazione": "13/05/2022 00:10:21"}, {"Gestore": "DITTA MORZENTI ANTONIO S.R.L.", "Bandiera": "Pompe Bianche", "Tipo impianto": "Strada Statale", "Indirizzo": "Statale 342 Briantea, Km. 11,633, dir. bergamo 24030", "Nome impianto": "Ambivere SS 342", "Comune": "AMBIVERE", "idImpianto": 22453, "points": [{"type": "Feature", "properties": {}, "geometry": {"type": "Point", "coordinates": [9.552420215938582, 45.72415561745917]}}], "price": 1.769, "ultima_rilevazione": "13/05/2022 00:20:05"}, {"Gestore": "SERVIZI & GESTIONI ITALIA S.R.L.", "Bandiera": "Q8", "Tipo impianto": "Altro", "Indirizzo": "VIALE EUROPA S/N 24048", "Nome impianto": "TREVIOLO-VIALE EUROPA", "Comune": "TREVIOLO", "idImpianto": 11493, "points": [{"type": "Feature", "properties": {}, "geometry": {"type": "Point", "coordinates": [9.631402682209, 45.67589183113847]}}], "price": 1.839, "ultima_rilevazione": "13/05/2022 07:08:58"}, {"Gestore": "LA SIESTA DI LAZZARONI OSCAR & C. S.N.C.", "Bandiera": "Tamoil", "Tipo impianto": "Altro", "Indirizzo": "strada provinciale 153 24030", "Nome impianto": "TAMOIL", "Comune": "VALBREMBO", "idImpianto": 40536, "points": [{"type": "Feature", "properties": {}, "geometry": {"type": "Point", "coordinates": [9.610003530979156, 45.72304072139144]}}], "price": 1.949, "ultima_rilevazione": "12/05/2022 08:14:07"}]}, "Gasolio": {"1": [{"Gestore": "ALESSIO CRISTIANO", "Bandiera": "Agip Eni", "Tipo impianto": "Altro", "Indirizzo": "Via Vittorio Veneto 483 24030", "Nome impianto": "Agip", "Comune": "PRESEZZO", "idImpianto": 13871, "points": [{"type": "Feature", "properties": {}, "geometry": {"type": "Point", "coordinates": [9.57359640244681, 45.692711103106575]}}], "price": 1.884, "ultima_rilevazione": "05/05/2022 10:30:17"}, {"Gestore": "ALL CAR SERVICE S.N.C. DEI F.LLI SANA", "Bandiera": "Esso", "Tipo impianto": "Altro", "Indirizzo": "VIA VITTORIO VENETO 1697 24030", "Nome impianto": "ALL CAR SERVICE SNC", "Comune": "PRESEZZO", "idImpianto": 11306, "points": [{"type": "Feature", "properties": {}, "geometry": {"type": "Point", "coordinates": [9.562004226389265, 45.69084381775606]}}], "price": 1.859, "ultima_rilevazione": "11/05/2022 08:11:41"}, {"Gestore": "DORELEI CARBURANTI DI GUALCO DAVIDE & C. S.A.S.", "Bandiera": "Esso", "Tipo impianto": "Strada Statale", "Indirizzo": "Statale 470 della Val Brembana, Km. 1,4, dir. DALMINE 24035", "Nome impianto": "DORELEI CARBURANTI SAS ", "Comune": "CURNO", "idImpianto": 14558, "points": [{"type": "Feature", "properties": {}, "geometry": {"type": "Point", "coordinates": [9.602007865905762, 45.68602346571805]}}], "price": 1.806, "ultima_rilevazione": "12/05/2022 05:24:47"}, {"Gestore": "AF PETROL S.R.L.", "Bandiera": "Pompe Bianche", "Tipo impianto": "Altro", "Indirizzo": "VIA MILANO  9 24040", "Nome impianto": "AF PETROL", "Comune": "BONATE SOPRA", "idImpianto": 46031, "points": [{"type": "Feature", "properties": {}, "geometry": {"type": "Point", "coordinates": [9.568731020832049, 45.68179171980827]}}], "price": 1.778, "ultima_rilevazione": "13/05/2022 00:08:11"}], "3": [{"Gestore": "BAR ONE DI SANGALLI ZEUDI E C. S.A.S.", "Bandiera": "Total Erg", "Tipo impianto": "Altro", "Indirizzo": "Via Lecco 18 24040", "Nome impianto": "Stazione di servizio ip", "Comune": "CURNO", "idImpianto": 47973, "points": [{"type": "Feature", "properties": {}, "geometry": {"type": "Point", "coordinates": [9.600723306134208, 45.69435968371205]}}], "price": 1.789, "ultima_rilevazione": "02/05/2022 19:34:20"}, {"Gestore": "DALCO DI DALMAGGIONI SIMONE BATTISTA & C. S.N.C.", "Bandiera": "Q8", "Tipo impianto": "Altro", "Indirizzo": "VIA BRUNO LOCATELLI 29 24030", "Nome impianto": "Q8  dalco snc", "Comune": "BREMBATE DI SOPRA", "idImpianto": 16731, "points": [{"type": "Feature", "properties": {}, "geometry": {"type": "Point", "coordinates": [9.582115032540855, 45.71200081939895]}}], "price": 1.829, "ultima_rilevazione": "04/05/2022 20:17:48"}, {"Gestore": "A.R. SERVICE S.A.S. DI MUHAMMAD AMIR & C.", "Bandiera": "Oil Italia", "Tipo impianto": "Altro", "Indirizzo": "VIA DONIZZETTI 5 24040", "Nome impianto": "OIL ITALIA", "Comune": "CHIGNOLO D'ISOLA", "idImpianto": 39057, "points": [{"type": "Feature", "properties": {}, "geometry": {"type": "Point", "coordinates": [9.530040757843608, 45.66393007640911]}}], "price": 1.899, "ultima_rilevazione": "07/05/2022 07:14:50"}, {"Gestore": "BELOTTI GIAMPIETRO & C. S.N.C.", "Bandiera": "Api-Ip", "Tipo impianto": "Altro", "Indirizzo": "VIA ROMA 81 24030", "Nome impianto": "BELOTTI GIAMPIETRO & C. S.N.C.", "Comune": "VALBREMBO", "idImpianto": 11305, "points": [{"type": "Feature", "properties": {}, "geometry": {"type": "Point", "coordinates": [9.606021720237775, 45.71050488939503]}}], "price": 1.829, "ultima_rilevazione": "09/05/2022 07:14:00"}, {"Gestore": "SERVIZI & GESTIONI ITALIA S.R.L.", "Bandiera": "Q8", "Tipo impianto": "Altro", "Indirizzo": "S.S. 342 BRIANTEA KM.4,885  24035", "Nome impianto": "CURNO S.S. 342 BRIANTEA KM.4,885 -Q8", "Comune": "CURNO", "idImpianto": 24759, "points": [{"type": "Feature", "properties": {}, "geometry": {"type": "Point", "coordinates": [9.616742851589947, 45.69245442050466]}}], "price": 1.799, "ultima_rilevazione": "09/05/2022 15:33:32"}, {"Gestore": "SERVIZI & GESTIONI ITALIA S.R.L.", "Bandiera": "Q8", "Tipo impianto": "Altro", "Indirizzo": "VIA MANZONI STATALE BRIANTEA S/N 24036", "Nome impianto": "PONTE SAN PIETRO-VIA MANZONI STATALE BRIANTEA", "Comune": "PONTE SAN PIETRO", "idImpianto": 11484, "points": [{"type": "Feature", "properties": {}, "geometry": {"type": "Point", "coordinates": [9.571070846557632, 45.705104895083466]}}], "price": 1.839, "ultima_rilevazione": "10/05/2022 07:10:58"}, {"Gestore": "IMMOBILIARE GESTINVEST S.R.L.", "Bandiera": "Q8", "Tipo impianto": "Altro", "Indirizzo": "VIA DONIZETTI 74 24030", "Nome impianto": "Q8 via donizetti 74 brembate sopra", "Comune": "BREMBATE DI SOPRA", "idImpianto": 15806, "points": [{"type": "Feature", "properties": {}, "geometry": {"type": "Point", "coordinates": [9.584220338623028, 45.711260258601385]}}], "price": 1.839, "ultima_rilevazione": "10/05/2022 18:16:32"}, {"Gestore": "PREDA SILVANO", "Bandiera": "Pompe Bianche", "Tipo impianto": "Altro", "Indirizzo": "VIA PAPA GIOVANNI XXIII 8 24040", "Nome impianto": "Preda Silvano", "Comune": "MADONE", "idImpianto": 48550, "points": [{"type": "Feature", "properties": {}, "geometry": {"type": "Point", "coordinates": [9.55323758395622, 45.65630343632625]}}], "price": 1.797, "ultima_rilevazione": "11/05/2022 08:58:25"}, {"Gestore": "COOP LOMBARDIA SOCIETA' COOPERATIVA", "Bandiera": "Enercoop", "Tipo impianto": "Altro", "Indirizzo": "VIA STRADA REGIA 4 24030", "Nome impianto": "ENERCOOP", "Comune": "MAPELLO", "idImpianto": 34929, "points": [{"type": "Feature", "properties": {}, "geometry": {"type": "Point", "coordinates": [9.56085942685604, 45.71408559561205]}}], "price": 1.789, "ultima_rilevazione": "11/05/2022 14:05:21"}, {"Gestore": "MANENTI IVAN & C. S.N.C.", "Bandiera": "Api-Ip", "Tipo impianto": "Altro", "Indirizzo": "Via Padre Cesare Albisetti 10 24030", "Nome impianto": "Area di servizio IP di Manenti Ivan & C. snc", "Comune": "TERNO D'ISOLA", "idImpianto": 26246, "points": [{"type": "Feature", "properties": {}, "geometry": {"type": "Point", "coordinates": [9.517856240272522, 45.6917396529043]}}], "price": 1.849, "ultima_rilevazione": "11/05/2022 15:46:42"}, {"Gestore": "MAZZOLA ROBERTO", "Bandiera": "Pompe Bianche", "Tipo impianto": "Altro", "Indirizzo": "VIA PAPA GIOVANNI XXIII 31 24040", "Nome impianto": "MAZZOLA", "Comune": "MADONE", "idImpianto": 33398, "points": [{"type": "Feature", "properties": {}, "geometry": {"type": "Point", "coordinates": [9.550803765606702, 45.65032548035179]}}], "price": 1.778, "ultima_rilevazione": "11/05/2022 23:49:16"}, {"Gestore": "CO.RINA. S.N.C. DI CORNA, RINALDI & C.", "Bandiera": "Q8", "Tipo impianto": "Altro", "Indirizzo": "VIA BRIANTEA, KM 4  24129", "Nome impianto": "co.rina ", "Comune": "BERGAMO", "idImpianto": 8053, "points": [{"type": "Feature", "properties": {}, "geometry": {"type": "Point", "coordinates": [9.626941680908203, 45.69124802532839]}}], "price": 1.819, "ultima_rilevazione": "12/05/2022 07:02:15"}, {"Gestore": "SERVIZI & GESTIONI ITALIA S.R.L.", "Bandiera": "Q8", "Tipo impianto": "Altro", "Indirizzo": "SS.BRIANTEA 342 VIA BERGAMO 21 24035", "Nome impianto": "CURNO-SS.BRIANTEA 342 VIA BERGAMO 21", "Comune": "CURNO", "idImpianto": 11492, "points": [{"type": "Feature", "properties": {}, "geometry": {"type": "Point", "coordinates": [9.62216897916801, 45.69200117253395]}}], "price": 1.829, "ultima_rilevazione": "12/05/2022 07:37:34"}, {"Gestore": "LIGURIA GAS S.R.L.", "Bandiera": "Pompe Bianche", "Tipo impianto": "Altro", "Indirizzo": "VIA GUGLIELMO MARCONI SN 24040", "Nome impianto": "LIGURIA GAS", "Comune": "SUISIO", "idImpianto": 25733, "points": [{"type": "Feature", "properties": {}, "geometry": {"type": "Point", "coordinates": [9.51567828655243, 45.658138658636645]}}], "price": 1.796, "ultima_rilevazione": "12/05/2022 09:07:14"}, {"Gestore": "MA.PI. S.N.C. DEI F.LLI CORNAGO", "Bandiera": "Agip Eni", "Tipo impianto": "Strada Statale", "Indirizzo": "Statale 671 della Val Seriana, Km. 0,982, dir. bergamo 24035", "Nome impianto": "eni", "Comune": "CURNO", "idImpianto": 4981, "points": [{"type": "Feature", "properties": {}, "geometry": {"type": "Point", "coordinates": [9.613474309444427, 45.67956670215767]}}], "price": 1.849, "ultima_rilevazione": "12/05/2022 09:13:58"}, {"Gestore": "T.D.M. S.R.L.", "Bandiera": "Tamoil", "Tipo impianto": "Altro", "Indirizzo": "VIA CARLINGA CENTRO COMMERCIALE  24035", "Nome impianto": "3676", "Comune": "CURNO", "idImpianto": 47370, "points": [{"type": "Feature", "properties": {}, "geometry": {"type": "Point", "coordinates": [9.607331713372956, 45.68289598467205]}}], "price": 1.789, "ultima_rilevazione": "12/05/2022 11:30:32"}, {"Gestore": "IPERSTAROIL S.R.L.", "Bandiera": "Auchan", "Tipo impianto": "Altro", "Indirizzo": "VIA FERMI ANGOLO VIA CURNASCO SNC 24035", "Nome impianto": "Curno", "Comune": "CURNO", "idImpianto": 50282, "points": [{"type": "Feature", "properties": {}, "geometry": {"type": "Point", "coordinates": [9.617299983614926, 45.68332426509254]}}], "price": 1.789, "ultima_rilevazione": "12/05/2022 11:46:08"}, {"Gestore": "IP SERVICES S.R.L.", "Bandiera": "Api-Ip", "Tipo impianto": "Altro", "Indirizzo": "Via delle Valli 10 24048", "Nome impianto": "TREVIOLO", "Comune": "TREVIOLO", "idImpianto": 5519, "points": [{"type": "Feature", "properties": {}, "geometry": {"type": "Point", "coordinates": [9.601222000000009, 45.671643006037066]}}], "price": 1.799, "ultima_rilevazione": "12/05/2022 12:05:03"}, {"Gestore": "ILHAMI HAMZA", "Bandiera": "Esso", "Tipo impianto": "Altro", "Indirizzo": "Via dalmine 23 24035", "Nome impianto": "Esso di Ilhami Hamza", "Comune": "CURNO", "idImpianto": 44677, "points": [{"type": "Feature", "properties": {}, "geometry": {"type": "Point", "coordinates": [9.602728246486322, 45.685638241888576]}}], "price": 1.869, "ultima_rilevazione": "12/05/2022 18:05:44"}, {"Gestore": "AF PETROL S.R.L.", "Bandiera": "Pompe Bianche", "Tipo impianto": "Altro", "Indirizzo": "VIA BERGAMO  40 24035", "Nome impianto": "AF PETROL SRL", "Comune": "CURNO", "idImpianto": 47362, "points": [{"type": "Feature", "properties": {}, "geometry": {"type": "Point", "coordinates": [9.618496000123, 45.692214000123]}}], "price": 1.799, "ultima_rilevazione": "13/05/2022 00:08:09"}, {"Gestore": "TIRONI VITTORIO DI TIRONI ERNESTO & C.SNC", "Bandiera": "Agip Eni", "Tipo impianto": "Altro", "Indirizzo": "via provinciale dalmine alme 3 24030", "Nome impianto": "ENI", "Comune": "MOZZO", "idImpianto": 28870, "points": [{"type": "Feature", "properties": {}, "geometry": {"type": "Point", "coordinates": [9.604947566986084, 45.70374271843002]}}], "price": 1.829, "ultima_rilevazione": "13/05/2022 05:30:01"}, {"Gestore": "C.T. S.N.C. DI TIRONI ERNESTO &  FUMAGALLI GIACOMO", "Bandiera": "Q8", "Tipo impianto": "Strada Statale", "Indirizzo": "470 della Val Brembana, Km. 5,8, Villa d'alme' 24035", "Nome impianto": "Q8 mozzo", "Comune": "MOZZO", "idImpianto": 15255, "points": [{"type": "Feature", "properties": {}, "geometry": {"type": "Point", "coordinates": [9.605923891067505, 45.70470372147232]}}], "price": 1.839, "ultima_rilevazione": "13/05/2022 06:07:13"}, {"Gestore": "EGI-2GO S.R.L.", "Bandiera": "Esso", "Tipo impianto": "Strada Statale", "Indirizzo": "671 della Val Seriana, Km. 0+750, LECCO 24035", "Nome impianto": "EGI-2GO CURNO", "Comune": "CURNO", "idImpianto": 50728, "points": [{"type": "Feature", "properties": {}, "geometry": {"type": "Point", "coordinates": [9.611357382954363, 45.67949785174545]}}], "price": 1.819, "ultima_rilevazione": "13/05/2022 07:14:49"}], "5": [{"Gestore": "DIEFFE SRL", "Bandiera": "Pompe Bianche", "Tipo impianto": "Altro", "Indirizzo": "VIA Giosu\u00e8 Carducci 450 24127", "Nome impianto": "BergamOil", "Comune": "BERGAMO", "idImpianto": 43500, "points": [{"type": "Feature", "properties": {}, "geometry": {"type": "Point", "coordinates": [9.647449271163964, 45.68944386284728]}}], "price": 2.029, "ultima_rilevazione": "12/05/2022 18:07:02"}, {"Gestore": "GAS S.N.C. DI GREGORIO ALESSIO & SILVANO PREDA", "Bandiera": "Q8", "Tipo impianto": "Altro", "Indirizzo": "VIA CESARE BATTISTI 81 24030", "Nome impianto": "Q8", "Comune": "BREMBATE DI SOPRA", "idImpianto": 31728, "points": [{"type": "Feature", "properties": {}, "geometry": {"type": "Point", "coordinates": [9.583364410381364, 45.72765278972703]}}], "price": 1.789, "ultima_rilevazione": "25/03/2022 18:20:22"}, {"Gestore": "PIROVA SAS DI ROTA VALENTINO & C.", "Bandiera": "Agip Eni", "Tipo impianto": "Altro", "Indirizzo": "via provinciale  51 24044", "Nome impianto": "Pirova sas di Rota Valentino & C.", "Comune": "DALMINE", "idImpianto": 46205, "points": [{"type": "Feature", "properties": {}, "geometry": {"type": "Point", "coordinates": [9.6187824010849, 45.6491558861246]}}], "price": 1.849, "ultima_rilevazione": "05/05/2022 05:13:34"}, {"Gestore": "COSMA FABRIZIO", "Bandiera": "Agip Eni", "Tipo impianto": "Altro", "Indirizzo": "VIA ARRIGO BOITO 12 24040", "Nome impianto": "Cosma Fabrizio - Stezzano", "Comune": "STEZZANO", "idImpianto": 12534, "points": [{"type": "Feature", "properties": {}, "geometry": {"type": "Point", "coordinates": [9.63703751564026, 45.671871760248166]}}], "price": 1.844, "ultima_rilevazione": "05/05/2022 07:40:54"}, {"Gestore": "VATALARO CATERINA", "Bandiera": "Esso", "Tipo impianto": "Strada Statale", "Indirizzo": "Statale 342 Briantea, Km. 5, dir. Bergamo 24030", "Nome impianto": "VATALARO CATERINA", "Comune": "AMBIVERE", "idImpianto": 26670, "points": [{"type": "Feature", "properties": {}, "geometry": {"type": "Point", "coordinates": [9.52908144018386, 45.729309185250735]}}], "price": 1.849, "ultima_rilevazione": "05/05/2022 08:17:55"}, {"Gestore": "AMBROGIO MORO S.P.A.", "Bandiera": "Api-Ip", "Tipo impianto": "Altro", "Indirizzo": "S.S. Briantea - Fraz. La Volpe 40 24030", "Nome impianto": "Moro_Palazzago", "Comune": "PALAZZAGO", "idImpianto": 41493, "points": [{"type": "Feature", "properties": {}, "geometry": {"type": "Point", "coordinates": [9.52909472139163, 45.729357219220326]}}], "price": 1.819, "ultima_rilevazione": "06/05/2022 11:01:03"}, {"Gestore": "IPERSTAROIL S.R.L.", "Bandiera": "Auchan", "Tipo impianto": "Altro", "Indirizzo": "VIA GIOSUE CARDUCCI 4 24127", "Nome impianto": "Bergamo", "Comune": "BERGAMO", "idImpianto": 50283, "points": [{"type": "Feature", "properties": {}, "geometry": {"type": "Point", "coordinates": [9.650376858887563, 45.68715129690769]}}], "price": 1.799, "ultima_rilevazione": "09/05/2022 09:16:04"}, {"Gestore": "CAFFE' SCUDELETTI S.R.L.", "Bandiera": "Q8", "Tipo impianto": "Altro", "Indirizzo": "VIA PROVINCIALE 4 24040", "Nome impianto": "0956", "Comune": "LALLIO", "idImpianto": 49364, "points": [{"type": "Feature", "properties": {}, "geometry": {"type": "Point", "coordinates": [9.633973697424487, 45.66537756829584]}}], "price": 1.839, "ultima_rilevazione": "10/05/2022 10:56:45"}, {"Gestore": "RAVASIO ORESTE", "Bandiera": "Agip Eni", "Tipo impianto": "Altro", "Indirizzo": "VIA PAPA GIOVANNI XXIII 13 24040", "Nome impianto": "ENI RAVASIO ORESTE", "Comune": "OSIO SOPRA", "idImpianto": 46736, "points": [{"type": "Feature", "properties": {}, "geometry": {"type": "Point", "coordinates": [9.588019597553284, 45.63083460728634]}}], "price": 1.839, "ultima_rilevazione": "11/05/2022 08:04:13"}, {"Gestore": "MORA RENATO GAETANO", "Bandiera": "Agip Eni", "Tipo impianto": "Altro", "Indirizzo": "via provinciale 39 24044", "Nome impianto": "mora renato gaetano", "Comune": "DALMINE", "idImpianto": 12959, "points": [{"type": "Feature", "properties": {}, "geometry": {"type": "Point", "coordinates": [9.616631269454956, 45.64649670011112]}}], "price": 1.839, "ultima_rilevazione": "11/05/2022 08:49:30"}, {"Gestore": "NUOVA SIDAP  S.R.L.", "Bandiera": "Esso", "Tipo impianto": "Autostradale", "Indirizzo": "Autostrada A4 MILANO-BRESCIA, Km. 349, dir. Nord 24040", "Nome impianto": "BREMBO NORD", "Comune": "OSIO SOPRA", "idImpianto": 4645, "points": [{"type": "Feature", "properties": {}, "geometry": {"type": "Point", "coordinates": [9.598032832145693, 45.63229936377726]}}], "price": 1.882, "ultima_rilevazione": "11/05/2022 17:30:10"}, {"Gestore": "F.LLI BELOTTI DI OVIDIO E GIOVANNI S.N.C.", "Bandiera": "OIL ONE", "Tipo impianto": "Altro", "Indirizzo": "VIA GRUMELLO 45/A 24127", "Nome impianto": "IP F.LLI BELOTTI", "Comune": "BERGAMO", "idImpianto": 14436, "points": [{"type": "Feature", "properties": {}, "geometry": {"type": "Point", "coordinates": [9.64323341846466, 45.673581038934536]}}], "price": 1.799, "ultima_rilevazione": "12/05/2022 08:00:47"}, {"Gestore": "LA SIESTA DI LAZZARONI OSCAR & C. S.N.C.", "Bandiera": "Tamoil", "Tipo impianto": "Altro", "Indirizzo": "strada provinciale 153 24030", "Nome impianto": "TAMOIL", "Comune": "VALBREMBO", "idImpianto": 40536, "points": [{"type": "Feature", "properties": {}, "geometry": {"type": "Point", "coordinates": [9.610003530979156, 45.72304072139144]}}], "price": 1.809, "ultima_rilevazione": "12/05/2022 08:14:07"}, {"Gestore": "BRIXIA FINANZIARIA S.R.L.", "Bandiera": "Retitalia", "Tipo impianto": "Altro", "Indirizzo": "Via Don Pedrinelli 47 24030", "Nome impianto": "BRIXIA FINANZIARIA SRL - Carvico", "Comune": "CARVICO", "idImpianto": 30989, "points": [{"type": "Feature", "properties": {}, "geometry": {"type": "Point", "coordinates": [9.497610926628113, 45.698837793952364]}}], "price": 1.839, "ultima_rilevazione": "12/05/2022 09:01:46"}, {"Gestore": "GARGANTINI MASSIMO", "Bandiera": "Agip Eni", "Tipo impianto": "Altro", "Indirizzo": "VIA CARDUCCI 236 24127", "Nome impianto": "STAZIONE DI SERVIZIO GARGANTINI MASSIMO", "Comune": "BERGAMO", "idImpianto": 47921, "points": [{"type": "Feature", "properties": {}, "geometry": {"type": "Point", "coordinates": [9.651470482349396, 45.68944822678624]}}], "price": 1.844, "ultima_rilevazione": "12/05/2022 09:06:06"}, {"Gestore": "INVERNIZZI ROBERTO E C. S.N.C.", "Bandiera": "Agip Eni", "Tipo impianto": "Altro", "Indirizzo": "V.le A. Locatelli 22 24044", "Nome impianto": "eni", "Comune": "DALMINE", "idImpianto": 16536, "points": [{"type": "Feature", "properties": {}, "geometry": {"type": "Point", "coordinates": [9.605836269944804, 45.64660578650458]}}], "price": 1.849, "ultima_rilevazione": "12/05/2022 09:46:39"}, {"Gestore": "IP SERVICES S.R.L.", "Bandiera": "Api-Ip", "Tipo impianto": "Altro", "Indirizzo": "via Roma 33 24030", "Nome impianto": "Medolago", "Comune": "MEDOLAGO", "idImpianto": 36320, "points": [{"type": "Feature", "properties": {}, "geometry": {"type": "Point", "coordinates": [9.498976841568949, 45.66921552704797]}}], "price": 1.839, "ultima_rilevazione": "12/05/2022 12:04:48"}, {"Gestore": "IP SERVICES S.R.L.", "Bandiera": "Api-Ip", "Tipo impianto": "Altro", "Indirizzo": "Via BROSETA 75 24128", "Nome impianto": "BROSETA", "Comune": "BERGAMO", "idImpianto": 29630, "points": [{"type": "Feature", "properties": {}, "geometry": {"type": "Point", "coordinates": [9.65200443435856, 45.69376833520888]}}], "price": 1.799, "ultima_rilevazione": "12/05/2022 12:05:34"}, {"Gestore": "NUOVA SIDAP  S.R.L.", "Bandiera": "Q8", "Tipo impianto": "Autostradale", "Indirizzo": "Autostrada A4 MILANO-BRESCIA, Km. 166, dir. EST 24040", "Nome impianto": "BREMBO SUD", "Comune": "OSIO SOPRA", "idImpianto": 25613, "points": [{"type": "Feature", "properties": {}, "geometry": {"type": "Point", "coordinates": [9.600096659217913, 45.63188736814508]}}], "price": 1.9, "ultima_rilevazione": "12/05/2022 14:30:19"}, {"Gestore": "R.C. S.N.C. DI ROSSETTI STEFANO E COFFETTI LUCA", "Bandiera": "Esso", "Tipo impianto": "Altro", "Indirizzo": "Via industria  6 24040", "Nome impianto": "Esso Bottanuco ", "Comune": "BOTTANUCO", "idImpianto": 50176, "points": [{"type": "Feature", "properties": {}, "geometry": {"type": "Point", "coordinates": [9.509343504476874, 45.64542076938716]}}], "price": 1.837, "ultima_rilevazione": "12/05/2022 14:04:52"}, {"Gestore": "SG69.SOCIETA' A RESPONSABILITA' LIMITATA SEMPLIFICATA", "Bandiera": "Esso", "Tipo impianto": "Altro", "Indirizzo": "VIA GRUMELLO 40 24100", "Nome impianto": "Esso", "Comune": "BERGAMO", "idImpianto": 47125, "points": [{"type": "Feature", "properties": {}, "geometry": {"type": "Point", "coordinates": [9.640194017048753, 45.67048560607016]}}], "price": 1.799, "ultima_rilevazione": "12/05/2022 14:21:18"}, {"Gestore": "SERVIZI & GESTIONI ITALIA srl", "Bandiera": "Q8", "Tipo impianto": "Altro", "Indirizzo": "S.P.MILANESE.V.MORONI DISTR.Q8 SNC 24100", "Nome impianto": "BERGAMO S.P.MILANESE.V.MORONI DISTR.Q8", "Comune": "BERGAMO", "idImpianto": 6424, "points": [{"type": "Feature", "properties": {}, "geometry": {"type": "Point", "coordinates": [9.65119043086338, 45.6792499525339]}}], "price": 1.799, "ultima_rilevazione": "12/05/2022 17:10:21"}, {"Gestore": "COMMERCIALE PAGANONI S.P.A.", "Bandiera": "Pompe Bianche", "Tipo impianto": "Altro", "Indirizzo": "VIA PROVINCIALE 38 24044", "Nome impianto": "DALMINE", "Comune": "DALMINE", "idImpianto": 41994, "points": [{"type": "Feature", "properties": {}, "geometry": {"type": "Point", "coordinates": [9.614684414791554, 45.64347589021752]}}], "price": 1.819, "ultima_rilevazione": "13/05/2022 00:10:21"}, {"Gestore": "DITTA MORZENTI ANTONIO S.R.L.", "Bandiera": "Pompe Bianche", "Tipo impianto": "Strada Statale", "Indirizzo": "Statale 342 Briantea, Km. 11,633, dir. bergamo 24030", "Nome impianto": "Ambivere SS 342", "Comune": "AMBIVERE", "idImpianto": 22453, "points": [{"type": "Feature", "properties": {}, "geometry": {"type": "Point", "coordinates": [9.552420215938582, 45.72415561745917]}}], "price": 1.789, "ultima_rilevazione": "13/05/2022 00:20:05"}, {"Gestore": "SERVIZI & GESTIONI ITALIA S.R.L.", "Bandiera": "Q8", "Tipo impianto": "Altro", "Indirizzo": "VIALE EUROPA S/N 24048", "Nome impianto": "TREVIOLO-VIALE EUROPA", "Comune": "TREVIOLO", "idImpianto": 11493, "points": [{"type": "Feature", "properties": {}, "geometry": {"type": "Point", "coordinates": [9.631402682209, 45.67589183113847]}}], "price": 1.829, "ultima_rilevazione": "13/05/2022 07:08:58"}]}, "Metano": {"1": [], "3": [{"Gestore": "COOP LOMBARDIA SOCIETA' COOPERATIVA", "Bandiera": "Enercoop", "Tipo impianto": "Altro", "Indirizzo": "VIA STRADA REGIA 4 24030", "Nome impianto": "ENERCOOP", "Comune": "MAPELLO", "idImpianto": 34929, "points": [{"type": "Feature", "properties": {}, "geometry": {"type": "Point", "coordinates": [9.56085942685604, 45.71408559561205]}}], "price": 1.399, "ultima_rilevazione": "11/05/2022 14:05:21"}, {"Gestore": "LIGURIA GAS S.R.L.", "Bandiera": "Pompe Bianche", "Tipo impianto": "Altro", "Indirizzo": "VIA GUGLIELMO MARCONI SN 24040", "Nome impianto": "LIGURIA GAS", "Comune": "SUISIO", "idImpianto": 25733, "points": [{"type": "Feature", "properties": {}, "geometry": {"type": "Point", "coordinates": [9.51567828655243, 45.658138658636645]}}], "price": 1.532, "ultima_rilevazione": "12/05/2022 09:07:14"}, {"Gestore": "MA.PI. S.N.C. DEI F.LLI CORNAGO", "Bandiera": "Agip Eni", "Tipo impianto": "Strada Statale", "Indirizzo": "Statale 671 della Val Seriana, Km. 0,982, dir. bergamo 24035", "Nome impianto": "eni", "Comune": "CURNO", "idImpianto": 4981, "points": [{"type": "Feature", "properties": {}, "geometry": {"type": "Point", "coordinates": [9.613474309444427, 45.67956670215767]}}], "price": 2.181, "ultima_rilevazione": "12/05/2022 09:13:58"}, {"Gestore": "IPERSTAROIL S.R.L.", "Bandiera": "Auchan", "Tipo impianto": "Altro", "Indirizzo": "VIA FERMI ANGOLO VIA CURNASCO SNC 24035", "Nome impianto": "Curno", "Comune": "CURNO", "idImpianto": 50282, "points": [{"type": "Feature", "properties": {}, "geometry": {"type": "Point", "coordinates": [9.617299983614926, 45.68332426509254]}}], "price": 1.399, "ultima_rilevazione": "12/05/2022 11:46:08"}], "5": [{"Gestore": "MORA RENATO GAETANO", "Bandiera": "Agip Eni", "Tipo impianto": "Altro", "Indirizzo": "via provinciale 39 24044", "Nome impianto": "mora renato gaetano", "Comune": "DALMINE", "idImpianto": 12959, "points": [{"type": "Feature", "properties": {}, "geometry": {"type": "Point", "coordinates": [9.616631269454956, 45.64649670011112]}}], "price": 2.149, "ultima_rilevazione": "11/05/2022 08:49:30"}]}, "GPL": {"1": [{"Gestore": "DORELEI CARBURANTI DI GUALCO DAVIDE & C. S.A.S.", "Bandiera": "Esso", "Tipo impianto": "Strada Statale", "Indirizzo": "Statale 470 della Val Brembana, Km. 1,4, dir. DALMINE 24035", "Nome impianto": "DORELEI CARBURANTI SAS ", "Comune": "CURNO", "idImpianto": 14558, "points": [{"type": "Feature", "properties": {}, "geometry": {"type": "Point", "coordinates": [9.602007865905762, 45.68602346571805]}}], "price": 0.899, "ultima_rilevazione": "12/05/2022 05:24:47"}], "3": [{"Gestore": "PREDA SILVANO", "Bandiera": "Pompe Bianche", "Tipo impianto": "Altro", "Indirizzo": "VIA PAPA GIOVANNI XXIII 8 24040", "Nome impianto": "Preda Silvano", "Comune": "MADONE", "idImpianto": 48550, "points": [{"type": "Feature", "properties": {}, "geometry": {"type": "Point", "coordinates": [9.55323758395622, 45.65630343632625]}}], "price": 0.828, "ultima_rilevazione": "11/05/2022 08:58:25"}, {"Gestore": "COOP LOMBARDIA SOCIETA' COOPERATIVA", "Bandiera": "Enercoop", "Tipo impianto": "Altro", "Indirizzo": "VIA STRADA REGIA 4 24030", "Nome impianto": "ENERCOOP", "Comune": "MAPELLO", "idImpianto": 34929, "points": [{"type": "Feature", "properties": {}, "geometry": {"type": "Point", "coordinates": [9.56085942685604, 45.71408559561205]}}], "price": 0.889, "ultima_rilevazione": "11/05/2022 14:05:21"}, {"Gestore": "C.T. S.N.C. DI TIRONI ERNESTO &  FUMAGALLI GIACOMO", "Bandiera": "Q8", "Tipo impianto": "Strada Statale", "Indirizzo": "470 della Val Brembana, Km. 5,8, Villa d'alme' 24035", "Nome impianto": "Q8 mozzo", "Comune": "MOZZO", "idImpianto": 15255, "points": [{"type": "Feature", "properties": {}, "geometry": {"type": "Point", "coordinates": [9.605923891067505, 45.70470372147232]}}], "price": 0.889, "ultima_rilevazione": "13/05/2022 06:07:13"}], "5": [{"Gestore": "MORA RENATO GAETANO", "Bandiera": "Agip Eni", "Tipo impianto": "Altro", "Indirizzo": "via provinciale 39 24044", "Nome impianto": "mora renato gaetano", "Comune": "DALMINE", "idImpianto": 12959, "points": [{"type": "Feature", "properties": {}, "geometry": {"type": "Point", "coordinates": [9.616631269454956, 45.64649670011112]}}], "price": 0.859, "ultima_rilevazione": "11/05/2022 08:49:30"}, {"Gestore": "NUOVA SIDAP  S.R.L.", "Bandiera": "Esso", "Tipo impianto": "Autostradale", "Indirizzo": "Autostrada A4 MILANO-BRESCIA, Km. 349, dir. Nord 24040", "Nome impianto": "BREMBO NORD", "Comune": "OSIO SOPRA", "idImpianto": 4645, "points": [{"type": "Feature", "properties": {}, "geometry": {"type": "Point", "coordinates": [9.598032832145693, 45.63229936377726]}}], "price": 0.872, "ultima_rilevazione": "11/05/2022 17:30:10"}, {"Gestore": "MAFFI MARCO", "Bandiera": "Esso", "Tipo impianto": "Altro", "Indirizzo": "VIA GRUMELLO 30 24127", "Nome impianto": "ESSO", "Comune": "BERGAMO", "idImpianto": 7444, "points": [{"type": "Feature", "properties": {}, "geometry": {"type": "Point", "coordinates": [9.64455149517596, 45.67422225122757]}}], "price": 0.829, "ultima_rilevazione": "12/05/2022 09:16:57"}, {"Gestore": "NUOVA SIDAP  S.R.L.", "Bandiera": "Q8", "Tipo impianto": "Autostradale", "Indirizzo": "Autostrada A4 MILANO-BRESCIA, Km. 166, dir. EST 24040", "Nome impianto": "BREMBO SUD", "Comune": "OSIO SOPRA", "idImpianto": 25613, "points": [{"type": "Feature", "properties": {}, "geometry": {"type": "Point", "coordinates": [9.600096659217913, 45.63188736814508]}}], "price": 0.879, "ultima_rilevazione": "12/05/2022 14:30:19"}, {"Gestore": "SG69.SOCIETA' A RESPONSABILITA' LIMITATA SEMPLIFICATA", "Bandiera": "Esso", "Tipo impianto": "Altro", "Indirizzo": "VIA GRUMELLO 40 24100", "Nome impianto": "Esso", "Comune": "BERGAMO", "idImpianto": 47125, "points": [{"type": "Feature", "properties": {}, "geometry": {"type": "Point", "coordinates": [9.640194017048753, 45.67048560607016]}}], "price": 0.829, "ultima_rilevazione": "12/05/2022 14:21:18"}]}, "Blue Diesel": {"1": [{"Gestore": "ALESSIO CRISTIANO", "Bandiera": "Agip Eni", "Tipo impianto": "Altro", "Indirizzo": "Via Vittorio Veneto 483 24030", "Nome impianto": "Agip", "Comune": "PRESEZZO", "idImpianto": 13871, "points": [{"type": "Feature", "properties": {}, "geometry": {"type": "Point", "coordinates": [9.57359640244681, 45.692711103106575]}}], "price": 1.617, "ultima_rilevazione": "05/05/2022 10:30:17"}, {"Gestore": "ALESSIO CRISTIANO", "Bandiera": "Agip Eni", "Tipo impianto": "Altro", "Indirizzo": "Via Vittorio Veneto 483 24030", "Nome impianto": "Agip", "Comune": "PRESEZZO", "idImpianto": 13871, "points": [{"type": "Feature", "properties": {}, "geometry": {"type": "Point", "coordinates": [9.57359640244681, 45.692711103106575]}}], "price": 1.984, "ultima_rilevazione": "05/05/2022 10:30:17"}], "3": [{"Gestore": "TIRONI VITTORIO DI TIRONI ERNESTO & C.SNC", "Bandiera": "Agip Eni", "Tipo impianto": "Altro", "Indirizzo": "via provinciale dalmine alme 3 24030", "Nome impianto": "ENI", "Comune": "MOZZO", "idImpianto": 28870, "points": [{"type": "Feature", "properties": {}, "geometry": {"type": "Point", "coordinates": [9.604947566986084, 45.70374271843002]}}], "price": 1.989, "ultima_rilevazione": "13/05/2022 05:30:01"}, {"Gestore": "MA.PI. S.N.C. DEI F.LLI CORNAGO", "Bandiera": "Agip Eni", "Tipo impianto": "Strada Statale", "Indirizzo": "Statale 671 della Val Seriana, Km. 0,982, dir. bergamo 24035", "Nome impianto": "eni", "Comune": "CURNO", "idImpianto": 4981, "points": [{"type": "Feature", "properties": {}, "geometry": {"type": "Point", "coordinates": [9.613474309444427, 45.67956670215767]}}], "price": 1.949, "ultima_rilevazione": "12/05/2022 09:13:58"}, {"Gestore": "TIRONI VITTORIO DI TIRONI ERNESTO & C.SNC", "Bandiera": "Agip Eni", "Tipo impianto": "Altro", "Indirizzo": "via provinciale dalmine alme 3 24030", "Nome impianto": "ENI", "Comune": "MOZZO", "idImpianto": 28870, "points": [{"type": "Feature", "properties": {}, "geometry": {"type": "Point", "coordinates": [9.604947566986084, 45.70374271843002]}}], "price": 1.939, "ultima_rilevazione": "13/05/2022 05:30:01"}], "5": [{"Gestore": "PIROVA SAS DI ROTA VALENTINO & C.", "Bandiera": "Agip Eni", "Tipo impianto": "Altro", "Indirizzo": "via provinciale  51 24044", "Nome impianto": "Pirova sas di Rota Valentino & C.", "Comune": "DALMINE", "idImpianto": 46205, "points": [{"type": "Feature", "properties": {}, "geometry": {"type": "Point", "coordinates": [9.6187824010849, 45.6491558861246]}}], "price": 1.989, "ultima_rilevazione": "05/05/2022 05:13:34"}, {"Gestore": "RAVASIO ORESTE", "Bandiera": "Agip Eni", "Tipo impianto": "Altro", "Indirizzo": "VIA PAPA GIOVANNI XXIII 13 24040", "Nome impianto": "ENI RAVASIO ORESTE", "Comune": "OSIO SOPRA", "idImpianto": 46736, "points": [{"type": "Feature", "properties": {}, "geometry": {"type": "Point", "coordinates": [9.588019597553284, 45.63083460728634]}}], "price": 1.979, "ultima_rilevazione": "11/05/2022 08:04:13"}, {"Gestore": "MORA RENATO GAETANO", "Bandiera": "Agip Eni", "Tipo impianto": "Altro", "Indirizzo": "via provinciale 39 24044", "Nome impianto": "mora renato gaetano", "Comune": "DALMINE", "idImpianto": 12959, "points": [{"type": "Feature", "properties": {}, "geometry": {"type": "Point", "coordinates": [9.616631269454956, 45.64649670011112]}}], "price": 1.759, "ultima_rilevazione": "11/05/2022 08:49:30"}, {"Gestore": "PIROVA SAS DI ROTA VALENTINO & C.", "Bandiera": "Agip Eni", "Tipo impianto": "Altro", "Indirizzo": "via provinciale  51 24044", "Nome impianto": "Pirova sas di Rota Valentino & C.", "Comune": "DALMINE", "idImpianto": 46205, "points": [{"type": "Feature", "properties": {}, "geometry": {"type": "Point", "coordinates": [9.6187824010849, 45.6491558861246]}}], "price": 1.949, "ultima_rilevazione": "05/05/2022 05:13:34"}, {"Gestore": "COSMA FABRIZIO", "Bandiera": "Agip Eni", "Tipo impianto": "Altro", "Indirizzo": "VIA ARRIGO BOITO 12 24040", "Nome impianto": "Cosma Fabrizio - Stezzano", "Comune": "STEZZANO", "idImpianto": 12534, "points": [{"type": "Feature", "properties": {}, "geometry": {"type": "Point", "coordinates": [9.63703751564026, 45.671871760248166]}}], "price": 1.944, "ultima_rilevazione": "05/05/2022 07:40:54"}, {"Gestore": "RAVASIO ORESTE", "Bandiera": "Agip Eni", "Tipo impianto": "Altro", "Indirizzo": "VIA PAPA GIOVANNI XXIII 13 24040", "Nome impianto": "ENI RAVASIO ORESTE", "Comune": "OSIO SOPRA", "idImpianto": 46736, "points": [{"type": "Feature", "properties": {}, "geometry": {"type": "Point", "coordinates": [9.588019597553284, 45.63083460728634]}}], "price": 1.939, "ultima_rilevazione": "11/05/2022 08:04:13"}, {"Gestore": "MORA RENATO GAETANO", "Bandiera": "Agip Eni", "Tipo impianto": "Altro", "Indirizzo": "via provinciale 39 24044", "Nome impianto": "mora renato gaetano", "Comune": "DALMINE", "idImpianto": 12959, "points": [{"type": "Feature", "properties": {}, "geometry": {"type": "Point", "coordinates": [9.616631269454956, 45.64649670011112]}}], "price": 1.939, "ultima_rilevazione": "11/05/2022 08:49:30"}, {"Gestore": "GARGANTINI MASSIMO", "Bandiera": "Agip Eni", "Tipo impianto": "Altro", "Indirizzo": "VIA CARDUCCI 236 24127", "Nome impianto": "STAZIONE DI SERVIZIO GARGANTINI MASSIMO", "Comune": "BERGAMO", "idImpianto": 47921, "points": [{"type": "Feature", "properties": {}, "geometry": {"type": "Point", "coordinates": [9.651470482349396, 45.68944822678624]}}], "price": 1.944, "ultima_rilevazione": "12/05/2022 09:06:06"}, {"Gestore": "INVERNIZZI ROBERTO E C. S.N.C.", "Bandiera": "Agip Eni", "Tipo impianto": "Altro", "Indirizzo": "V.le A. Locatelli 22 24044", "Nome impianto": "eni", "Comune": "DALMINE", "idImpianto": 16536, "points": [{"type": "Feature", "properties": {}, "geometry": {"type": "Point", "coordinates": [9.605836269944804, 45.64660578650458]}}], "price": 1.949, "ultima_rilevazione": "12/05/2022 09:46:39"}]}, "Diesel High Quality": {"1": [{"Gestore": "DORELEI CARBURANTI DI GUALCO DAVIDE & C. S.A.S.", "Bandiera": "Esso", "Tipo impianto": "Strada Statale", "Indirizzo": "Statale 470 della Val Brembana, Km. 1,4, dir. DALMINE 24035", "Nome impianto": "DORELEI CARBURANTI SAS ", "Comune": "CURNO", "idImpianto": 14558, "points": [{"type": "Feature", "properties": {}, "geometry": {"type": "Point", "coordinates": [9.602007865905762, 45.68602346571805]}}], "price": 1.956, "ultima_rilevazione": "12/05/2022 05:24:47"}], "3": [{"Gestore": "SERVIZI & GESTIONI ITALIA S.R.L.", "Bandiera": "Q8", "Tipo impianto": "Altro", "Indirizzo": "VIA MANZONI STATALE BRIANTEA S/N 24036", "Nome impianto": "PONTE SAN PIETRO-VIA MANZONI STATALE BRIANTEA", "Comune": "PONTE SAN PIETRO", "idImpianto": 11484, "points": [{"type": "Feature", "properties": {}, "geometry": {"type": "Point", "coordinates": [9.571070846557632, 45.705104895083466]}}], "price": 2.139, "ultima_rilevazione": "10/05/2022 07:10:58"}, {"Gestore": "CO.RINA. S.N.C. DI CORNA, RINALDI & C.", "Bandiera": "Q8", "Tipo impianto": "Altro", "Indirizzo": "VIA BRIANTEA, KM 4  24129", "Nome impianto": "co.rina ", "Comune": "BERGAMO", "idImpianto": 8053, "points": [{"type": "Feature", "properties": {}, "geometry": {"type": "Point", "coordinates": [9.626941680908203, 45.69124802532839]}}], "price": 2.099, "ultima_rilevazione": "12/05/2022 07:02:15"}, {"Gestore": "SERVIZI & GESTIONI ITALIA S.R.L.", "Bandiera": "Q8", "Tipo impianto": "Altro", "Indirizzo": "SS.BRIANTEA 342 VIA BERGAMO 21 24035", "Nome impianto": "CURNO-SS.BRIANTEA 342 VIA BERGAMO 21", "Comune": "CURNO", "idImpianto": 11492, "points": [{"type": "Feature", "properties": {}, "geometry": {"type": "Point", "coordinates": [9.62216897916801, 45.69200117253395]}}], "price": 2.129, "ultima_rilevazione": "12/05/2022 07:37:34"}, {"Gestore": "SERVIZI & GESTIONI ITALIA S.R.L.", "Bandiera": "Q8", "Tipo impianto": "Altro", "Indirizzo": "VIA MANZONI STATALE BRIANTEA S/N 24036", "Nome impianto": "PONTE SAN PIETRO-VIA MANZONI STATALE BRIANTEA", "Comune": "PONTE SAN PIETRO", "idImpianto": 11484, "points": [{"type": "Feature", "properties": {}, "geometry": {"type": "Point", "coordinates": [9.571070846557632, 45.705104895083466]}}], "price": 2.099, "ultima_rilevazione": "10/05/2022 07:10:58"}, {"Gestore": "SERVIZI & GESTIONI ITALIA S.R.L.", "Bandiera": "Q8", "Tipo impianto": "Altro", "Indirizzo": "SS.BRIANTEA 342 VIA BERGAMO 21 24035", "Nome impianto": "CURNO-SS.BRIANTEA 342 VIA BERGAMO 21", "Comune": "CURNO", "idImpianto": 11492, "points": [{"type": "Feature", "properties": {}, "geometry": {"type": "Point", "coordinates": [9.62216897916801, 45.69200117253395]}}], "price": 2.099, "ultima_rilevazione": "12/05/2022 07:37:34"}, {"Gestore": "ILHAMI HAMZA", "Bandiera": "Esso", "Tipo impianto": "Altro", "Indirizzo": "Via dalmine 23 24035", "Nome impianto": "Esso di Ilhami Hamza", "Comune": "CURNO", "idImpianto": 44677, "points": [{"type": "Feature", "properties": {}, "geometry": {"type": "Point", "coordinates": [9.602728246486322, 45.685638241888576]}}], "price": 2.019, "ultima_rilevazione": "12/05/2022 18:05:44"}, {"Gestore": "EGI-2GO S.R.L.", "Bandiera": "Esso", "Tipo impianto": "Strada Statale", "Indirizzo": "671 della Val Seriana, Km. 0+750, LECCO 24035", "Nome impianto": "EGI-2GO CURNO", "Comune": "CURNO", "idImpianto": 50728, "points": [{"type": "Feature", "properties": {}, "geometry": {"type": "Point", "coordinates": [9.611357382954363, 45.67949785174545]}}], "price": 1.969, "ultima_rilevazione": "13/05/2022 07:14:49"}], "5": [{"Gestore": "GAS S.N.C. DI GREGORIO ALESSIO & SILVANO PREDA", "Bandiera": "Q8", "Tipo impianto": "Altro", "Indirizzo": "VIA CESARE BATTISTI 81 24030", "Nome impianto": "Q8", "Comune": "BREMBATE DI SOPRA", "idImpianto": 31728, "points": [{"type": "Feature", "properties": {}, "geometry": {"type": "Point", "coordinates": [9.583364410381364, 45.72765278972703]}}], "price": 2.364, "ultima_rilevazione": "25/03/2022 18:20:22"}, {"Gestore": "CAFFE' SCUDELETTI S.R.L.", "Bandiera": "Q8", "Tipo impianto": "Altro", "Indirizzo": "VIA PROVINCIALE 4 24040", "Nome impianto": "0956", "Comune": "LALLIO", "idImpianto": 49364, "points": [{"type": "Feature", "properties": {}, "geometry": {"type": "Point", "coordinates": [9.633973697424487, 45.66537756829584]}}], "price": 2.154, "ultima_rilevazione": "10/05/2022 10:56:45"}, {"Gestore": "NUOVA SIDAP  S.R.L.", "Bandiera": "Q8", "Tipo impianto": "Autostradale", "Indirizzo": "Autostrada A4 MILANO-BRESCIA, Km. 166, dir. EST 24040", "Nome impianto": "BREMBO SUD", "Comune": "OSIO SOPRA", "idImpianto": 25613, "points": [{"type": "Feature", "properties": {}, "geometry": {"type": "Point", "coordinates": [9.600096659217913, 45.63188736814508]}}], "price": 2.2, "ultima_rilevazione": "12/05/2022 14:30:19"}, {"Gestore": "SERVIZI & GESTIONI ITALIA S.R.L.", "Bandiera": "Q8", "Tipo impianto": "Altro", "Indirizzo": "VIALE EUROPA S/N 24048", "Nome impianto": "TREVIOLO-VIALE EUROPA", "Comune": "TREVIOLO", "idImpianto": 11493, "points": [{"type": "Feature", "properties": {}, "geometry": {"type": "Point", "coordinates": [9.631402682209, 45.67589183113847]}}], "price": 2.129, "ultima_rilevazione": "13/05/2022 07:08:58"}, {"Gestore": "GAS S.N.C. DI GREGORIO ALESSIO & SILVANO PREDA", "Bandiera": "Q8", "Tipo impianto": "Altro", "Indirizzo": "VIA CESARE BATTISTI 81 24030", "Nome impianto": "Q8", "Comune": "BREMBATE DI SOPRA", "idImpianto": 31728, "points": [{"type": "Feature", "properties": {}, "geometry": {"type": "Point", "coordinates": [9.583364410381364, 45.72765278972703]}}], "price": 2.424, "ultima_rilevazione": "25/03/2022 18:20:22"}, {"Gestore": "CAFFE' SCUDELETTI S.R.L.", "Bandiera": "Q8", "Tipo impianto": "Altro", "Indirizzo": "VIA PROVINCIALE 4 24040", "Nome impianto": "0956", "Comune": "LALLIO", "idImpianto": 49364, "points": [{"type": "Feature", "properties": {}, "geometry": {"type": "Point", "coordinates": [9.633973697424487, 45.66537756829584]}}], "price": 2.099, "ultima_rilevazione": "10/05/2022 10:56:45"}, {"Gestore": "SERVIZI & GESTIONI ITALIA S.R.L.", "Bandiera": "Q8", "Tipo impianto": "Altro", "Indirizzo": "VIALE EUROPA S/N 24048", "Nome impianto": "TREVIOLO-VIALE EUROPA", "Comune": "TREVIOLO", "idImpianto": 11493, "points": [{"type": "Feature", "properties": {}, "geometry": {"type": "Point", "coordinates": [9.631402682209, 45.67589183113847]}}], "price": 2.139, "ultima_rilevazione": "13/05/2022 07:08:58"}, {"Gestore": "R.C. S.N.C. DI ROSSETTI STEFANO E COFFETTI LUCA", "Bandiera": "Esso", "Tipo impianto": "Altro", "Indirizzo": "Via industria  6 24040", "Nome impianto": "Esso Bottanuco ", "Comune": "BOTTANUCO", "idImpianto": 50176, "points": [{"type": "Feature", "properties": {}, "geometry": {"type": "Point", "coordinates": [9.509343504476874, 45.64542076938716]}}], "price": 1.937, "ultima_rilevazione": "12/05/2022 14:04:52"}, {"Gestore": "SG69.SOCIETA' A RESPONSABILITA' LIMITATA SEMPLIFICATA", "Bandiera": "Esso", "Tipo impianto": "Altro", "Indirizzo": "VIA GRUMELLO 40 24100", "Nome impianto": "Esso", "Comune": "BERGAMO", "idImpianto": 47125, "points": [{"type": "Feature", "properties": {}, "geometry": {"type": "Point", "coordinates": [9.640194017048753, 45.67048560607016]}}], "price": 1.899, "ultima_rilevazione": "12/05/2022 14:21:18"}, {"Gestore": "IP SERVICES S.R.L.", "Bandiera": "Api-Ip", "Tipo impianto": "Altro", "Indirizzo": "via Roma 33 24030", "Nome impianto": "Medolago", "Comune": "MEDOLAGO", "idImpianto": 36320, "points": [{"type": "Feature", "properties": {}, "geometry": {"type": "Point", "coordinates": [9.498976841568949, 45.66921552704797]}}], "price": 1.839, "ultima_rilevazione": "12/05/2022 12:04:48"}]}, "Gasolio High Quality": {"1": [{"Gestore": "DORELEI CARBURANTI DI GUALCO DAVIDE & C. S.A.S.", "Bandiera": "Esso", "Tipo impianto": "Strada Statale", "Indirizzo": "Statale 470 della Val Brembana, Km. 1,4, dir. DALMINE 24035", "Nome impianto": "DORELEI CARBURANTI SAS ", "Comune": "CURNO", "idImpianto": 14558, "points": [{"type": "Feature", "properties": {}, "geometry": {"type": "Point", "coordinates": [9.602007865905762, 45.68602346571805]}}], "price": 1.956, "ultima_rilevazione": "12/05/2022 05:24:47"}], "3": [{"Gestore": "MAZZOLA ROBERTO", "Bandiera": "Pompe Bianche", "Tipo impianto": "Altro", "Indirizzo": "VIA PAPA GIOVANNI XXIII 31 24040", "Nome impianto": "MAZZOLA", "Comune": "MADONE", "idImpianto": 33398, "points": [{"type": "Feature", "properties": {}, "geometry": {"type": "Point", "coordinates": [9.550803765606702, 45.65032548035179]}}], "price": 1.798, "ultima_rilevazione": "11/05/2022 23:49:16"}], "5": [{"Gestore": "NUOVA SIDAP  S.R.L.", "Bandiera": "Esso", "Tipo impianto": "Autostradale", "Indirizzo": "Autostrada A4 MILANO-BRESCIA, Km. 349, dir. Nord 24040", "Nome impianto": "BREMBO NORD", "Comune": "OSIO SOPRA", "idImpianto": 4645, "points": [{"type": "Feature", "properties": {}, "geometry": {"type": "Point", "coordinates": [9.598032832145693, 45.63229936377726]}}], "price": 2.032, "ultima_rilevazione": "11/05/2022 17:30:10"}]}, "null": {}}