{"area_comune": "[{\"type\": \"Feature\", \"properties\": {}, \"geometry\": {\"type\": \"Polygon\", \"coordinates\": [[[9.308347876615883, 45.570546555913694], [9.30739804755074, 45.56657757259978], [9.316730579326268, 45.56443283336174], [9.319500822590394, 45.5655300716512], [9.32637325311398, 45.56163246465833], [9.323476136922414, 45.55903068891441], [9.321837247192253, 45.556874245013546], [9.322443802357542, 45.554147305416215], [9.32228254583061, 45.54935113447904], [9.321275739262923, 45.54741611034623], [9.321825748796027, 45.54436429816631], [9.325249278030569, 45.54384399736907], [9.325525025040946, 45.53999410786583], [9.32421607571437, 45.53904209801594], [9.312844860527674, 45.536782670553436], [9.30507355397258, 45.53664834673984], [9.301484635704993, 45.53853035315095], [9.291678658715623, 45.54258179351074], [9.277560289176725, 45.544803636687014], [9.274383199629014, 45.546152462719405], [9.271570237075045, 45.548655834544185], [9.271320659482038, 45.54955158478666], [9.268637539206651, 45.55129660631694], [9.268993318151873, 45.55376039638498], [9.271671462291929, 45.55648260731482], [9.269735488836119, 45.55963111441345], [9.269797940030776, 45.56009657287298], [9.270199837015198, 45.56061838368978], [9.271598357127951, 45.561912386292], [9.272308429883937, 45.56240804558062], [9.272639198903116, 45.56231202654095], [9.276476149354403, 45.55959726633127], [9.278648883380022, 45.55865537179839], [9.28281791397462, 45.558417300922386], [9.28644919569333, 45.559203642047265], [9.298143408466991, 45.56415770104229], [9.2973252669738, 45.564256501812615], [9.297419044219074, 45.56649126764794], [9.298765921349213, 45.56901772313408], [9.301479597377229, 45.571318784645285], [9.30516349718704, 45.5711849590572], [9.308347876615883, 45.570546555913694]]]}}]", "comune": "brugherio", "buffer_1": "[{\"type\": \"Feature\", \"properties\": {}, \"geometry\": {\"type\": \"Polygon\", \"coordinates\": [[[9.30074224520084, 45.577791314801104], [9.301766608708455, 45.57827018573846], [9.302851661285017, 45.57867785442157], [9.303987398206038, 45.57901056151874], [9.305163346750561, 45.57926523890307], [9.306368662876421, 45.57943953798242], [9.307592231342595, 45.57953185138677], [9.308822768349748, 45.579541327811334], [9.310048925745997, 45.57946787987793], [9.311259395830273, 45.5793121849414], [9.312443015779806, 45.579075678833654], [9.313588870731968, 45.57876054260357], [9.314686394563424, 45.57836968237571], [9.315725467431392, 45.57790670251506], [9.333752018128774, 45.56899145530651], [9.334784572229921, 45.56842292174765], [9.335728930413785, 45.56778320803115], [9.336575194079007, 45.567079021664554], [9.337314494150457, 45.56631774589757], [9.337939083994048, 45.565507362239885], [9.338442420512553, 45.56465636671352], [9.338819232576697, 45.563773680721575], [9.339065576080579, 45.562868557470516], [9.3391788750525, 45.56195048492995], [9.33915794839992, 45.561029086349144], [9.336995676315963, 45.53843897326716], [9.3368568666572, 45.53759118034569], [9.336604438095904, 45.536756435462856], [9.336240664450433, 45.53594224136974], [9.335768819929287, 45.5351559157898], [9.335193149546727, 45.53440452567757], [9.33451883083488, 45.53369482374086], [9.333751927201089, 45.53303318779535], [9.33289933335344, 45.53242556349475], [9.331968713287573, 45.53187741094906], [9.330968431393476, 45.531393655708705], [9.329907477301651, 45.53097864455271], [9.328795385142968, 45.530636106475896], [9.32764214794556, 45.530369119223955], [9.326458127934721, 45.530180081675], [9.30731852134841, 45.52778669482641], [9.306066745291602, 45.527674432731665], [9.304805329225838, 45.52764929902667], [9.30354651643348, 45.52771153767488], [9.302302524969832, 45.52786054460063], [9.301085429242088, 45.52809487354347], [9.299907042972515, 45.5284122500757], [9.269220285502877, 45.53791498353206], [9.268144451080634, 45.53829121439459], [9.267123509242355, 45.538736634493404], [9.266166444431686, 45.539247324671074], [9.265281679708966, 45.53981879135707], [9.264477002655788, 45.540446006062254], [9.263759496840569, 45.54112344957982], [9.263135479447946, 45.54184516050603], [9.262610445621576, 45.54260478765549], [9.262189020012105, 45.54339564591191], [9.261874915959654, 45.54421077502444], [9.26167090267391, 45.54504300083393], [9.258882558534252, 45.56080262521821], [9.2587890912001, 45.561676635853395], [9.258817078920252, 45.56255288849301], [9.258966261953907, 45.5634230744758], [9.259235231236977, 45.56427894228646], [9.259621441535385, 45.56511237581403], [9.260121235385244, 45.56591547133979], [9.260729877600246, 45.566680612523875], [9.261441600025606, 45.56740054267751], [9.26224965611969, 45.56806843363403], [9.263146384850026, 45.56867795056269], [9.264123283300657, 45.56922331210853], [9.265171087303688, 45.56969934528499], [9.266279859330208, 45.57010153459609], [9.267439082805346, 45.570426064919666], [9.26863776194988, 45.57066985774238], [9.269864526196962, 45.57083060040079], [9.27110773818805, 45.57090676804921], [9.27235560431711, 45.57089763814446], [9.273596286767395, 45.57080329730948], [9.274818015970492, 45.57062464050985], [9.283758209828832, 45.568994222993005], [9.30074224520084, 45.577791314801104]]]}}]", "buffer_3": "[{\"type\": \"Feature\", \"properties\": {}, \"geometry\": {\"type\": \"Polygon\", \"coordinates\": [[[9.278216662961823, 45.58849393070465], [9.285525119037429, 45.59227929994004], [9.288598668056403, 45.59371628967079], [9.291854483280973, 45.59493963500634], [9.295262526346114, 45.59593804545138], [9.298791348452765, 45.59670230597071], [9.30240838152215, 45.59722536237246], [9.306080239888063, 45.59750238668075], [9.309773029691202, 45.59753082188179], [9.313452663062522, 45.59731040562241], [9.31708517413444, 45.59684317263739], [9.320637033900546, 45.59613343588305], [9.32407546095592, 45.59518774655524], [9.327368725191743, 45.59401483336841], [9.330486441588452, 45.592625521668054], [9.348515339337531, 45.58370796121439], [9.351613296271738, 45.58200193555583], [9.354446410798273, 45.580082357851914], [9.356984985482711, 45.57796936889929], [9.359202422198207, 45.57568513643622], [9.361075500484468, 45.57325362194252], [9.362584620016598, 45.57070032868755], [9.363714004681334, 45.56805203370051], [9.364451866179289, 45.5653365065022], [9.364790525512332, 45.56258221757147], [9.364726491169865, 45.55981803962157], [9.362554031199506, 45.537228436990226], [9.36213647262927, 45.534685153441266], [9.3613781283896, 45.53218108630962], [9.360285857882536, 45.52973873782854], [9.358869517760743, 45.52738005277373], [9.357141871956841, 45.525126221541505], [9.355118475786906, 45.522997490091456], [9.35281753521138, 45.52101297844662], [9.350259742550888, 45.519190509365146], [9.347468090156058, 45.51754644870419], [9.344467663717726, 45.516095558890456], [9.341285417075655, 45.514850866793616], [9.337949930539006, 45.51382354717012], [9.334491154869061, 45.513022822705345], [9.330940143193706, 45.512455881535644], [9.311806363111373, 45.51006322285973], [9.308052203031908, 45.50972653886154], [9.304269158721192, 45.50965115839313], [9.300493913432524, 45.50983781254658], [9.296763075155374, 45.5102846914849], [9.293112823136854, 45.51098746191283], [9.289578558471039, 45.51193930891756], [9.258898992335322, 45.52143927947233], [9.255672178952357, 45.52256765174015], [9.252609859927087, 45.52390355274967], [9.24973897079192, 45.52543523763299], [9.247084769984731, 45.52714923920975], [9.244670616941299, 45.52903048599662], [9.242517766610613, 45.53106243431996], [9.240645182196909, 45.53322721338865], [9.239069367782337, 45.535505782069066], [9.23780422231932, 45.537878096000945], [9.236860916303304, 45.54032328360017], [9.236247792245722, 45.5428198294148], [9.23345244667752, 45.55857885317348], [9.233170863652122, 45.561200825370335], [9.233253634093892, 45.56382960425811], [9.233700023913894, 45.56644026307419], [9.2345058498032, 45.56900804346969], [9.235663517030755, 45.57150859042673], [9.237162089710917, 45.57391818347427], [9.238987392940698, 45.576213961999066], [9.24112214589738, 45.578374142501076], [9.243546124684354, 45.58037822571428], [9.246236353419663, 45.58220719160769], [9.249167321781227, 45.58384368039343], [9.25231122695799, 45.58527215780078], [9.255638237710768, 45.58647906302354], [9.259116778022525, 45.587452937912964], [9.262713827618663, 45.58818453616811], [9.266395236465398, 45.58866691146763], [9.27012605021092, 45.58889548368962], [9.273870843421532, 45.58886808257833], [9.277594057384489, 45.58858496843437], [9.278216662961823, 45.58849393070465]]]}}]", "buffer_5": "[{\"type\": \"Feature\", \"properties\": {}, \"geometry\": {\"type\": \"Polygon\", \"coordinates\": [[[9.270532750467565, 45.6068740006132], [9.27542351449279, 45.609160850612845], [9.280850969208648, 45.611200325523214], [9.286532428855637, 45.61286482536941], [9.29241542765049, 45.61413897395326], [9.298445625445591, 45.61501100022156], [9.304567312765991, 45.615472847741394], [9.310723928931703, 45.61552024964096], [9.316858588318576, 45.615152768298834], [9.322914609725029, 45.61437379940345], [9.328836043779086, 45.613190540343574], [9.334568193341164, 45.611613923233215], [9.340058121932167, 45.60965851321154], [9.345255145343165, 45.60734237299013], [9.363286388343086, 45.59842249750612], [9.368450140131328, 45.59557841262205], [9.373172062973982, 45.59237838850779], [9.37740265855426, 45.588856023660796], [9.38109761198526, 45.58504829432403], [9.384218255084086, 45.580995164560655], [9.386731969105277, 45.57673916515072], [9.388612522822111, 45.57232494581593], [9.389840342574294, 45.567798805549494], [9.390402711658538, 45.56320820604279], [9.39029389721544, 45.55860127336251], [9.388111251344169, 45.536012185620706], [9.387413438359838, 45.53177353920709], [9.386147768114006, 45.527600373903354], [9.384325736101324, 45.52353018335514], [9.38196382667154, 45.51959952816457], [9.37908336105838, 45.51584370819326], [9.375710302508491, 45.51229644642795], [9.37187502037611, 45.508989587208795], [9.367612015393012, 45.50595281148345], [9.362959608644346, 45.50321337159312], [9.357959597077027, 45.5007958479176], [9.35265687863721, 45.498721929509536], [9.347099050375222, 45.497010220632774], [9.341335983069598, 45.49567607489106], [9.335419376105303, 45.49473145838934], [9.316291417455327, 45.492339526976956], [9.310036429045272, 45.49177855723941], [9.303733359781697, 45.49165295748656], [9.297443270927664, 45.49196394487941], [9.291227098998961, 45.49270850699446], [9.285145069593646, 45.493879430789015], [9.279256117861445, 45.495465371985055], [9.248583739840162, 45.50496258249643], [9.243206867010953, 45.50684266960022], [9.23810384629413, 45.50906857298575], [9.233319540565764, 45.511620738831915], [9.228896029264535, 45.51447674434547], [9.224872239181275, 45.51761149365646], [9.221283602188846, 45.52099743719222], [9.218161742911123, 45.52460481265233], [9.215534199094943, 45.52840190551654], [9.21342417718933, 45.532355326844275], [9.211850345353243, 45.536430305968025], [9.21082666580812, 45.54059099554688], [9.208024321282073, 45.556349415682284], [9.207553048285853, 45.560719268974644], [9.207689011029458, 45.56510060119899], [9.20843106126444, 45.56945186651032], [9.209772300004202, 45.57373179470931], [9.211700137745686, 45.57789978300419], [9.214196408985458, 45.58191628178599], [9.217237540129227, 45.58574317073029], [9.220794769368077, 45.589344121618105], [9.224834416576252, 45.5926849443843], [9.229318200779797, 45.59573391305205], [9.234203602258798, 45.598462068396984], [9.239444265884455, 45.6008434944007], [9.244990441861411, 45.60285556580201], [9.250789459651335, 45.60447916432859], [9.256786230501096, 45.60569886149442], [9.262923773692687, 45.60650306617116], [9.269143761376595, 45.60688413548563], [9.270532750467565, 45.6068740006132]]]}}]", "centroid": "[{\"type\": \"Feature\", \"properties\": {}, \"geometry\": {\"type\": \"Point\", \"coordinates\": [9.300840409793887, 45.553260967481634]}}]", "Benzina": {"1": [{"Gestore": "RHN ENTERPRISE DI AHMED NAVEED", "Bandiera": "Retitalia", "Tipo impianto": "Altro", "Indirizzo": "via monte santo 36 20900", "Nome impianto": "reteitalia", "Comune": "MONZA", "idImpianto": 49483, "points": [{"type": "Feature", "properties": {}, "geometry": {"type": "Point", "coordinates": [9.26951166601285, 45.56208227724076]}}], "price": 1.894, "ultima_rilevazione": "02/05/2022 14:56:58"}, {"Gestore": "NUOVA SIDAP  S.R.L.", "Bandiera": "Esso", "Tipo impianto": "Altro", "Indirizzo": "VIALE DELLE INDUSTRIE 43 20900", "Nome impianto": "Monza 2", "Comune": "MONZA", "idImpianto": 4657, "points": [{"type": "Feature", "properties": {}, "geometry": {"type": "Point", "coordinates": [9.292220771312714, 45.56863365263018]}}], "price": 1.892, "ultima_rilevazione": "20/05/2022 18:18:36"}, {"Gestore": "SOLDINI GIUSEPPE", "Bandiera": "Q8", "Tipo impianto": "Altro", "Indirizzo": "via monte santo  9 20900", "Nome impianto": "stazione di servizio q8", "Comune": "MONZA", "idImpianto": 48949, "points": [{"type": "Feature", "properties": {}, "geometry": {"type": "Point", "coordinates": [9.266720082221722, 45.56293401042127]}}], "price": 1.879, "ultima_rilevazione": "25/05/2022 15:41:03"}, {"Gestore": "GS SPA", "Bandiera": "Q8", "Tipo impianto": "Altro", "Indirizzo": "Strada Provinciale  208 20061", "Nome impianto": "Carrefour Q8 Carugate", "Comune": "CARUGATE", "idImpianto": 48741, "points": [{"type": "Feature", "properties": {}, "geometry": {"type": "Point", "coordinates": [9.331401268583818, 45.54816345136025]}}], "price": 1.849, "ultima_rilevazione": "25/05/2022 16:09:29"}, {"Gestore": "TECNOCLIMA S.N.C. DI GAETANO SCORNAVACCA & C.", "Bandiera": "Api-Ip", "Tipo impianto": "Altro", "Indirizzo": "VIALE LOMBARDIA 169, 20861", "Nome impianto": "tecnoclima snc distibutore ip", "Comune": "BRUGHERIO", "idImpianto": 14272, "points": [{"type": "Feature", "properties": {}, "geometry": {"type": "Point", "coordinates": [9.29600785648347, 45.5513854224133]}}], "price": 1.954, "ultima_rilevazione": "26/05/2022 17:07:42"}, {"Gestore": "IEVA MICHELE", "Bandiera": "Agip Eni", "Tipo impianto": "Altro", "Indirizzo": "VIA SP 121 POBBIANO/CAVENAGO  20061", "Nome impianto": "stazione di servizio Agip di Ieva michele", "Comune": "CARUGATE", "idImpianto": 7530, "points": [{"type": "Feature", "properties": {}, "geometry": {"type": "Point", "coordinates": [9.333864748477936, 45.55165355778144]}}], "price": 1.929, "ultima_rilevazione": "27/05/2022 10:57:19"}, {"Gestore": "RAUSA MAURIZIO", "Bandiera": "Api-Ip", "Tipo impianto": "Altro", "Indirizzo": "via dei mille 81 20861", "Nome impianto": "totalerg", "Comune": "BRUGHERIO", "idImpianto": 28263, "points": [{"type": "Feature", "properties": {}, "geometry": {"type": "Point", "coordinates": [9.311300665140152, 45.54650670273922]}}], "price": 1.899, "ultima_rilevazione": "27/05/2022 16:48:50"}, {"Gestore": "R.A.M.M. DI CREMONESI MARIO VITTORIO", "Bandiera": "Pompe Bianche", "Tipo impianto": "Altro", "Indirizzo": "VIA DEI MILLE 151 20861", "Nome impianto": "PETROL OUTLET", "Comune": "BRUGHERIO", "idImpianto": 38614, "points": [{"type": "Feature", "properties": {}, "geometry": {"type": "Point", "coordinates": [9.322085827589037, 45.548317481746224]}}], "price": 1.869, "ultima_rilevazione": "27/05/2022 22:18:01"}, {"Gestore": "SERVIZI & GESTIONI ITALIA S.R.L.", "Bandiera": "Q8", "Tipo impianto": "Altro", "Indirizzo": "FZ.S.ALBINO VIA ADDA 71 20052", "Nome impianto": "MONZA-FZ.S.ALBINO VIA ADDA 71", "Comune": "MONZA", "idImpianto": 11638, "points": [{"type": "Feature", "properties": {}, "geometry": {"type": "Point", "coordinates": [9.314026822090112, 45.57211126545646]}}], "price": 1.909, "ultima_rilevazione": "28/05/2022 07:34:25"}, {"Gestore": "SERVIZI & GESTIONI ITALIA S.R.L.", "Bandiera": "Q8", "Tipo impianto": "Altro", "Indirizzo": "VIA ENRICO FERMI S/N 20052", "Nome impianto": "MONZA-VIA ENRICO FERMI", "Comune": "MONZA", "idImpianto": 11644, "points": [{"type": "Feature", "properties": {}, "geometry": {"type": "Point", "coordinates": [9.28129119510652, 45.565656333778335]}}], "price": 1.919, "ultima_rilevazione": "28/05/2022 07:34:26"}, {"Gestore": "SERVIZI & GESTIONI ITALIA S.R.L.", "Bandiera": "Q8", "Tipo impianto": "Altro", "Indirizzo": "VIA BORGAZZI 96 20052", "Nome impianto": "MONZA-VIA BORGAZZI 96", "Comune": "MONZA", "idImpianto": 11651, "points": [{"type": "Feature", "properties": {}, "geometry": {"type": "Point", "coordinates": [9.261414576721222, 45.566349778721616]}}], "price": 1.899, "ultima_rilevazione": "28/05/2022 07:34:26"}, {"Gestore": "SERVIZI & GESTIONI ITALIA S.R.L.", "Bandiera": "Q8", "Tipo impianto": "Altro", "Indirizzo": "S.P. 121 - KM. 8+070  20063", "Nome impianto": "CERNUSCO SUL NAVIGLIO - S.P. 121 - KM. 8+070", "Comune": "CERNUSCO SUL NAVIGLIO", "idImpianto": 30796, "points": [{"type": "Feature", "properties": {}, "geometry": {"type": "Point", "coordinates": [9.336739286508193, 45.5403700891952]}}], "price": 1.879, "ultima_rilevazione": "28/05/2022 07:34:36"}, {"Gestore": "GOBBI MARZIO ENRICO", "Bandiera": "Retitalia", "Tipo impianto": "Altro", "Indirizzo": "Via Per Imbersago 61 20093", "Nome impianto": "RETITALIA", "Comune": "COLOGNO MONZESE", "idImpianto": 38871, "points": [{"type": "Feature", "properties": {}, "geometry": {"type": "Point", "coordinates": [9.28936555981636, 45.54292573438804]}}], "price": 1.964, "ultima_rilevazione": "28/05/2022 09:54:38"}, {"Gestore": "NUOVA SIDAP  S.R.L.", "Bandiera": "Api-Ip", "Tipo impianto": "Autostradale", "Indirizzo": "A51 TANG.LE EST DI MILANO, Km. 15+200, Nord 20093", "Nome impianto": "COLOGNO M. EST", "Comune": "COLOGNO MONZESE", "idImpianto": 48196, "points": [{"type": "Feature", "properties": {}, "geometry": {"type": "Point", "coordinates": [9.299550652503962, 45.5372445308776]}}], "price": 1.939, "ultima_rilevazione": "28/05/2022 10:47:08"}, {"Gestore": "IP SERVICES S.R.L.", "Bandiera": "Api-Ip", "Tipo impianto": "Altro", "Indirizzo": "VIALE LOMBARDIA 93 20047", "Nome impianto": "BRUGHERIO - LOMBARDIA 93", "Comune": "BRUGHERIO", "idImpianto": 22888, "points": [{"type": "Feature", "properties": {}, "geometry": {"type": "Point", "coordinates": [9.292631650297151, 45.54702693920715]}}], "price": 1.879, "ultima_rilevazione": "29/05/2022 12:02:55"}, {"Gestore": "IP SERVICES S.R.L.", "Bandiera": "Api-Ip", "Tipo impianto": "Altro", "Indirizzo": "S.P.121  KM.6+250 20063", "Nome impianto": "Cernusco sul Naviglio", "Comune": "CERNUSCO SUL NAVIGLIO", "idImpianto": 37970, "points": [{"type": "Feature", "properties": {}, "geometry": {"type": "Point", "coordinates": [9.334397882212215, 45.54543517250591]}}], "price": 1.879, "ultima_rilevazione": "29/05/2022 12:04:18"}, {"Gestore": "SERVIZI & GESTIONI ITALIA S.R.L.", "Bandiera": "Q8", "Tipo impianto": "Altro", "Indirizzo": "VIA QUARTO 94 20047", "Nome impianto": "BRUGHERIO-VIA QUARTO 94", "Comune": "BRUGHERIO", "idImpianto": 11647, "points": [{"type": "Feature", "properties": {}, "geometry": {"type": "Point", "coordinates": [9.304071253967322, 45.54090462397628]}}], "price": 1.919, "ultima_rilevazione": "30/05/2022 00:34:52"}, {"Gestore": "SILIATO LUIGI", "Bandiera": "Api-Ip", "Tipo impianto": "Altro", "Indirizzo": "enrico fermi  20900", "Nome impianto": "stazione di servizio IP di Luigi Siliato", "Comune": "MONZA", "idImpianto": 38935, "points": [{"type": "Feature", "properties": {}, "geometry": {"type": "Point", "coordinates": [9.27997313439846, 45.564417700011056]}}], "price": 1.899, "ultima_rilevazione": "30/05/2022 06:42:47"}, {"Gestore": "FRATELLI PULEO S.N.C. DI PULEO PIETRO E PAOLO", "Bandiera": "Q8", "Tipo impianto": "Altro", "Indirizzo": "VIA STUCCHI 47 20900", "Nome impianto": "STAZ. SERV. Q8 F.LLI PULEO SNC", "Comune": "MONZA", "idImpianto": 14453, "points": [{"type": "Feature", "properties": {}, "geometry": {"type": "Point", "coordinates": [9.308756589889526, 45.57804836296814]}}], "price": 1.919, "ultima_rilevazione": "30/05/2022 06:58:57"}, {"Gestore": "SCARFONE SANTO", "Bandiera": "Agip Eni", "Tipo impianto": "Altro", "Indirizzo": "c.so roma 107 20093", "Nome impianto": "eni scarfone santo", "Comune": "COLOGNO MONZESE", "idImpianto": 11439, "points": [{"type": "Feature", "properties": {}, "geometry": {"type": "Point", "coordinates": [9.28293228149414, 45.53437861561028]}}], "price": 1.904, "ultima_rilevazione": "30/05/2022 07:25:23"}, {"Gestore": "AF PETROL S.R.L.", "Bandiera": "Pompe Bianche", "Tipo impianto": "Altro", "Indirizzo": "VIALE LOMBARDIA 75 20861", "Nome impianto": "AF PETROL SRL", "Comune": "BRUGHERIO", "idImpianto": 22943, "points": [{"type": "Feature", "properties": {}, "geometry": {"type": "Point", "coordinates": [9.292266169905815, 45.54659960785789]}}], "price": 1.879, "ultima_rilevazione": "30/05/2022 07:38:14"}], "3": [{"Gestore": "STRIPPOLI ALFIO", "Bandiera": "Agip Eni", "Tipo impianto": "Altro", "Indirizzo": "VIALE LIBERTA' 88 20900", "Nome impianto": "Strippoli Alfio", "Comune": "MONZA", "idImpianto": 14409, "points": [{"type": "Feature", "properties": {}, "geometry": {"type": "Point", "coordinates": [9.295753240585327, 45.58941435702956]}}], "price": 1.789, "ultima_rilevazione": "04/11/2021 22:15:50"}, {"Gestore": "ORAZI ORFEO", "Bandiera": "Q8", "Tipo impianto": "Altro", "Indirizzo": "VIA GIUSEPPE DI VITTORIO SNC 20099", "Nome impianto": "Q8", "Comune": "SESTO SAN GIOVANNI", "idImpianto": 33287, "points": [{"type": "Feature", "properties": {}, "geometry": {"type": "Point", "coordinates": [9.258132576942444, 45.52660420248263]}}], "price": 2.069, "ultima_rilevazione": "21/03/2022 10:57:29"}, {"Gestore": "E.C.N. S.R.L.", "Bandiera": "Agip Eni", "Tipo impianto": "Altro", "Indirizzo": "VIA EUROPA ANG LIGURIA SNC 20093", "Nome impianto": "eni pv 02316", "Comune": "COLOGNO MONZESE", "idImpianto": 43033, "points": [{"type": "Feature", "properties": {}, "geometry": {"type": "Point", "coordinates": [9.265617169311554, 45.52513831765408]}}], "price": 1.899, "ultima_rilevazione": "24/05/2022 08:37:17"}, {"Gestore": "RAGOSA SIMONE", "Bandiera": "Esso", "Tipo impianto": "Altro", "Indirizzo": "VIA MOLISE  20093", "Nome impianto": "Stazione di servizio esso di Ragosa", "Comune": "COLOGNO MONZESE", "idImpianto": 23422, "points": [{"type": "Feature", "properties": {}, "geometry": {"type": "Point", "coordinates": [9.274595975875854, 45.52505054389173]}}], "price": 1.899, "ultima_rilevazione": "25/05/2022 08:17:48"}, {"Gestore": "LOVINO MARCO", "Bandiera": "Esso", "Tipo impianto": "Altro", "Indirizzo": "VIA GIUSEPPE VERDI 47 20063", "Nome impianto": "STAZIONE DI SERVIZIO ESSO VIA VERDI 47", "Comune": "CERNUSCO SUL NAVIGLIO", "idImpianto": 49049, "points": [{"type": "Feature", "properties": {}, "geometry": {"type": "Point", "coordinates": [9.337236285209656, 45.52923583950437]}}], "price": 1.876, "ultima_rilevazione": "26/05/2022 11:10:44"}, {"Gestore": "DE PIETRO SALVATORE", "Bandiera": "Esso", "Tipo impianto": "Altro", "Indirizzo": "VIA PROVINCIALE KM 17 SNC 20863", "Nome impianto": "SALVATORE DE PIETRO", "Comune": "CONCOREZZO", "idImpianto": 20162, "points": [{"type": "Feature", "properties": {}, "geometry": {"type": "Point", "coordinates": [9.330807030200958, 45.587692748640585]}}], "price": 1.899, "ultima_rilevazione": "27/05/2022 07:52:52"}, {"Gestore": "LUCARELLI LEONARDO", "Bandiera": "Agip Eni", "Tipo impianto": "Altro", "Indirizzo": "VIALE CAMPANIA 64, 20900", "Nome impianto": "leonardo lucarelli", "Comune": "MONZA", "idImpianto": 24973, "points": [{"type": "Feature", "properties": {}, "geometry": {"type": "Point", "coordinates": [9.252105412372655, 45.56871310184942]}}], "price": 1.929, "ultima_rilevazione": "27/05/2022 08:53:31"}, {"Gestore": "PACEKO S.R.L.", "Bandiera": "Pompe Bianche", "Tipo impianto": "Altro", "Indirizzo": "Via delle industrie  16 20864", "Nome impianto": "EKOPOINT", "Comune": "AGRATE BRIANZA", "idImpianto": 44517, "points": [{"type": "Feature", "properties": {}, "geometry": {"type": "Point", "coordinates": [9.35416730855468, 45.56791207197751]}}], "price": 1.869, "ultima_rilevazione": "27/05/2022 09:03:01"}, {"Gestore": "F.LLI PUPPIO SNC DI PUPPIO PASQUALE E C.", "Bandiera": "Agip Eni", "Tipo impianto": "Altro", "Indirizzo": "VIALE GRAMSCI ANG. VIA MONTENERO  20099", "Nome impianto": "F.LLI PUPPIO SNC", "Comune": "SESTO SAN GIOVANNI", "idImpianto": 12374, "points": [{"type": "Feature", "properties": {}, "geometry": {"type": "Point", "coordinates": [9.24358695745468, 45.546936861949234]}}], "price": 1.924, "ultima_rilevazione": "27/05/2022 11:42:06"}, {"Gestore": "FULLPOINT SOCIETA' A RESPONSABILITA' LIMITATA SEMPLIFICATA", "Bandiera": "Q8", "Tipo impianto": "Altro", "Indirizzo": "STRADA PROVINCIALE 120 KM. 5,400 00 20063", "Nome impianto": "fullpoint srls", "Comune": "CERNUSCO SUL NAVIGLIO", "idImpianto": 44576, "points": [{"type": "Feature", "properties": {}, "geometry": {"type": "Point", "coordinates": [9.30619758371904, 45.5262772387745]}}], "price": 1.889, "ultima_rilevazione": "27/05/2022 12:26:43"}, {"Gestore": "ROMI S.A.S. DI SCIARROTTA ROMINA E C.", "Bandiera": "Api-Ip", "Tipo impianto": "Altro", "Indirizzo": "S.P . Monza-Melzo Km 3  20864", "Nome impianto": "ITALIANA PETROLI", "Comune": "AGRATE BRIANZA", "idImpianto": 28307, "points": [{"type": "Feature", "properties": {}, "geometry": {"type": "Point", "coordinates": [9.33866322040558, 45.575763923593925]}}], "price": 1.899, "ultima_rilevazione": "27/05/2022 19:30:58"}, {"Gestore": "SERVIZI & GESTIONI ITALIA S.R.L.", "Bandiera": "Q8", "Tipo impianto": "Altro", "Indirizzo": "VIA G.B. STUCCHI", "Nome impianto": "MONZA VIA G.B. STUCCHI", "Comune": "MONZA", "idImpianto": 25015, "points": [{"type": "Feature", "properties": {}, "geometry": {"type": "Point", "coordinates": [9.31022520555723, 45.58708695789439]}}], "price": 1.899, "ultima_rilevazione": "28/05/2022 02:05:11"}, {"Gestore": "SERVIZI & GESTIONI ITALIA S.R.L.", "Bandiera": "Q8", "Tipo impianto": "Altro", "Indirizzo": "VIA BORSA 50 20052", "Nome impianto": "MONZA-VIA BORSA 50", "Comune": "MONZA", "idImpianto": 11646, "points": [{"type": "Feature", "properties": {}, "geometry": {"type": "Point", "coordinates": [9.290283906745913, 45.57946895994504]}}], "price": 1.909, "ultima_rilevazione": "28/05/2022 02:05:11"}, {"Gestore": "SERVIZI & GESTIONI ITALIA srl", "Bandiera": "Q8", "Tipo impianto": "Altro", "Indirizzo": "VIA BUONARROTI -DISTR.Q8 117 20052", "Nome impianto": "MONZA VIA BUONARROTI 117 -DISTR.Q8", "Comune": "MONZA", "idImpianto": 6433, "points": [{"type": "Feature", "properties": {}, "geometry": {"type": "Point", "coordinates": [9.284428306745896, 45.569924786456205]}}], "price": 1.899, "ultima_rilevazione": "28/05/2022 02:05:12"}, {"Gestore": "SERVIZI & GESTIONI ITALIA S.R.L.", "Bandiera": "Q8", "Tipo impianto": "Altro", "Indirizzo": "V.LE ROMAGNA 42 20052", "Nome impianto": "MONZA V.LE ROMAGNA 42", "Comune": "MONZA", "idImpianto": 6439, "points": [{"type": "Feature", "properties": {}, "geometry": {"type": "Point", "coordinates": [9.248283505439758, 45.572231571073054]}}], "price": 1.889, "ultima_rilevazione": "28/05/2022 02:05:14"}, {"Gestore": "SERVIZI & GESTIONI ITALIA S.R.L.", "Bandiera": "Q8", "Tipo impianto": "Altro", "Indirizzo": "VIALE GRAMSCI 609 20099", "Nome impianto": "SESTO SAN GIOVANNI - VIALE GRAMSCI 609", "Comune": "SESTO SAN GIOVANNI", "idImpianto": 24145, "points": [{"type": "Feature", "properties": {}, "geometry": {"type": "Point", "coordinates": [9.24427519828646, 45.54835895706711]}}], "price": 1.929, "ultima_rilevazione": "28/05/2022 02:05:17"}, {"Gestore": "SERVIZI & GESTIONI ITALIA S.R.L.", "Bandiera": "Q8", "Tipo impianto": "Altro", "Indirizzo": "VIA GRANDI 31 20099", "Nome impianto": "SESTO S.GIOVANNI VIA GRANDI 31", "Comune": "SESTO SAN GIOVANNI", "idImpianto": 36302, "points": [{"type": "Feature", "properties": {}, "geometry": {"type": "Point", "coordinates": [9.252056032419205, 45.53061668234774]}}], "price": 1.874, "ultima_rilevazione": "28/05/2022 07:34:30"}, {"Gestore": "SERVIZI & GESTIONI ITALIA S.R.L.", "Bandiera": "Q8", "Tipo impianto": "Altro", "Indirizzo": "VIALE CASIRAGHI F.TESTI 493 20099", "Nome impianto": "SESTO SAN GIOVANNI-VIALE CASIRAGHI F.TESTI 493", "Comune": "SESTO SAN GIOVANNI", "idImpianto": 11656, "points": [{"type": "Feature", "properties": {}, "geometry": {"type": "Point", "coordinates": [9.23625172023776, 45.54886994636463]}}], "price": 1.899, "ultima_rilevazione": "28/05/2022 07:34:35"}, {"Gestore": "SERVIZI & GESTIONI ITALIA S.R.L.", "Bandiera": "Q8", "Tipo impianto": "Altro", "Indirizzo": "VIALE PARTIGIANI 83 20099", "Nome impianto": "SESTO SAN GIOVANNI-VIALE PARTIGIANI 83", "Comune": "SESTO SAN GIOVANNI", "idImpianto": 11684, "points": [{"type": "Feature", "properties": {}, "geometry": {"type": "Point", "coordinates": [9.254784314155586, 45.52825261318868]}}], "price": 1.869, "ultima_rilevazione": "28/05/2022 07:34:35"}, {"Gestore": "BASELICE FRANCESCO", "Bandiera": "Q8", "Tipo impianto": "Altro", "Indirizzo": "via tiepolo  20900", "Nome impianto": "Q8", "Comune": "MONZA", "idImpianto": 13606, "points": [{"type": "Feature", "properties": {}, "geometry": {"type": "Point", "coordinates": [9.300115182995796, 45.58058447639117]}}], "price": 1.919, "ultima_rilevazione": "28/05/2022 08:26:57"}, {"Gestore": "AWWAD SALEH IBRAHIM", "Bandiera": "Esso", "Tipo impianto": "Altro", "Indirizzo": "VIA F. CAVALLOTTI 24 20900", "Nome impianto": "ESSO via cavallotti", "Comune": "MONZA", "idImpianto": 48429, "points": [{"type": "Feature", "properties": {}, "geometry": {"type": "Point", "coordinates": [9.266201259507172, 45.581103198922094]}}], "price": 1.899, "ultima_rilevazione": "28/05/2022 09:13:27"}, {"Gestore": "FORTUNA SNC DI MOHAMMAD AFZAL E MIRZA SHAFEEQ SIDDIQUE", "Bandiera": "Api-Ip", "Tipo impianto": "Altro", "Indirizzo": "VIA CORREGGIO ANG VIA LIBERTA'  20900", "Nome impianto": "italiana petroli  IP", "Comune": "MONZA", "idImpianto": 44951, "points": [{"type": "Feature", "properties": {}, "geometry": {"type": "Point", "coordinates": [9.298765000123, 45.589907000123]}}], "price": 1.898, "ultima_rilevazione": "28/05/2022 09:26:18"}, {"Gestore": "GOBBI MARZIO ENRICO", "Bandiera": "Retitalia", "Tipo impianto": "Altro", "Indirizzo": "Via Lombardia 3 20093", "Nome impianto": "RETITALIA LOMBARDIA", "Comune": "COLOGNO MONZESE", "idImpianto": 42186, "points": [{"type": "Feature", "properties": {}, "geometry": {"type": "Point", "coordinates": [9.274695217609406, 45.53591322847132]}}], "price": 1.899, "ultima_rilevazione": "28/05/2022 09:27:28"}, {"Gestore": "BRAMBILLA S.N.C. DI GABRIELE BRAMBILLA & C.", "Bandiera": "Agip Eni", "Tipo impianto": "Altro", "Indirizzo": "VIALE LOMBARDIA 224 20052", "Nome impianto": "AGIP di BRAMBILLA S.N.C.", "Comune": "MONZA", "idImpianto": 6254, "points": [{"type": "Feature", "properties": {}, "geometry": {"type": "Point", "coordinates": [9.244179725646973, 45.56768653673911]}}], "price": 1.929, "ultima_rilevazione": "28/05/2022 09:32:14"}, {"Gestore": "T.D.M. S.R.L.", "Bandiera": "Tamoil", "Tipo impianto": "Altro", "Indirizzo": "SP. 13 KM. 2+500 MONZA/MELZO SNC 20049", "Nome impianto": "8495", "Comune": "CONCOREZZO", "idImpianto": 42138, "points": [{"type": "Feature", "properties": {}, "geometry": {"type": "Point", "coordinates": [9.32847686111927, 45.57825750242336]}}], "price": 1.889, "ultima_rilevazione": "29/05/2022 11:16:08"}, {"Gestore": "T.D.M. S.R.L.", "Bandiera": "Tamoil", "Tipo impianto": "Altro", "Indirizzo": "VIALE LOMBARDIA 4 20093", "Nome impianto": "6124", "Comune": "COLOGNO MONZESE", "idImpianto": 46499, "points": [{"type": "Feature", "properties": {}, "geometry": {"type": "Point", "coordinates": [9.274990922208984, 45.535208805954895]}}], "price": 1.879, "ultima_rilevazione": "29/05/2022 11:16:09"}, {"Gestore": "IP SERVICES S.R.L.", "Bandiera": "Api-Ip", "Tipo impianto": "Altro", "Indirizzo": "VIA CAVALLOTTI 68 20052", "Nome impianto": "MONZA - CAVALLOTTI", "Comune": "MONZA", "idImpianto": 29921, "points": [{"type": "Feature", "properties": {}, "geometry": {"type": "Point", "coordinates": [9.260762449073807, 45.57971877321861]}}], "price": 1.859, "ultima_rilevazione": "29/05/2022 12:03:51"}, {"Gestore": "IP SERVICES S.R.L.", "Bandiera": "Api-Ip", "Tipo impianto": "Altro", "Indirizzo": "via CAVALLOTTI 110 20900", "Nome impianto": "Monza Cavallotti", "Comune": "MONZA", "idImpianto": 31387, "points": [{"type": "Feature", "properties": {}, "geometry": {"type": "Point", "coordinates": [9.254766404628754, 45.57817602447157]}}], "price": 1.889, "ultima_rilevazione": "29/05/2022 12:04:53"}, {"Gestore": "IPERSTAROIL S.R.L.", "Bandiera": "Pompe Bianche", "Tipo impianto": "Altro", "Indirizzo": "viale Brianza 31 20092", "Nome impianto": "iperstaroil CINISELLO", "Comune": "CINISELLO BALSAMO", "idImpianto": 50704, "points": [{"type": "Feature", "properties": {}, "geometry": {"type": "Point", "coordinates": [9.23803592007732, 45.55229444729481]}}], "price": 1.859, "ultima_rilevazione": "29/05/2022 13:22:05"}, {"Gestore": "DE NITTIS PASQUALE", "Bandiera": "Tamoil", "Tipo impianto": "Altro", "Indirizzo": "VIALE CAMPANIA 8 20900", "Nome impianto": "STAZIONE DI SERVIZIO TAMOIL", "Comune": "MONZA", "idImpianto": 9990, "points": [{"type": "Feature", "properties": {}, "geometry": {"type": "Point", "coordinates": [9.258126151520514, 45.5659023786019]}}], "price": 1.899, "ultima_rilevazione": "29/05/2022 15:06:09"}, {"Gestore": "ENI FUEL S.P.A.", "Bandiera": "Agip Eni", "Tipo impianto": "Altro", "Indirizzo": "Via Matteotti 133 20041", "Nome impianto": "PV 02151 Agrate Brianza", "Comune": "AGRATE BRIANZA", "idImpianto": 47365, "points": [{"type": "Feature", "properties": {}, "geometry": {"type": "Point", "coordinates": [9.356548000123, 45.572168000123]}}], "price": 1.929, "ultima_rilevazione": "30/05/2022 07:42:03"}, {"Gestore": "ENI FUEL S.P.A.", "Bandiera": "Agip Eni", "Tipo impianto": "Altro", "Indirizzo": "Viale Lombardia 166 20052", "Nome impianto": "PV 2172 Monza V. Lombardia", "Comune": "MONZA", "idImpianto": 38524, "points": [{"type": "Feature", "properties": {}, "geometry": {"type": "Point", "coordinates": [9.24692600852893, 45.5745145949299]}}], "price": 1.929, "ultima_rilevazione": "30/05/2022 00:14:03"}, {"Gestore": "SERVIZI & GESTIONI ITALIA S.R.L.", "Bandiera": "Q8", "Tipo impianto": "Altro", "Indirizzo": "VIA AMATI CEDERNA 94 20052", "Nome impianto": "MONZA-VIA AMATI CEDERNA 94", "Comune": "MONZA", "idImpianto": 11641, "points": [{"type": "Feature", "properties": {}, "geometry": {"type": "Point", "coordinates": [9.297008629465154, 45.581912830381725]}}], "price": 1.919, "ultima_rilevazione": "30/05/2022 00:34:54"}, {"Gestore": "SERVIZI & GESTIONI ITALIA S.R.L.", "Bandiera": "Q8", "Tipo impianto": "Altro", "Indirizzo": "VIA BETTOLA - ANGOLO VIA CASTALDI 32 20092", "Nome impianto": "CINISELLO BALSAMO-VIA BETTOLA 32 - ANGOLO VIA CASTALDI", "Comune": "CINISELLO BALSAMO", "idImpianto": 11710, "points": [{"type": "Feature", "properties": {}, "geometry": {"type": "Point", "coordinates": [9.243809580802916, 45.556688014194734]}}], "price": 1.899, "ultima_rilevazione": "30/05/2022 00:34:56"}, {"Gestore": "DALLAVALLE S.A.S. DI BONFANTI MASSIMO & C.", "Bandiera": "Q8", "Tipo impianto": "Altro", "Indirizzo": "VIA ROMAGNA  20900", "Nome impianto": "DALLAVALLE S.A.S. DI BONFANTI MASSIMO & C.", "Comune": "MONZA", "idImpianto": 38696, "points": [{"type": "Feature", "properties": {}, "geometry": {"type": "Point", "coordinates": [9.253979846835136, 45.573366739548135]}}], "price": 1.899, "ultima_rilevazione": "30/05/2022 06:56:23"}, {"Gestore": "STELLUTI LIBERO SNC", "Bandiera": "Esso", "Tipo impianto": "Altro", "Indirizzo": "corso milano 32 20900", "Nome impianto": "stazione di servizio esso di stelluti libero snc", "Comune": "MONZA", "idImpianto": 21145, "points": [{"type": "Feature", "properties": {}, "geometry": {"type": "Point", "coordinates": [9.271898106220988, 45.57866365616646]}}], "price": 1.869, "ultima_rilevazione": "30/05/2022 06:56:47"}, {"Gestore": "ESSEBI S.N.C. DI BORACCO LORENZO E SALA ANDREA", "Bandiera": "Esso", "Tipo impianto": "Altro", "Indirizzo": "viale vittorio veneto 19 20900", "Nome impianto": "esso", "Comune": "MONZA", "idImpianto": 37759, "points": [{"type": "Feature", "properties": {}, "geometry": {"type": "Point", "coordinates": [9.253012496958943, 45.57905863394036]}}], "price": 1.876, "ultima_rilevazione": "30/05/2022 07:31:43"}, {"Gestore": "BIFFI THOMAS", "Bandiera": "Agip Eni", "Tipo impianto": "Altro", "Indirizzo": "STRADA PROVINCIALE 2 MONZA-TREZZO KM.1+400  20863", "Nome impianto": "BIFFI THOMAS - AGIP", "Comune": "CONCOREZZO", "idImpianto": 14347, "points": [{"type": "Feature", "properties": {}, "geometry": {"type": "Point", "coordinates": [9.323086957167106, 45.59119325497423]}}], "price": 1.924, "ultima_rilevazione": "30/05/2022 07:40:05"}, {"Gestore": "FERRARI & MARIANI S.N.C. DI FERRARI STEFANO & C.", "Bandiera": "Agip Eni", "Tipo impianto": "Altro", "Indirizzo": "VIALE SICILIA 40 20900", "Nome impianto": "ferrari & mariani snc", "Comune": "MONZA", "idImpianto": 11978, "points": [{"type": "Feature", "properties": {}, "geometry": {"type": "Point", "coordinates": [9.302946925163267, 45.58137197335687]}}], "price": 1.924, "ultima_rilevazione": "30/05/2022 07:47:34"}, {"Gestore": "DE NITTIS PASQUALE", "Bandiera": "Tamoil", "Tipo impianto": "Altro", "Indirizzo": "VIALE CAMPANIA 8 20900", "Nome impianto": "STAZIONE DI SERVIZIO TAMOIL", "Comune": "MONZA", "idImpianto": 9990, "points": [{"type": "Feature", "properties": {}, "geometry": {"type": "Point", "coordinates": [9.258126151520514, 45.5659023786019]}}], "price": 2.049, "ultima_rilevazione": "29/05/2022 15:06:09"}], "5": [{"Gestore": "ALCA S.N.C. DI TROIANO E LUPOLI", "Bandiera": "Q8", "Tipo impianto": "Altro", "Indirizzo": "VIALE FULVIO TESTI 214 20092", "Nome impianto": "ALCA s.n.c.", "Comune": "CINISELLO BALSAMO", "idImpianto": 31194, "points": [{"type": "Feature", "properties": {}, "geometry": {"type": "Point", "coordinates": [9.233167916536331, 45.54780119027294]}}], "price": 1.769, "ultima_rilevazione": "15/11/2021 08:58:13"}, {"Gestore": "DI DIO CALDERONE CONCETTA", "Bandiera": "Api-Ip", "Tipo impianto": "Altro", "Indirizzo": "via lecco km 1,5  20864", "Nome impianto": "IP", "Comune": "AGRATE BRIANZA", "idImpianto": 4730, "points": [{"type": "Feature", "properties": {}, "geometry": {"type": "Point", "coordinates": [9.357761000123, 45.585854000123]}}], "price": 1.839, "ultima_rilevazione": "27/05/2022 22:52:41"}, {"Gestore": "BR.IT ENERGY SRL", "Bandiera": "Q8", "Tipo impianto": "Altro", "Indirizzo": "VIA VIGANO DE' VIZZI  36 20092", "Nome impianto": "Q8 PV 1061", "Comune": "CINISELLO BALSAMO", "idImpianto": 51243, "points": [{"type": "Feature", "properties": {}, "geometry": {"type": "Point", "coordinates": [9.23158615430675, 45.56033578108916]}}], "price": 1.739, "ultima_rilevazione": "26/04/2022 08:56:11"}, {"Gestore": "EASYSERVICE DI DELLOLIO MARIA", "Bandiera": "Pompe Bianche", "Tipo impianto": "Altro", "Indirizzo": "Via Monterosa SNC 20863", "Nome impianto": "Petrol Outlet", "Comune": "CONCOREZZO", "idImpianto": 41835, "points": [{"type": "Feature", "properties": {}, "geometry": {"type": "Point", "coordinates": [9.321381747722626, 45.59667035972453]}}], "price": 1.899, "ultima_rilevazione": "18/05/2022 13:49:15"}, {"Gestore": "PNEUSCARS 2 S.A.S. DI TERRANE FABIO & C.", "Bandiera": "Agip Eni", "Tipo impianto": "Altro", "Indirizzo": "VIA MILANO 9 20096", "Nome impianto": "Eni", "Comune": "PIOLTELLO", "idImpianto": 12081, "points": [{"type": "Feature", "properties": {}, "geometry": {"type": "Point", "coordinates": [9.331360636840031, 45.50138514073774]}}], "price": 1.919, "ultima_rilevazione": "19/05/2022 16:16:21"}, {"Gestore": "U.M.A. S.A.S. DI MARCO CELARI E C.", "Bandiera": "Esso", "Tipo impianto": "Altro", "Indirizzo": "via antica cassanese km 8,5  20060", "Nome impianto": "esso", "Comune": "CASSINA DE' PECCHI", "idImpianto": 33725, "points": [{"type": "Feature", "properties": {}, "geometry": {"type": "Point", "coordinates": [9.35478463768959, 45.50391517393423]}}], "price": 1.899, "ultima_rilevazione": "20/05/2022 12:21:09"}, {"Gestore": "AUTOLAVAGGIO LATINO DI VICENTE CASTILLO CARLOS FRANCISCO", "Bandiera": "Api-Ip", "Tipo impianto": "Altro", "Indirizzo": "VIA DANTE ALIGHIERI   20863", "Nome impianto": "IP Via Dante alighieri concorezzo", "Comune": "CONCOREZZO", "idImpianto": 47249, "points": [{"type": "Feature", "properties": {}, "geometry": {"type": "Point", "coordinates": [9.340127832100142, 45.59543823253673]}}], "price": 1.859, "ultima_rilevazione": "23/05/2022 09:45:21"}, {"Gestore": "PROGETTI E SVILUPPO S.A.S. DI  MARAZZINA PAOLO E C.", "Bandiera": "KEROPETROL", "Tipo impianto": "Altro", "Indirizzo": "VIA MONFALCONE SNC 20092", "Nome impianto": "Keropetrol  Cinisello Balsamo MI", "Comune": "CINISELLO BALSAMO", "idImpianto": 46561, "points": [{"type": "Feature", "properties": {}, "geometry": {"type": "Point", "coordinates": [9.216780691950476, 45.5514147041983]}}], "price": 1.955, "ultima_rilevazione": "23/05/2022 11:45:48"}, {"Gestore": "SCARFONE COSIMO", "Bandiera": "Agip Eni", "Tipo impianto": "Altro", "Indirizzo": "mazzini  20835", "Nome impianto": "eni", "Comune": "MUGGIO'", "idImpianto": 41512, "points": [{"type": "Feature", "properties": {}, "geometry": {"type": "Point", "coordinates": [9.233100190758703, 45.59301366559917]}}], "price": 1.879, "ultima_rilevazione": "24/05/2022 09:10:31"}, {"Gestore": "FERRO MAURO", "Bandiera": "Agip Eni", "Tipo impianto": "Strada Statale", "Indirizzo": "Strada Statale, Km. 1+280, melzo 20867", "Nome impianto": "stazione eni ferro mauro", "Comune": "CAPONAGO", "idImpianto": 45069, "points": [{"type": "Feature", "properties": {}, "geometry": {"type": "Point", "coordinates": [9.376779000123, 45.560100000123]}}], "price": 1.894, "ultima_rilevazione": "24/05/2022 13:05:51"}, {"Gestore": "OIL COMPANY DI LOVINO FILOMENO", "Bandiera": "Esso", "Tipo impianto": "Strada Statale", "Indirizzo": "Statale 11 Padana Superiore, Km. 57, dir. Milano 20063", "Nome impianto": "ESSO - OIL COMPANY DI LOVINO FILOMENO", "Comune": "CERNUSCO SUL NAVIGLIO", "idImpianto": 27881, "points": [{"type": "Feature", "properties": {}, "geometry": {"type": "Point", "coordinates": [9.331437349319458, 45.5150830330387]}}], "price": 1.899, "ultima_rilevazione": "24/05/2022 16:05:59"}, {"Gestore": "G.T. CARBURANTI  DI  GIULIANI TOMMASO MARCO", "Bandiera": "Esso", "Tipo impianto": "Altro", "Indirizzo": "VIALE MARELLI 266 20099", "Nome impianto": "ESSO GTcarburanti", "Comune": "SESTO SAN GIOVANNI", "idImpianto": 31812, "points": [{"type": "Feature", "properties": {}, "geometry": {"type": "Point", "coordinates": [9.22847156745911, 45.52596815708628]}}], "price": 2.059, "ultima_rilevazione": "24/05/2022 21:00:49"}, {"Gestore": "EGI-2GO S.R.L.", "Bandiera": "Esso", "Tipo impianto": "Altro", "Indirizzo": "VIA G. MAZZINI 13 20835", "Nome impianto": "Muggio", "Comune": "MUGGIO'", "idImpianto": 48001, "points": [{"type": "Feature", "properties": {}, "geometry": {"type": "Point", "coordinates": [9.236082046627049, 45.59281963065065]}}], "price": 1.859, "ultima_rilevazione": "25/05/2022 17:09:38"}, {"Gestore": "NASSER PETROL SOCIETA' A RESPONSABILITA' LIMITATA SEMPLIFICATA", "Bandiera": "KEROPETROL", "Tipo impianto": "Altro", "Indirizzo": "VIALE Fratello Casiraghi 270 20099", "Nome impianto": "keropetrol", "Comune": "SESTO SAN GIOVANNI", "idImpianto": 50167, "points": [{"type": "Feature", "properties": {}, "geometry": {"type": "Point", "coordinates": [9.23442288458464, 45.54196656139872]}}], "price": 1.869, "ultima_rilevazione": "25/05/2022 19:44:50"}, {"Gestore": "LOR GAS DI OLIVARES RODRIGUEZ JUAN CARLOS", "Bandiera": "Api-Ip", "Tipo impianto": "Altro", "Indirizzo": "via ugo foscolo  20900", "Nome impianto": "totalerg", "Comune": "MONZA", "idImpianto": 11211, "points": [{"type": "Feature", "properties": {}, "geometry": {"type": "Point", "coordinates": [9.22737032175064, 45.57082423144908]}}], "price": 1.914, "ultima_rilevazione": "26/05/2022 10:22:26"}, {"Gestore": "TI-QUATTRO T.4 SRL", "Bandiera": "Agip Eni", "Tipo impianto": "Autostradale", "Indirizzo": "Autostrada A51 TANG.LE EST DI MILANO, Km. 9+720, dir. sud 20132", "Nome impianto": "CASCINA GOBBA OVEST", "Comune": "MILANO", "idImpianto": 33504, "points": [{"type": "Feature", "properties": {}, "geometry": {"type": "Point", "coordinates": [9.2592591047287, 45.50671157590588]}}], "price": 1.936, "ultima_rilevazione": "26/05/2022 16:26:21"}, {"Gestore": "MANFREDI LUCA", "Bandiera": "Agip Eni", "Tipo impianto": "Altro", "Indirizzo": "VIALE MONZA 316 20128", "Nome impianto": "ENI di manfredi luca", "Comune": "MILANO", "idImpianto": 44907, "points": [{"type": "Feature", "properties": {}, "geometry": {"type": "Point", "coordinates": [9.227576000123, 45.520849000123]}}], "price": 1.929, "ultima_rilevazione": "27/05/2022 06:18:05"}, {"Gestore": "TUFO CARMINE  S.N.C. DI TUFO CARMINE E C.", "Bandiera": "Agip Eni", "Tipo impianto": "Altro", "Indirizzo": "VIALE ITALIA ANGOLO VIA ISONZO  20099", "Nome impianto": "TUFO SNC", "Comune": "SESTO SAN GIOVANNI", "idImpianto": 4272, "points": [{"type": "Feature", "properties": {}, "geometry": {"type": "Point", "coordinates": [9.233606457710266, 45.52644861308865]}}], "price": 1.929, "ultima_rilevazione": "27/05/2022 07:16:05"}, {"Gestore": "CALOGERO LUCA", "Bandiera": "Api-Ip", "Tipo impianto": "Altro", "Indirizzo": "VIA DANTE ALIGHIERI 84 20092", "Nome impianto": "Stazione di servizio IP d", "Comune": "CINISELLO BALSAMO", "idImpianto": 8744, "points": [{"type": "Feature", "properties": {}, "geometry": {"type": "Point", "coordinates": [9.209659200663737, 45.55304702467864]}}], "price": 1.974, "ultima_rilevazione": "27/05/2022 08:35:09"}, {"Gestore": "SACCHETTO DANIELE", "Bandiera": "Agip Eni", "Tipo impianto": "Altro", "Indirizzo": "STRADA PADANA SUPERIORE 229 20090", "Nome impianto": "ENI", "Comune": "VIMODRONE", "idImpianto": 48117, "points": [{"type": "Feature", "properties": {}, "geometry": {"type": "Point", "coordinates": [9.284789434358592, 45.51181951836233]}}], "price": 1.884, "ultima_rilevazione": "27/05/2022 08:35:30"}, {"Gestore": "G.F. DI SAITTA GIUSEPPE & C. S.A.S.", "Bandiera": "Agip Eni", "Tipo impianto": "Altro", "Indirizzo": "VIA TRENTO 66 20871", "Nome impianto": "G.F. DI SAITTA GIUSEPPE & C. S.A.S.", "Comune": "VIMERCATE", "idImpianto": 50778, "points": [{"type": "Feature", "properties": {}, "geometry": {"type": "Point", "coordinates": [9.35947337933444, 45.59093401235108]}}], "price": 1.924, "ultima_rilevazione": "27/05/2022 08:47:17"}, {"Gestore": "DUELLE S.N.C. DI MARCO E SIMONE LEVATI", "Bandiera": "Agip Eni", "Tipo impianto": "Altro", "Indirizzo": "VIA TORINO S.P.121 KM. 2+400  20063", "Nome impianto": "DUELLE SNC DI SIMONE E MARCO LEVATI", "Comune": "CERNUSCO SUL NAVIGLIO", "idImpianto": 11293, "points": [{"type": "Feature", "properties": {}, "geometry": {"type": "Point", "coordinates": [9.338799389162205, 45.504134696116026]}}], "price": 1.929, "ultima_rilevazione": "27/05/2022 09:42:42"}, {"Gestore": "STAZIONE DI SERVIZIO SNC DI DE NARDI ROBERTO & C.", "Bandiera": "Esso", "Tipo impianto": "Altro", "Indirizzo": "Viale fulvio testi 141 20092", "Nome impianto": "Stazione di servizio snc", "Comune": "CINISELLO BALSAMO", "idImpianto": 20204, "points": [{"type": "Feature", "properties": {}, "geometry": {"type": "Point", "coordinates": [9.22626298954924, 45.546465100148346]}}], "price": 1.879, "ultima_rilevazione": "27/05/2022 10:56:10"}, {"Gestore": "FERA MARCO", "Bandiera": "Agip Eni", "Tipo impianto": "Altro", "Indirizzo": "via robecco  27 20092", "Nome impianto": "eni", "Comune": "CINISELLO BALSAMO", "idImpianto": 40748, "points": [{"type": "Feature", "properties": {}, "geometry": {"type": "Point", "coordinates": [9.220705364417997, 45.55809624391139]}}], "price": 1.924, "ultima_rilevazione": "27/05/2022 11:39:36"}, {"Gestore": "ZACCHI RENATO", "Bandiera": "Agip Eni", "Tipo impianto": "Altro", "Indirizzo": "VIALE EUROPA 13 BIS 20060", "Nome impianto": "ENI BUSSERO", "Comune": "BUSSERO", "idImpianto": 41033, "points": [{"type": "Feature", "properties": {}, "geometry": {"type": "Point", "coordinates": [9.374386614749938, 45.530786489777256]}}], "price": 1.924, "ultima_rilevazione": "27/05/2022 13:25:24"}, {"Gestore": "AG SAS DI ABBATTISTA GIOVANNI", "Bandiera": "Agip Eni", "Tipo impianto": "Strada Statale", "Indirizzo": "Statale 11 Padana Superiore, Km. 158+082, dir. SUD 20060", "Nome impianto": "STAZIONE SERVIZIO ENI", "Comune": "CASSINA DE' PECCHI", "idImpianto": 6164, "points": [{"type": "Feature", "properties": {}, "geometry": {"type": "Point", "coordinates": [9.357555359601974, 45.51818409200797]}}], "price": 1.924, "ultima_rilevazione": "27/05/2022 13:47:30"}, {"Gestore": "LEVAGGI ROBERTO", "Bandiera": "Agip Eni", "Tipo impianto": "Altro", "Indirizzo": "Viale Fulvio Testi 25 20099", "Nome impianto": "ENI 2480", "Comune": "SESTO SAN GIOVANNI", "idImpianto": 38484, "points": [{"type": "Feature", "properties": {}, "geometry": {"type": "Point", "coordinates": [9.217412733729589, 45.53491661675064]}}], "price": 1.929, "ultima_rilevazione": "27/05/2022 14:47:26"}, {"Gestore": "BRITA S.A.S. DI D'AMATO DAVIDE & C.", "Bandiera": "Pompe Bianche", "Tipo impianto": "Altro", "Indirizzo": "VIA PRIVATA VICINALE 2/7 20852", "Nome impianto": "BRITA S.A.S", "Comune": "VILLASANTA", "idImpianto": 49253, "points": [{"type": "Feature", "properties": {}, "geometry": {"type": "Point", "coordinates": [9.30842854232789, 45.59988219820851]}}], "price": 1.899, "ultima_rilevazione": "27/05/2022 15:31:02"}, {"Gestore": "KEROPETROL S.P.A.", "Bandiera": "KEROPETROL", "Tipo impianto": "Altro", "Indirizzo": "Viale Fulvio Testi SNC 20092", "Nome impianto": "KEROPETROL SPA CINISELLO BALSAMO", "Comune": "CINISELLO BALSAMO", "idImpianto": 40566, "points": [{"type": "Feature", "properties": {}, "geometry": {"type": "Point", "coordinates": [9.225009977817535, 45.54521808386223]}}], "price": 1.914, "ultima_rilevazione": "27/05/2022 16:09:20"}, {"Gestore": "FOLTRAN MARCO", "Bandiera": "Api-Ip", "Tipo impianto": "Altro", "Indirizzo": "Via Combattenti 4 20835", "Nome impianto": "IP", "Comune": "MUGGIO'", "idImpianto": 10320, "points": [{"type": "Feature", "properties": {}, "geometry": {"type": "Point", "coordinates": [9.230070086508247, 45.57588091184567]}}], "price": 1.899, "ultima_rilevazione": "27/05/2022 16:14:13"}, {"Gestore": "EUROPAM S.R.L.", "Bandiera": "Europam", "Tipo impianto": "Altro", "Indirizzo": "VIALE PADOVA 316 20132", "Nome impianto": "EUROPAM MILANO", "Comune": "MILANO", "idImpianto": 34772, "points": [{"type": "Feature", "properties": {}, "geometry": {"type": "Point", "coordinates": [9.251038485913796, 45.510396225494496]}}], "price": 1.867, "ultima_rilevazione": "27/05/2022 16:22:38"}, {"Gestore": "TECNISERVICE - S.N.C. DI IERARDI SIMONE & C.", "Bandiera": "Api-Ip", "Tipo impianto": "Altro", "Indirizzo": "VIALE MONZA 280 20128", "Nome impianto": "TECNISERVICE SNC", "Comune": "MILANO", "idImpianto": 18859, "points": [{"type": "Feature", "properties": {}, "geometry": {"type": "Point", "coordinates": [9.226599896958987, 45.51816621244278]}}], "price": 1.899, "ultima_rilevazione": "27/05/2022 16:58:15"}, {"Gestore": "MILANO SERVICE S.N.C. DI MILICI DAVIDE & IEVA VINCENZO", "Bandiera": "Repsol", "Tipo impianto": "Altro", "Indirizzo": "S.P. 2 KM 3    20863", "Nome impianto": "REPSOL ", "Comune": "CONCOREZZO", "idImpianto": 46585, "points": [{"type": "Feature", "properties": {}, "geometry": {"type": "Point", "coordinates": [9.3511094823632, 45.59862339923655]}}], "price": 1.919, "ultima_rilevazione": "27/05/2022 17:25:40"}, {"Gestore": "PB6 S.A.S. DI PARENTE VITO & C.", "Bandiera": "Pompe Bianche", "Tipo impianto": "Altro", "Indirizzo": "VIA PER CRESCENZAGO 6 20099", "Nome impianto": "Petrol Outlet", "Comune": "SESTO SAN GIOVANNI", "idImpianto": 46708, "points": [{"type": "Feature", "properties": {}, "geometry": {"type": "Point", "coordinates": [9.241200367124408, 45.52200318608135]}}], "price": 1.869, "ultima_rilevazione": "27/05/2022 18:38:33"}, {"Gestore": "SERVIZI & GESTIONI ITALIA S.R.L.", "Bandiera": "Q8", "Tipo impianto": "Altro", "Indirizzo": "VIA ROMA 70 20060", "Nome impianto": "CASSINA DE' PECCHI-VIA ROMA 70", "Comune": "CASSINA DE' PECCHI", "idImpianto": 11688, "points": [{"type": "Feature", "properties": {}, "geometry": {"type": "Point", "coordinates": [9.365186645507832, 45.51936083416594]}}], "price": 1.919, "ultima_rilevazione": "28/05/2022 02:05:12"}, {"Gestore": "SERVIZI & GESTIONI ITALIA srl", "Bandiera": "Q8", "Tipo impianto": "Altro", "Indirizzo": "VIA MONTE ORTIGARA 19 20092", "Nome impianto": "CINISELLO BALSAMO VIA MONTE ORTIGARA  19", "Comune": "CINISELLO BALSAMO", "idImpianto": 6434, "points": [{"type": "Feature", "properties": {}, "geometry": {"type": "Point", "coordinates": [9.211831747221368, 45.559275424392986]}}], "price": 1.859, "ultima_rilevazione": "28/05/2022 02:05:13"}, {"Gestore": "SERVIZI & GESTIONI ITALIA S.R.L.", "Bandiera": "Q8", "Tipo impianto": "Altro", "Indirizzo": "VIALE F.TESTI 132 20092", "Nome impianto": "CINISELLO BALSAMO-VIALE F.TESTI 132", "Comune": "CINISELLO BALSAMO", "idImpianto": 11681, "points": [{"type": "Feature", "properties": {}, "geometry": {"type": "Point", "coordinates": [9.220952885913904, 45.54087659053977]}}], "price": 1.879, "ultima_rilevazione": "28/05/2022 02:05:14"}, {"Gestore": "SERVIZI & GESTIONI ITALIA S.R.L.", "Bandiera": "Q8", "Tipo impianto": "Altro", "Indirizzo": "VIA RISORGIMENTO 120 20092", "Nome impianto": "CINISELLO BALSAMO-VIA RISORGIMENTO 120", "Comune": "CINISELLO BALSAMO", "idImpianto": 11709, "points": [{"type": "Feature", "properties": {}, "geometry": {"type": "Point", "coordinates": [9.211318192625072, 45.5656530402386]}}], "price": 1.949, "ultima_rilevazione": "28/05/2022 07:34:28"}, {"Gestore": "SERVIZI & GESTIONI ITALIA S.R.L.", "Bandiera": "Q8", "Tipo impianto": "Altro", "Indirizzo": "S.P 242 KM 4+578 S/N  20060", "Nome impianto": "PESSANO CON BORNAGO -S.P 242 KM 4+578", "Comune": "PESSANO CON BORNAGO", "idImpianto": 11711, "points": [{"type": "Feature", "properties": {}, "geometry": {"type": "Point", "coordinates": [9.389155568122874, 45.549163863694574]}}], "price": 1.919, "ultima_rilevazione": "28/05/2022 07:34:34"}, {"Gestore": "SERVIZI & GESTIONI ITALIA S.R.L.", "Bandiera": "Q8", "Tipo impianto": "Altro", "Indirizzo": "VIALE RIMEMBRANZE 175 20099", "Nome impianto": "SESTO SAN GIOVANNI-VIALE RIMEMBRANZE 175", "Comune": "SESTO SAN GIOVANNI", "idImpianto": 11700, "points": [{"type": "Feature", "properties": {}, "geometry": {"type": "Point", "coordinates": [9.241302331352244, 45.52596455007453]}}], "price": 1.869, "ultima_rilevazione": "28/05/2022 07:34:35"}, {"Gestore": "SERVIZI & GESTIONI ITALIA srl", "Bandiera": "Q8", "Tipo impianto": "Altro", "Indirizzo": "V MATTEOTTI 104 20099", "Nome impianto": "SESTO SAN GIOVANNI V MATTEOTTI 104", "Comune": "SESTO SAN GIOVANNI", "idImpianto": 6445, "points": [{"type": "Feature", "properties": {}, "geometry": {"type": "Point", "coordinates": [9.22621838836062, 45.53662892477784]}}], "price": 1.909, "ultima_rilevazione": "28/05/2022 07:34:36"}, {"Gestore": "SERVIZI & GESTIONI ITALIA S.R.L.", "Bandiera": "Q8", "Tipo impianto": "Altro", "Indirizzo": "VIA PELIZZA DA VOLPEDO  20092", "Nome impianto": "CINISELLO BALSAMO VIA PELIZZA DA VOLPEDO", "Comune": "CINISELLO BALSAMO", "idImpianto": 42916, "points": [{"type": "Feature", "properties": {}, "geometry": {"type": "Point", "coordinates": [9.23242891226846, 45.555156760928725]}}], "price": 1.929, "ultima_rilevazione": "28/05/2022 07:34:36"}, {"Gestore": "ALMAS AUTOLAVAGGIO DI MAZHAR MOHAMMAD AYYAZ", "Bandiera": "Esso", "Tipo impianto": "Altro", "Indirizzo": "VIALE LOMBARDIA 16 20900", "Nome impianto": "ESSO - ALMAS AUTOLAVAGGIO", "Comune": "MONZA", "idImpianto": 51146, "points": [{"type": "Feature", "properties": {}, "geometry": {"type": "Point", "coordinates": [9.252574549598677, 45.58845789608662]}}], "price": 1.929, "ultima_rilevazione": "28/05/2022 07:46:16"}, {"Gestore": "VINCIGESTIONI S.A.S. DI VINCI D. & C.", "Bandiera": "Agip Eni", "Tipo impianto": "Autostradale", "Indirizzo": "Autostrada A51 TANG.LE EST DI MILANO, Km. 9.688, dir. Nord 20132", "Nome impianto": "CASCINA GOBBA EST", "Comune": "MILANO", "idImpianto": 3762, "points": [{"type": "Feature", "properties": {}, "geometry": {"type": "Point", "coordinates": [9.26119029521942, 45.5069521848044]}}], "price": 1.946, "ultima_rilevazione": "28/05/2022 08:35:07"}, {"Gestore": "GOBBI MARZIO ENRICO", "Bandiera": "Agip Eni", "Tipo impianto": "Altro", "Indirizzo": "Cavalcavia Cascina Gobba 18 20132", "Nome impianto": "AGIP", "Comune": "MILANO", "idImpianto": 31373, "points": [{"type": "Feature", "properties": {}, "geometry": {"type": "Point", "coordinates": [9.26308370727088, 45.51373784831252]}}], "price": 1.889, "ultima_rilevazione": "28/05/2022 09:13:37"}, {"Gestore": "CALOR SYSTEMS S.R.L.", "Bandiera": "Api-Ip", "Tipo impianto": "Altro", "Indirizzo": "Via Mantegna 12 20096", "Nome impianto": "PIOLTELLO MANTEGNA", "Comune": "PIOLTELLO", "idImpianto": 48073, "points": [{"type": "Feature", "properties": {}, "geometry": {"type": "Point", "coordinates": [9.330787259507195, 45.50368496110519]}}], "price": 1.899, "ultima_rilevazione": "28/05/2022 09:21:55"}, {"Gestore": "DEDA CARBURANTI S.N.C. DI DEDAMIANI VITO & C.", "Bandiera": "Api-Ip", "Tipo impianto": "Altro", "Indirizzo": "strada provinciale cassanese 175 20090", "Nome impianto": "Distributore IP", "Comune": "SEGRATE", "idImpianto": 16098, "points": [{"type": "Feature", "properties": {}, "geometry": {"type": "Point", "coordinates": [9.289973080158234, 45.49656371129011]}}], "price": 1.899, "ultima_rilevazione": "28/05/2022 15:23:18"}, {"Gestore": "IPERSTAROIL S.R.L.", "Bandiera": "Auchan", "Tipo impianto": "Altro", "Indirizzo": "SS 11 STRADA PADANA SUPERIORE SNC 20090", "Nome impianto": "Vimodrone", "Comune": "VIMODRONE", "idImpianto": 50293, "points": [{"type": "Feature", "properties": {}, "geometry": {"type": "Point", "coordinates": [9.301722939794814, 45.50974450420151]}}], "price": 1.839, "ultima_rilevazione": "29/05/2022 08:20:12"}, {"Gestore": "AUTOMARKET DI FUMAGALLI & BRAMBILLA S.N.C.", "Bandiera": "Agip Eni", "Tipo impianto": "Altro", "Indirizzo": "VIA PROVINCIALE 15 20060", "Nome impianto": "ENI AUTOMARKET SNC", "Comune": "PESSANO CON BORNAGO", "idImpianto": 14598, "points": [{"type": "Feature", "properties": {}, "geometry": {"type": "Point", "coordinates": [9.38745020163242, 45.55289646788714]}}], "price": 1.929, "ultima_rilevazione": "29/05/2022 10:34:01"}, {"Gestore": "IP SERVICES S.R.L.", "Bandiera": "Api-Ip", "Tipo impianto": "Altro", "Indirizzo": "VIALE EDISON  20058", "Nome impianto": "VILLASANTA - EDISON", "Comune": "VILLASANTA", "idImpianto": 32759, "points": [{"type": "Feature", "properties": {}, "geometry": {"type": "Point", "coordinates": [9.305534868717132, 45.6045662231796]}}], "price": 1.879, "ultima_rilevazione": "29/05/2022 12:01:20"}, {"Gestore": "IP SERVICES S.R.L.", "Bandiera": "Api-Ip", "Tipo impianto": "Altro", "Indirizzo": "VIALE FULVIO TESTI  51 20092", "Nome impianto": "CINISELLO BALSAMO - FULVIO TESTI 51", "Comune": "CINISELLO BALSAMO", "idImpianto": 28047, "points": [{"type": "Feature", "properties": {}, "geometry": {"type": "Point", "coordinates": [9.220614752149572, 45.54258215365598]}}], "price": 1.869, "ultima_rilevazione": "29/05/2022 12:02:57"}, {"Gestore": "IP SERVICES S.R.L.", "Bandiera": "Api-Ip", "Tipo impianto": "Altro", "Indirizzo": "Via Fulvio Testi 196 20092", "Nome impianto": "CINISELLO BALSAMO", "Comune": "CINISELLO BALSAMO", "idImpianto": 5529, "points": [{"type": "Feature", "properties": {}, "geometry": {"type": "Point", "coordinates": [9.229324635581976, 45.54657702743668]}}], "price": 1.869, "ultima_rilevazione": "29/05/2022 12:04:54"}, {"Gestore": "DUE ESSE DI SECCHIERO VITTORIO E C. SNC", "Bandiera": "Tamoil", "Tipo impianto": "Altro", "Indirizzo": "str.prov 60 km.0+700  lato nord ovest  ", "Nome impianto": "tamoil", "Comune": "CONCOREZZO", "idImpianto": 9456, "points": [{"type": "Feature", "properties": {}, "geometry": {"type": "Point", "coordinates": [9.32466745376587, 45.60481188189896]}}], "price": 1.889, "ultima_rilevazione": "29/05/2022 15:06:09"}, {"Gestore": "T.D.M. S.R.L.", "Bandiera": "Tamoil", "Tipo impianto": "Altro", "Indirizzo": "Strada Padana Superiore 33 20090", "Nome impianto": "4935", "Comune": "VIMODRONE", "idImpianto": 30060, "points": [{"type": "Feature", "properties": {}, "geometry": {"type": "Point", "coordinates": [9.2705699801445, 45.512299564660765]}}], "price": 1.859, "ultima_rilevazione": "29/05/2022 15:22:06"}, {"Gestore": "PROVVIDO SALVATORE", "Bandiera": "Retitalia", "Tipo impianto": "Altro", "Indirizzo": "VIA ABRAMO LINCOLN 7 20092", "Nome impianto": "Retitalia", "Comune": "CINISELLO BALSAMO", "idImpianto": 12462, "points": [{"type": "Feature", "properties": {}, "geometry": {"type": "Point", "coordinates": [9.227097333712209, 45.55886811119226]}}], "price": 1.919, "ultima_rilevazione": "29/05/2022 22:12:45"}, {"Gestore": "ACEMA S.P.A.", "Bandiera": "OIL ONE", "Tipo impianto": "Altro", "Indirizzo": "Via Saint Denis 1 20092", "Nome impianto": "OILONE CINISELLO BALSAMO", "Comune": "CINISELLO BALSAMO", "idImpianto": 27082, "points": [{"type": "Feature", "properties": {}, "geometry": {"type": "Point", "coordinates": [9.22249250118864, 45.54084405659239]}}], "price": 1.879, "ultima_rilevazione": "30/05/2022 07:12:07"}, {"Gestore": "ALFA PETROLI SRL", "Bandiera": "Pompe Bianche", "Tipo impianto": "Altro", "Indirizzo": "VIA LEONARDO DA VINCI 72 20852", "Nome impianto": "ALFA PETROLI", "Comune": "VILLASANTA", "idImpianto": 6868, "points": [{"type": "Feature", "properties": {}, "geometry": {"type": "Point", "coordinates": [9.310900993883138, 45.61479977067869]}}], "price": 1.879, "ultima_rilevazione": "30/05/2022 00:20:17"}, {"Gestore": "SERVIZI & GESTIONI ITALIA S.R.L.", "Bandiera": "Q8", "Tipo impianto": "Altro", "Indirizzo": "VIA U.GIORDANO S/N 20092", "Nome impianto": "CINISELLO BALSAMO-VIA U.GIORDANO", "Comune": "CINISELLO BALSAMO", "idImpianto": 11676, "points": [{"type": "Feature", "properties": {}, "geometry": {"type": "Point", "coordinates": [9.219528746032664, 45.55855024253631]}}], "price": 1.879, "ultima_rilevazione": "30/05/2022 00:34:55"}, {"Gestore": "SERVIZI & GESTIONI ITALIA S.R.L.", "Bandiera": "Q8", "Tipo impianto": "Altro", "Indirizzo": "VIA LINCOLN ANG.VIA ROBECCO S/N 20092", "Nome impianto": "CINISELLO BALSAMO-VIA LINCOLN ANG.VIA ROBECCO", "Comune": "CINISELLO BALSAMO", "idImpianto": 11680, "points": [{"type": "Feature", "properties": {}, "geometry": {"type": "Point", "coordinates": [9.227057084655826, 45.55971971323913]}}], "price": 1.879, "ultima_rilevazione": "30/05/2022 00:34:55"}, {"Gestore": "SERVIZI & GESTIONI ITALIA S.R.L.", "Bandiera": "Q8", "Tipo impianto": "Altro", "Indirizzo": "VIA RIZZOLI 20 20100", "Nome impianto": "VIA RIZZOLI 20 MILANO", "Comune": "MILANO", "idImpianto": 27071, "points": [{"type": "Feature", "properties": {}, "geometry": {"type": "Point", "coordinates": [9.2532978951931, 45.506649167810565]}}], "price": 1.884, "ultima_rilevazione": "30/05/2022 00:34:56"}, {"Gestore": "SERVIZI & GESTIONI ITALIA S.R.L.", "Bandiera": "Q8", "Tipo impianto": "Altro", "Indirizzo": "PIAZZA CASTELLO 43 20060", "Nome impianto": "PESSANO CON BORNAGO-PIAZZA CASTELLO 43", "Comune": "PESSANO CON BORNAGO", "idImpianto": 11654, "points": [{"type": "Feature", "properties": {}, "geometry": {"type": "Point", "coordinates": [9.383887171793049, 45.55137231340641]}}], "price": 1.959, "ultima_rilevazione": "30/05/2022 00:35:00"}, {"Gestore": "SERVIZI & GESTIONI ITALIA S.R.L.", "Bandiera": "Q8", "Tipo impianto": "Altro", "Indirizzo": "FZ.ROVAGNASCO VIA MONZESE/MANZONI S/N 20090", "Nome impianto": "SEGRATE-FZ.ROVAGNASCO VIA MONZESE/MANZONI", "Comune": "SEGRATE", "idImpianto": 11671, "points": [{"type": "Feature", "properties": {}, "geometry": {"type": "Point", "coordinates": [9.28682641468049, 45.50178047315617]}}], "price": 1.899, "ultima_rilevazione": "30/05/2022 00:35:01"}, {"Gestore": "SERVIZI & GESTIONI ITALIA srl", "Bandiera": "Q8", "Tipo impianto": "Altro", "Indirizzo": "VIA PADOVA 340 20132", "Nome impianto": "MILANO VIA PADOVA  340", "Comune": "MILANO", "idImpianto": 6448, "points": [{"type": "Feature", "properties": {}, "geometry": {"type": "Point", "coordinates": [9.254012181614712, 45.51099108814385]}}], "price": 1.879, "ultima_rilevazione": "30/05/2022 00:35:02"}, {"Gestore": "SERVIZI & GESTIONI ITALIA srl", "Bandiera": "Q8", "Tipo impianto": "Altro", "Indirizzo": "VIA ROBECCO 69 20092", "Nome impianto": "CINISELLO BALSAMO ROBECCO 69", "Comune": "CINISELLO BALSAMO", "idImpianto": 6449, "points": [{"type": "Feature", "properties": {}, "geometry": {"type": "Point", "coordinates": [9.22493409451215, 45.5589375284437]}}], "price": 1.879, "ultima_rilevazione": "30/05/2022 00:35:02"}, {"Gestore": "GOBBI PAOLO", "Bandiera": "Esso", "Tipo impianto": "Altro", "Indirizzo": "VIALE RIMEMBRANZE SNC 20099", "Nome impianto": "ESSO GOBBI PAOLO", "Comune": "SESTO SAN GIOVANNI", "idImpianto": 7357, "points": [{"type": "Feature", "properties": {}, "geometry": {"type": "Point", "coordinates": [9.24127757549286, 45.52456572153702]}}], "price": 1.889, "ultima_rilevazione": "30/05/2022 06:43:53"}, {"Gestore": "AUTOSERVICE DI GIOVANNI D'ALOIA S.A.S.", "Bandiera": "Tamoil", "Tipo impianto": "Altro", "Indirizzo": "S.P. 60 KM 0+700 SNC 20049", "Nome impianto": "TAMOIL 7463  LATO SUD/EST", "Comune": "CONCOREZZO", "idImpianto": 28937, "points": [{"type": "Feature", "properties": {}, "geometry": {"type": "Point", "coordinates": [9.32416319847107, 45.60408154984006]}}], "price": 1.889, "ultima_rilevazione": "30/05/2022 06:46:04"}, {"Gestore": "D'ALOIA GIOVANNI", "Bandiera": "Agip Eni", "Tipo impianto": "Altro", "Indirizzo": "VIA DELLA REPUBBLICA 134 20851", "Nome impianto": "ENI 2281", "Comune": "LISSONE", "idImpianto": 15800, "points": [{"type": "Feature", "properties": {}, "geometry": {"type": "Point", "coordinates": [9.25201915204525, 45.603109323245846]}}], "price": 1.889, "ultima_rilevazione": "30/05/2022 07:46:37"}, {"Gestore": "DUE ESSE DI SECCHIERO VITTORIO E C. SNC", "Bandiera": "Tamoil", "Tipo impianto": "Altro", "Indirizzo": "str.prov 60 km.0+700  lato nord ovest  ", "Nome impianto": "tamoil", "Comune": "CONCOREZZO", "idImpianto": 9456, "points": [{"type": "Feature", "properties": {}, "geometry": {"type": "Point", "coordinates": [9.32466745376587, 45.60481188189896]}}], "price": 2.039, "ultima_rilevazione": "29/05/2022 15:06:09"}, {"Gestore": "AUTOSERVICE DI GIOVANNI D'ALOIA S.A.S.", "Bandiera": "Tamoil", "Tipo impianto": "Altro", "Indirizzo": "S.P. 60 KM 0+700 SNC 20049", "Nome impianto": "TAMOIL 7463  LATO SUD/EST", "Comune": "CONCOREZZO", "idImpianto": 28937, "points": [{"type": "Feature", "properties": {}, "geometry": {"type": "Point", "coordinates": [9.32416319847107, 45.60408154984006]}}], "price": 2.039, "ultima_rilevazione": "30/05/2022 06:46:04"}]}, "Gasolio": {"1": [{"Gestore": "RHN ENTERPRISE DI AHMED NAVEED", "Bandiera": "Retitalia", "Tipo impianto": "Altro", "Indirizzo": "via monte santo 36 20900", "Nome impianto": "reteitalia", "Comune": "MONZA", "idImpianto": 49483, "points": [{"type": "Feature", "properties": {}, "geometry": {"type": "Point", "coordinates": [9.26951166601285, 45.56208227724076]}}], "price": 1.914, "ultima_rilevazione": "02/05/2022 14:56:58"}, {"Gestore": "NUOVA SIDAP  S.R.L.", "Bandiera": "Esso", "Tipo impianto": "Altro", "Indirizzo": "VIALE DELLE INDUSTRIE 43 20900", "Nome impianto": "Monza 2", "Comune": "MONZA", "idImpianto": 4657, "points": [{"type": "Feature", "properties": {}, "geometry": {"type": "Point", "coordinates": [9.292220771312714, 45.56863365263018]}}], "price": 1.902, "ultima_rilevazione": "20/05/2022 18:18:36"}, {"Gestore": "SOLDINI GIUSEPPE", "Bandiera": "Q8", "Tipo impianto": "Altro", "Indirizzo": "via monte santo  9 20900", "Nome impianto": "stazione di servizio q8", "Comune": "MONZA", "idImpianto": 48949, "points": [{"type": "Feature", "properties": {}, "geometry": {"type": "Point", "coordinates": [9.266720082221722, 45.56293401042127]}}], "price": 1.799, "ultima_rilevazione": "25/05/2022 15:41:03"}, {"Gestore": "GS SPA", "Bandiera": "Q8", "Tipo impianto": "Altro", "Indirizzo": "Strada Provinciale  208 20061", "Nome impianto": "Carrefour Q8 Carugate", "Comune": "CARUGATE", "idImpianto": 48741, "points": [{"type": "Feature", "properties": {}, "geometry": {"type": "Point", "coordinates": [9.331401268583818, 45.54816345136025]}}], "price": 1.769, "ultima_rilevazione": "25/05/2022 16:09:29"}, {"Gestore": "TECNOCLIMA S.N.C. DI GAETANO SCORNAVACCA & C.", "Bandiera": "Api-Ip", "Tipo impianto": "Altro", "Indirizzo": "VIALE LOMBARDIA 169, 20861", "Nome impianto": "tecnoclima snc distibutore ip", "Comune": "BRUGHERIO", "idImpianto": 14272, "points": [{"type": "Feature", "properties": {}, "geometry": {"type": "Point", "coordinates": [9.29600785648347, 45.5513854224133]}}], "price": 1.956, "ultima_rilevazione": "26/05/2022 17:07:42"}, {"Gestore": "IEVA MICHELE", "Bandiera": "Agip Eni", "Tipo impianto": "Altro", "Indirizzo": "VIA SP 121 POBBIANO/CAVENAGO  20061", "Nome impianto": "stazione di servizio Agip di Ieva michele", "Comune": "CARUGATE", "idImpianto": 7530, "points": [{"type": "Feature", "properties": {}, "geometry": {"type": "Point", "coordinates": [9.333864748477936, 45.55165355778144]}}], "price": 1.879, "ultima_rilevazione": "27/05/2022 10:57:19"}, {"Gestore": "RAUSA MAURIZIO", "Bandiera": "Api-Ip", "Tipo impianto": "Altro", "Indirizzo": "via dei mille 81 20861", "Nome impianto": "totalerg", "Comune": "BRUGHERIO", "idImpianto": 28263, "points": [{"type": "Feature", "properties": {}, "geometry": {"type": "Point", "coordinates": [9.311300665140152, 45.54650670273922]}}], "price": 1.829, "ultima_rilevazione": "27/05/2022 16:48:50"}, {"Gestore": "R.A.M.M. DI CREMONESI MARIO VITTORIO", "Bandiera": "Pompe Bianche", "Tipo impianto": "Altro", "Indirizzo": "VIA DEI MILLE 151 20861", "Nome impianto": "PETROL OUTLET", "Comune": "BRUGHERIO", "idImpianto": 38614, "points": [{"type": "Feature", "properties": {}, "geometry": {"type": "Point", "coordinates": [9.322085827589037, 45.548317481746224]}}], "price": 1.789, "ultima_rilevazione": "27/05/2022 22:18:01"}, {"Gestore": "SERVIZI & GESTIONI ITALIA S.R.L.", "Bandiera": "Q8", "Tipo impianto": "Altro", "Indirizzo": "FZ.S.ALBINO VIA ADDA 71 20052", "Nome impianto": "MONZA-FZ.S.ALBINO VIA ADDA 71", "Comune": "MONZA", "idImpianto": 11638, "points": [{"type": "Feature", "properties": {}, "geometry": {"type": "Point", "coordinates": [9.314026822090112, 45.57211126545646]}}], "price": 1.869, "ultima_rilevazione": "28/05/2022 07:34:25"}, {"Gestore": "SERVIZI & GESTIONI ITALIA S.R.L.", "Bandiera": "Q8", "Tipo impianto": "Altro", "Indirizzo": "VIA ENRICO FERMI S/N 20052", "Nome impianto": "MONZA-VIA ENRICO FERMI", "Comune": "MONZA", "idImpianto": 11644, "points": [{"type": "Feature", "properties": {}, "geometry": {"type": "Point", "coordinates": [9.28129119510652, 45.565656333778335]}}], "price": 1.869, "ultima_rilevazione": "28/05/2022 07:34:26"}, {"Gestore": "SERVIZI & GESTIONI ITALIA S.R.L.", "Bandiera": "Q8", "Tipo impianto": "Altro", "Indirizzo": "VIA BORGAZZI 96 20052", "Nome impianto": "MONZA-VIA BORGAZZI 96", "Comune": "MONZA", "idImpianto": 11651, "points": [{"type": "Feature", "properties": {}, "geometry": {"type": "Point", "coordinates": [9.261414576721222, 45.566349778721616]}}], "price": 1.849, "ultima_rilevazione": "28/05/2022 07:34:26"}, {"Gestore": "SERVIZI & GESTIONI ITALIA S.R.L.", "Bandiera": "Q8", "Tipo impianto": "Altro", "Indirizzo": "S.P. 121 - KM. 8+070  20063", "Nome impianto": "CERNUSCO SUL NAVIGLIO - S.P. 121 - KM. 8+070", "Comune": "CERNUSCO SUL NAVIGLIO", "idImpianto": 30796, "points": [{"type": "Feature", "properties": {}, "geometry": {"type": "Point", "coordinates": [9.336739286508193, 45.5403700891952]}}], "price": 1.789, "ultima_rilevazione": "28/05/2022 07:34:36"}, {"Gestore": "GOBBI MARZIO ENRICO", "Bandiera": "Retitalia", "Tipo impianto": "Altro", "Indirizzo": "Via Per Imbersago 61 20093", "Nome impianto": "RETITALIA", "Comune": "COLOGNO MONZESE", "idImpianto": 38871, "points": [{"type": "Feature", "properties": {}, "geometry": {"type": "Point", "coordinates": [9.28936555981636, 45.54292573438804]}}], "price": 1.834, "ultima_rilevazione": "28/05/2022 09:54:38"}, {"Gestore": "NUOVA SIDAP  S.R.L.", "Bandiera": "Api-Ip", "Tipo impianto": "Autostradale", "Indirizzo": "A51 TANG.LE EST DI MILANO, Km. 15+200, Nord 20093", "Nome impianto": "COLOGNO M. EST", "Comune": "COLOGNO MONZESE", "idImpianto": 48196, "points": [{"type": "Feature", "properties": {}, "geometry": {"type": "Point", "coordinates": [9.299550652503962, 45.5372445308776]}}], "price": 1.907, "ultima_rilevazione": "28/05/2022 10:47:08"}, {"Gestore": "IP SERVICES S.R.L.", "Bandiera": "Api-Ip", "Tipo impianto": "Altro", "Indirizzo": "VIALE LOMBARDIA 93 20047", "Nome impianto": "BRUGHERIO - LOMBARDIA 93", "Comune": "BRUGHERIO", "idImpianto": 22888, "points": [{"type": "Feature", "properties": {}, "geometry": {"type": "Point", "coordinates": [9.292631650297151, 45.54702693920715]}}], "price": 1.799, "ultima_rilevazione": "29/05/2022 12:02:55"}, {"Gestore": "IP SERVICES S.R.L.", "Bandiera": "Api-Ip", "Tipo impianto": "Altro", "Indirizzo": "S.P.121  KM.6+250 20063", "Nome impianto": "Cernusco sul Naviglio", "Comune": "CERNUSCO SUL NAVIGLIO", "idImpianto": 37970, "points": [{"type": "Feature", "properties": {}, "geometry": {"type": "Point", "coordinates": [9.334397882212215, 45.54543517250591]}}], "price": 1.799, "ultima_rilevazione": "29/05/2022 12:04:18"}, {"Gestore": "AF PETROL S.R.L.", "Bandiera": "Pompe Bianche", "Tipo impianto": "Altro", "Indirizzo": "VIALE LOMBARDIA 75 20861", "Nome impianto": "AF PETROL SRL", "Comune": "BRUGHERIO", "idImpianto": 22943, "points": [{"type": "Feature", "properties": {}, "geometry": {"type": "Point", "coordinates": [9.292266169905815, 45.54659960785789]}}], "price": 1.799, "ultima_rilevazione": "30/05/2022 07:38:14"}, {"Gestore": "SERVIZI & GESTIONI ITALIA S.R.L.", "Bandiera": "Q8", "Tipo impianto": "Altro", "Indirizzo": "VIA QUARTO 94 20047", "Nome impianto": "BRUGHERIO-VIA QUARTO 94", "Comune": "BRUGHERIO", "idImpianto": 11647, "points": [{"type": "Feature", "properties": {}, "geometry": {"type": "Point", "coordinates": [9.304071253967322, 45.54090462397628]}}], "price": 1.819, "ultima_rilevazione": "30/05/2022 00:34:52"}, {"Gestore": "SILIATO LUIGI", "Bandiera": "Api-Ip", "Tipo impianto": "Altro", "Indirizzo": "enrico fermi  20900", "Nome impianto": "stazione di servizio IP di Luigi Siliato", "Comune": "MONZA", "idImpianto": 38935, "points": [{"type": "Feature", "properties": {}, "geometry": {"type": "Point", "coordinates": [9.27997313439846, 45.564417700011056]}}], "price": 1.879, "ultima_rilevazione": "30/05/2022 06:42:47"}, {"Gestore": "FRATELLI PULEO S.N.C. DI PULEO PIETRO E PAOLO", "Bandiera": "Q8", "Tipo impianto": "Altro", "Indirizzo": "VIA STUCCHI 47 20900", "Nome impianto": "STAZ. SERV. Q8 F.LLI PULEO SNC", "Comune": "MONZA", "idImpianto": 14453, "points": [{"type": "Feature", "properties": {}, "geometry": {"type": "Point", "coordinates": [9.308756589889526, 45.57804836296814]}}], "price": 1.869, "ultima_rilevazione": "30/05/2022 06:58:57"}, {"Gestore": "SCARFONE SANTO", "Bandiera": "Agip Eni", "Tipo impianto": "Altro", "Indirizzo": "c.so roma 107 20093", "Nome impianto": "eni scarfone santo", "Comune": "COLOGNO MONZESE", "idImpianto": 11439, "points": [{"type": "Feature", "properties": {}, "geometry": {"type": "Point", "coordinates": [9.28293228149414, 45.53437861561028]}}], "price": 1.874, "ultima_rilevazione": "30/05/2022 07:25:23"}], "3": [{"Gestore": "STRIPPOLI ALFIO", "Bandiera": "Agip Eni", "Tipo impianto": "Altro", "Indirizzo": "VIALE LIBERTA' 88 20900", "Nome impianto": "Strippoli Alfio", "Comune": "MONZA", "idImpianto": 14409, "points": [{"type": "Feature", "properties": {}, "geometry": {"type": "Point", "coordinates": [9.295753240585327, 45.58941435702956]}}], "price": 1.659, "ultima_rilevazione": "04/11/2021 22:15:50"}, {"Gestore": "ORAZI ORFEO", "Bandiera": "Q8", "Tipo impianto": "Altro", "Indirizzo": "VIA GIUSEPPE DI VITTORIO SNC 20099", "Nome impianto": "Q8", "Comune": "SESTO SAN GIOVANNI", "idImpianto": 33287, "points": [{"type": "Feature", "properties": {}, "geometry": {"type": "Point", "coordinates": [9.258132576942444, 45.52660420248263]}}], "price": 2.019, "ultima_rilevazione": "21/03/2022 10:57:29"}, {"Gestore": "E.C.N. S.R.L.", "Bandiera": "Agip Eni", "Tipo impianto": "Altro", "Indirizzo": "VIA EUROPA ANG LIGURIA SNC 20093", "Nome impianto": "eni pv 02316", "Comune": "COLOGNO MONZESE", "idImpianto": 43033, "points": [{"type": "Feature", "properties": {}, "geometry": {"type": "Point", "coordinates": [9.265617169311554, 45.52513831765408]}}], "price": 1.859, "ultima_rilevazione": "24/05/2022 08:37:17"}, {"Gestore": "RAGOSA SIMONE", "Bandiera": "Esso", "Tipo impianto": "Altro", "Indirizzo": "VIA MOLISE  20093", "Nome impianto": "Stazione di servizio esso di Ragosa", "Comune": "COLOGNO MONZESE", "idImpianto": 23422, "points": [{"type": "Feature", "properties": {}, "geometry": {"type": "Point", "coordinates": [9.274595975875854, 45.52505054389173]}}], "price": 1.859, "ultima_rilevazione": "25/05/2022 08:17:48"}, {"Gestore": "LOVINO MARCO", "Bandiera": "Esso", "Tipo impianto": "Altro", "Indirizzo": "VIA GIUSEPPE VERDI 47 20063", "Nome impianto": "STAZIONE DI SERVIZIO ESSO VIA VERDI 47", "Comune": "CERNUSCO SUL NAVIGLIO", "idImpianto": 49049, "points": [{"type": "Feature", "properties": {}, "geometry": {"type": "Point", "coordinates": [9.337236285209656, 45.52923583950437]}}], "price": 1.796, "ultima_rilevazione": "26/05/2022 11:10:44"}, {"Gestore": "DE PIETRO SALVATORE", "Bandiera": "Esso", "Tipo impianto": "Altro", "Indirizzo": "VIA PROVINCIALE KM 17 SNC 20863", "Nome impianto": "SALVATORE DE PIETRO", "Comune": "CONCOREZZO", "idImpianto": 20162, "points": [{"type": "Feature", "properties": {}, "geometry": {"type": "Point", "coordinates": [9.330807030200958, 45.587692748640585]}}], "price": 1.849, "ultima_rilevazione": "27/05/2022 07:52:52"}, {"Gestore": "LUCARELLI LEONARDO", "Bandiera": "Agip Eni", "Tipo impianto": "Altro", "Indirizzo": "VIALE CAMPANIA 64, 20900", "Nome impianto": "leonardo lucarelli", "Comune": "MONZA", "idImpianto": 24973, "points": [{"type": "Feature", "properties": {}, "geometry": {"type": "Point", "coordinates": [9.252105412372655, 45.56871310184942]}}], "price": 1.879, "ultima_rilevazione": "27/05/2022 08:53:31"}, {"Gestore": "PACEKO S.R.L.", "Bandiera": "Pompe Bianche", "Tipo impianto": "Altro", "Indirizzo": "Via delle industrie  16 20864", "Nome impianto": "EKOPOINT", "Comune": "AGRATE BRIANZA", "idImpianto": 44517, "points": [{"type": "Feature", "properties": {}, "geometry": {"type": "Point", "coordinates": [9.35416730855468, 45.56791207197751]}}], "price": 1.799, "ultima_rilevazione": "27/05/2022 09:03:01"}, {"Gestore": "F.LLI PUPPIO SNC DI PUPPIO PASQUALE E C.", "Bandiera": "Agip Eni", "Tipo impianto": "Altro", "Indirizzo": "VIALE GRAMSCI ANG. VIA MONTENERO  20099", "Nome impianto": "F.LLI PUPPIO SNC", "Comune": "SESTO SAN GIOVANNI", "idImpianto": 12374, "points": [{"type": "Feature", "properties": {}, "geometry": {"type": "Point", "coordinates": [9.24358695745468, 45.546936861949234]}}], "price": 1.834, "ultima_rilevazione": "27/05/2022 11:42:06"}, {"Gestore": "FULLPOINT SOCIETA' A RESPONSABILITA' LIMITATA SEMPLIFICATA", "Bandiera": "Q8", "Tipo impianto": "Altro", "Indirizzo": "STRADA PROVINCIALE 120 KM. 5,400 00 20063", "Nome impianto": "fullpoint srls", "Comune": "CERNUSCO SUL NAVIGLIO", "idImpianto": 44576, "points": [{"type": "Feature", "properties": {}, "geometry": {"type": "Point", "coordinates": [9.30619758371904, 45.5262772387745]}}], "price": 1.829, "ultima_rilevazione": "27/05/2022 12:26:43"}, {"Gestore": "ROMI S.A.S. DI SCIARROTTA ROMINA E C.", "Bandiera": "Api-Ip", "Tipo impianto": "Altro", "Indirizzo": "S.P . Monza-Melzo Km 3  20864", "Nome impianto": "ITALIANA PETROLI", "Comune": "AGRATE BRIANZA", "idImpianto": 28307, "points": [{"type": "Feature", "properties": {}, "geometry": {"type": "Point", "coordinates": [9.33866322040558, 45.575763923593925]}}], "price": 1.859, "ultima_rilevazione": "27/05/2022 19:30:58"}, {"Gestore": "SERVIZI & GESTIONI ITALIA S.R.L.", "Bandiera": "Q8", "Tipo impianto": "Altro", "Indirizzo": "VIA G.B. STUCCHI", "Nome impianto": "MONZA VIA G.B. STUCCHI", "Comune": "MONZA", "idImpianto": 25015, "points": [{"type": "Feature", "properties": {}, "geometry": {"type": "Point", "coordinates": [9.31022520555723, 45.58708695789439]}}], "price": 1.849, "ultima_rilevazione": "28/05/2022 02:05:11"}, {"Gestore": "SERVIZI & GESTIONI ITALIA S.R.L.", "Bandiera": "Q8", "Tipo impianto": "Altro", "Indirizzo": "VIA BORSA 50 20052", "Nome impianto": "MONZA-VIA BORSA 50", "Comune": "MONZA", "idImpianto": 11646, "points": [{"type": "Feature", "properties": {}, "geometry": {"type": "Point", "coordinates": [9.290283906745913, 45.57946895994504]}}], "price": 1.849, "ultima_rilevazione": "28/05/2022 02:05:11"}, {"Gestore": "SERVIZI & GESTIONI ITALIA srl", "Bandiera": "Q8", "Tipo impianto": "Altro", "Indirizzo": "VIA BUONARROTI -DISTR.Q8 117 20052", "Nome impianto": "MONZA VIA BUONARROTI 117 -DISTR.Q8", "Comune": "MONZA", "idImpianto": 6433, "points": [{"type": "Feature", "properties": {}, "geometry": {"type": "Point", "coordinates": [9.284428306745896, 45.569924786456205]}}], "price": 1.849, "ultima_rilevazione": "28/05/2022 02:05:12"}, {"Gestore": "SERVIZI & GESTIONI ITALIA S.R.L.", "Bandiera": "Q8", "Tipo impianto": "Altro", "Indirizzo": "V.LE ROMAGNA 42 20052", "Nome impianto": "MONZA V.LE ROMAGNA 42", "Comune": "MONZA", "idImpianto": 6439, "points": [{"type": "Feature", "properties": {}, "geometry": {"type": "Point", "coordinates": [9.248283505439758, 45.572231571073054]}}], "price": 1.839, "ultima_rilevazione": "28/05/2022 02:05:14"}, {"Gestore": "SERVIZI & GESTIONI ITALIA S.R.L.", "Bandiera": "Q8", "Tipo impianto": "Altro", "Indirizzo": "VIALE GRAMSCI 609 20099", "Nome impianto": "SESTO SAN GIOVANNI - VIALE GRAMSCI 609", "Comune": "SESTO SAN GIOVANNI", "idImpianto": 24145, "points": [{"type": "Feature", "properties": {}, "geometry": {"type": "Point", "coordinates": [9.24427519828646, 45.54835895706711]}}], "price": 1.819, "ultima_rilevazione": "28/05/2022 02:05:17"}, {"Gestore": "SERVIZI & GESTIONI ITALIA S.R.L.", "Bandiera": "Q8", "Tipo impianto": "Altro", "Indirizzo": "VIA GRANDI 31 20099", "Nome impianto": "SESTO S.GIOVANNI VIA GRANDI 31", "Comune": "SESTO SAN GIOVANNI", "idImpianto": 36302, "points": [{"type": "Feature", "properties": {}, "geometry": {"type": "Point", "coordinates": [9.252056032419205, 45.53061668234774]}}], "price": 1.799, "ultima_rilevazione": "28/05/2022 07:34:30"}, {"Gestore": "SERVIZI & GESTIONI ITALIA S.R.L.", "Bandiera": "Q8", "Tipo impianto": "Altro", "Indirizzo": "VIALE CASIRAGHI F.TESTI 493 20099", "Nome impianto": "SESTO SAN GIOVANNI-VIALE CASIRAGHI F.TESTI 493", "Comune": "SESTO SAN GIOVANNI", "idImpianto": 11656, "points": [{"type": "Feature", "properties": {}, "geometry": {"type": "Point", "coordinates": [9.23625172023776, 45.54886994636463]}}], "price": 1.799, "ultima_rilevazione": "28/05/2022 07:34:35"}, {"Gestore": "SERVIZI & GESTIONI ITALIA S.R.L.", "Bandiera": "Q8", "Tipo impianto": "Altro", "Indirizzo": "VIALE PARTIGIANI 83 20099", "Nome impianto": "SESTO SAN GIOVANNI-VIALE PARTIGIANI 83", "Comune": "SESTO SAN GIOVANNI", "idImpianto": 11684, "points": [{"type": "Feature", "properties": {}, "geometry": {"type": "Point", "coordinates": [9.254784314155586, 45.52825261318868]}}], "price": 1.799, "ultima_rilevazione": "28/05/2022 07:34:35"}, {"Gestore": "BASELICE FRANCESCO", "Bandiera": "Q8", "Tipo impianto": "Altro", "Indirizzo": "via tiepolo  20900", "Nome impianto": "Q8", "Comune": "MONZA", "idImpianto": 13606, "points": [{"type": "Feature", "properties": {}, "geometry": {"type": "Point", "coordinates": [9.300115182995796, 45.58058447639117]}}], "price": 1.859, "ultima_rilevazione": "28/05/2022 08:26:57"}, {"Gestore": "AWWAD SALEH IBRAHIM", "Bandiera": "Esso", "Tipo impianto": "Altro", "Indirizzo": "VIA F. CAVALLOTTI 24 20900", "Nome impianto": "ESSO via cavallotti", "Comune": "MONZA", "idImpianto": 48429, "points": [{"type": "Feature", "properties": {}, "geometry": {"type": "Point", "coordinates": [9.266201259507172, 45.581103198922094]}}], "price": 1.789, "ultima_rilevazione": "28/05/2022 09:13:27"}, {"Gestore": "FORTUNA SNC DI MOHAMMAD AFZAL E MIRZA SHAFEEQ SIDDIQUE", "Bandiera": "Api-Ip", "Tipo impianto": "Altro", "Indirizzo": "VIA CORREGGIO ANG VIA LIBERTA'  20900", "Nome impianto": "italiana petroli  IP", "Comune": "MONZA", "idImpianto": 44951, "points": [{"type": "Feature", "properties": {}, "geometry": {"type": "Point", "coordinates": [9.298765000123, 45.589907000123]}}], "price": 1.888, "ultima_rilevazione": "28/05/2022 09:26:18"}, {"Gestore": "GOBBI MARZIO ENRICO", "Bandiera": "Retitalia", "Tipo impianto": "Altro", "Indirizzo": "Via Lombardia 3 20093", "Nome impianto": "RETITALIA LOMBARDIA", "Comune": "COLOGNO MONZESE", "idImpianto": 42186, "points": [{"type": "Feature", "properties": {}, "geometry": {"type": "Point", "coordinates": [9.274695217609406, 45.53591322847132]}}], "price": 1.799, "ultima_rilevazione": "28/05/2022 09:27:28"}, {"Gestore": "BRAMBILLA S.N.C. DI GABRIELE BRAMBILLA & C.", "Bandiera": "Agip Eni", "Tipo impianto": "Altro", "Indirizzo": "VIALE LOMBARDIA 224 20052", "Nome impianto": "AGIP di BRAMBILLA S.N.C.", "Comune": "MONZA", "idImpianto": 6254, "points": [{"type": "Feature", "properties": {}, "geometry": {"type": "Point", "coordinates": [9.244179725646973, 45.56768653673911]}}], "price": 1.879, "ultima_rilevazione": "28/05/2022 09:32:14"}, {"Gestore": "T.D.M. S.R.L.", "Bandiera": "Tamoil", "Tipo impianto": "Altro", "Indirizzo": "SP. 13 KM. 2+500 MONZA/MELZO SNC 20049", "Nome impianto": "8495", "Comune": "CONCOREZZO", "idImpianto": 42138, "points": [{"type": "Feature", "properties": {}, "geometry": {"type": "Point", "coordinates": [9.32847686111927, 45.57825750242336]}}], "price": 1.839, "ultima_rilevazione": "29/05/2022 11:16:08"}, {"Gestore": "T.D.M. S.R.L.", "Bandiera": "Tamoil", "Tipo impianto": "Altro", "Indirizzo": "VIALE LOMBARDIA 4 20093", "Nome impianto": "6124", "Comune": "COLOGNO MONZESE", "idImpianto": 46499, "points": [{"type": "Feature", "properties": {}, "geometry": {"type": "Point", "coordinates": [9.274990922208984, 45.535208805954895]}}], "price": 1.799, "ultima_rilevazione": "29/05/2022 11:16:09"}, {"Gestore": "IP SERVICES S.R.L.", "Bandiera": "Api-Ip", "Tipo impianto": "Altro", "Indirizzo": "VIA CAVALLOTTI 68 20052", "Nome impianto": "MONZA - CAVALLOTTI", "Comune": "MONZA", "idImpianto": 29921, "points": [{"type": "Feature", "properties": {}, "geometry": {"type": "Point", "coordinates": [9.260762449073807, 45.57971877321861]}}], "price": 1.789, "ultima_rilevazione": "29/05/2022 12:03:51"}, {"Gestore": "IP SERVICES S.R.L.", "Bandiera": "Api-Ip", "Tipo impianto": "Altro", "Indirizzo": "via CAVALLOTTI 110 20900", "Nome impianto": "Monza Cavallotti", "Comune": "MONZA", "idImpianto": 31387, "points": [{"type": "Feature", "properties": {}, "geometry": {"type": "Point", "coordinates": [9.254766404628754, 45.57817602447157]}}], "price": 1.799, "ultima_rilevazione": "29/05/2022 12:04:53"}, {"Gestore": "IPERSTAROIL S.R.L.", "Bandiera": "Pompe Bianche", "Tipo impianto": "Altro", "Indirizzo": "viale Brianza 31 20092", "Nome impianto": "iperstaroil CINISELLO", "Comune": "CINISELLO BALSAMO", "idImpianto": 50704, "points": [{"type": "Feature", "properties": {}, "geometry": {"type": "Point", "coordinates": [9.23803592007732, 45.55229444729481]}}], "price": 1.779, "ultima_rilevazione": "29/05/2022 13:22:05"}, {"Gestore": "DE NITTIS PASQUALE", "Bandiera": "Tamoil", "Tipo impianto": "Altro", "Indirizzo": "VIALE CAMPANIA 8 20900", "Nome impianto": "STAZIONE DI SERVIZIO TAMOIL", "Comune": "MONZA", "idImpianto": 9990, "points": [{"type": "Feature", "properties": {}, "geometry": {"type": "Point", "coordinates": [9.258126151520514, 45.5659023786019]}}], "price": 1.799, "ultima_rilevazione": "29/05/2022 15:06:09"}, {"Gestore": "ENI FUEL S.P.A.", "Bandiera": "Agip Eni", "Tipo impianto": "Altro", "Indirizzo": "Via Matteotti 133 20041", "Nome impianto": "PV 02151 Agrate Brianza", "Comune": "AGRATE BRIANZA", "idImpianto": 47365, "points": [{"type": "Feature", "properties": {}, "geometry": {"type": "Point", "coordinates": [9.356548000123, 45.572168000123]}}], "price": 1.819, "ultima_rilevazione": "30/05/2022 07:42:03"}, {"Gestore": "ENI FUEL S.P.A.", "Bandiera": "Agip Eni", "Tipo impianto": "Altro", "Indirizzo": "Viale Lombardia 166 20052", "Nome impianto": "PV 2172 Monza V. Lombardia", "Comune": "MONZA", "idImpianto": 38524, "points": [{"type": "Feature", "properties": {}, "geometry": {"type": "Point", "coordinates": [9.24692600852893, 45.5745145949299]}}], "price": 1.839, "ultima_rilevazione": "30/05/2022 00:14:03"}, {"Gestore": "SERVIZI & GESTIONI ITALIA S.R.L.", "Bandiera": "Q8", "Tipo impianto": "Altro", "Indirizzo": "VIA AMATI CEDERNA 94 20052", "Nome impianto": "MONZA-VIA AMATI CEDERNA 94", "Comune": "MONZA", "idImpianto": 11641, "points": [{"type": "Feature", "properties": {}, "geometry": {"type": "Point", "coordinates": [9.297008629465154, 45.581912830381725]}}], "price": 1.859, "ultima_rilevazione": "30/05/2022 00:34:54"}, {"Gestore": "SERVIZI & GESTIONI ITALIA S.R.L.", "Bandiera": "Q8", "Tipo impianto": "Altro", "Indirizzo": "VIA BETTOLA - ANGOLO VIA CASTALDI 32 20092", "Nome impianto": "CINISELLO BALSAMO-VIA BETTOLA 32 - ANGOLO VIA CASTALDI", "Comune": "CINISELLO BALSAMO", "idImpianto": 11710, "points": [{"type": "Feature", "properties": {}, "geometry": {"type": "Point", "coordinates": [9.243809580802916, 45.556688014194734]}}], "price": 1.799, "ultima_rilevazione": "30/05/2022 00:34:56"}, {"Gestore": "DALLAVALLE S.A.S. DI BONFANTI MASSIMO & C.", "Bandiera": "Q8", "Tipo impianto": "Altro", "Indirizzo": "VIA ROMAGNA  20900", "Nome impianto": "DALLAVALLE S.A.S. DI BONFANTI MASSIMO & C.", "Comune": "MONZA", "idImpianto": 38696, "points": [{"type": "Feature", "properties": {}, "geometry": {"type": "Point", "coordinates": [9.253979846835136, 45.573366739548135]}}], "price": 1.849, "ultima_rilevazione": "30/05/2022 06:56:23"}, {"Gestore": "STELLUTI LIBERO SNC", "Bandiera": "Esso", "Tipo impianto": "Altro", "Indirizzo": "corso milano 32 20900", "Nome impianto": "stazione di servizio esso di stelluti libero snc", "Comune": "MONZA", "idImpianto": 21145, "points": [{"type": "Feature", "properties": {}, "geometry": {"type": "Point", "coordinates": [9.271898106220988, 45.57866365616646]}}], "price": 1.789, "ultima_rilevazione": "30/05/2022 06:56:47"}, {"Gestore": "ESSEBI S.N.C. DI BORACCO LORENZO E SALA ANDREA", "Bandiera": "Esso", "Tipo impianto": "Altro", "Indirizzo": "viale vittorio veneto 19 20900", "Nome impianto": "esso", "Comune": "MONZA", "idImpianto": 37759, "points": [{"type": "Feature", "properties": {}, "geometry": {"type": "Point", "coordinates": [9.253012496958943, 45.57905863394036]}}], "price": 1.796, "ultima_rilevazione": "30/05/2022 07:31:43"}, {"Gestore": "BIFFI THOMAS", "Bandiera": "Agip Eni", "Tipo impianto": "Altro", "Indirizzo": "STRADA PROVINCIALE 2 MONZA-TREZZO KM.1+400  20863", "Nome impianto": "BIFFI THOMAS - AGIP", "Comune": "CONCOREZZO", "idImpianto": 14347, "points": [{"type": "Feature", "properties": {}, "geometry": {"type": "Point", "coordinates": [9.323086957167106, 45.59119325497423]}}], "price": 1.874, "ultima_rilevazione": "30/05/2022 07:40:05"}, {"Gestore": "FERRARI & MARIANI S.N.C. DI FERRARI STEFANO & C.", "Bandiera": "Agip Eni", "Tipo impianto": "Altro", "Indirizzo": "VIALE SICILIA 40 20900", "Nome impianto": "ferrari & mariani snc", "Comune": "MONZA", "idImpianto": 11978, "points": [{"type": "Feature", "properties": {}, "geometry": {"type": "Point", "coordinates": [9.302946925163267, 45.58137197335687]}}], "price": 1.874, "ultima_rilevazione": "30/05/2022 07:47:34"}], "5": [{"Gestore": "ALCA S.N.C. DI TROIANO E LUPOLI", "Bandiera": "Q8", "Tipo impianto": "Altro", "Indirizzo": "VIALE FULVIO TESTI 214 20092", "Nome impianto": "ALCA s.n.c.", "Comune": "CINISELLO BALSAMO", "idImpianto": 31194, "points": [{"type": "Feature", "properties": {}, "geometry": {"type": "Point", "coordinates": [9.233167916536331, 45.54780119027294]}}], "price": 1.599, "ultima_rilevazione": "15/11/2021 08:58:13"}, {"Gestore": "DI DIO CALDERONE CONCETTA", "Bandiera": "Api-Ip", "Tipo impianto": "Altro", "Indirizzo": "via lecco km 1,5  20864", "Nome impianto": "IP", "Comune": "AGRATE BRIANZA", "idImpianto": 4730, "points": [{"type": "Feature", "properties": {}, "geometry": {"type": "Point", "coordinates": [9.357761000123, 45.585854000123]}}], "price": 1.849, "ultima_rilevazione": "27/05/2022 22:52:41"}, {"Gestore": "BR.IT ENERGY SRL", "Bandiera": "Q8", "Tipo impianto": "Altro", "Indirizzo": "VIA VIGANO DE' VIZZI  36 20092", "Nome impianto": "Q8 PV 1061", "Comune": "CINISELLO BALSAMO", "idImpianto": 51243, "points": [{"type": "Feature", "properties": {}, "geometry": {"type": "Point", "coordinates": [9.23158615430675, 45.56033578108916]}}], "price": 1.759, "ultima_rilevazione": "26/04/2022 08:56:11"}, {"Gestore": "EASYSERVICE DI DELLOLIO MARIA", "Bandiera": "Pompe Bianche", "Tipo impianto": "Altro", "Indirizzo": "Via Monterosa SNC 20863", "Nome impianto": "Petrol Outlet", "Comune": "CONCOREZZO", "idImpianto": 41835, "points": [{"type": "Feature", "properties": {}, "geometry": {"type": "Point", "coordinates": [9.321381747722626, 45.59667035972453]}}], "price": 1.819, "ultima_rilevazione": "18/05/2022 13:49:15"}, {"Gestore": "PNEUSCARS 2 S.A.S. DI TERRANE FABIO & C.", "Bandiera": "Agip Eni", "Tipo impianto": "Altro", "Indirizzo": "VIA MILANO 9 20096", "Nome impianto": "Eni", "Comune": "PIOLTELLO", "idImpianto": 12081, "points": [{"type": "Feature", "properties": {}, "geometry": {"type": "Point", "coordinates": [9.331360636840031, 45.50138514073774]}}], "price": 1.869, "ultima_rilevazione": "19/05/2022 16:16:21"}, {"Gestore": "U.M.A. S.A.S. DI MARCO CELARI E C.", "Bandiera": "Esso", "Tipo impianto": "Altro", "Indirizzo": "via antica cassanese km 8,5  20060", "Nome impianto": "esso", "Comune": "CASSINA DE' PECCHI", "idImpianto": 33725, "points": [{"type": "Feature", "properties": {}, "geometry": {"type": "Point", "coordinates": [9.35478463768959, 45.50391517393423]}}], "price": 1.819, "ultima_rilevazione": "20/05/2022 12:21:09"}, {"Gestore": "AUTOLAVAGGIO LATINO DI VICENTE CASTILLO CARLOS FRANCISCO", "Bandiera": "Api-Ip", "Tipo impianto": "Altro", "Indirizzo": "VIA DANTE ALIGHIERI   20863", "Nome impianto": "IP Via Dante alighieri concorezzo", "Comune": "CONCOREZZO", "idImpianto": 47249, "points": [{"type": "Feature", "properties": {}, "geometry": {"type": "Point", "coordinates": [9.340127832100142, 45.59543823253673]}}], "price": 1.869, "ultima_rilevazione": "23/05/2022 09:45:21"}, {"Gestore": "PROGETTI E SVILUPPO S.A.S. DI  MARAZZINA PAOLO E C.", "Bandiera": "KEROPETROL", "Tipo impianto": "Altro", "Indirizzo": "VIA MONFALCONE SNC 20092", "Nome impianto": "Keropetrol  Cinisello Balsamo MI", "Comune": "CINISELLO BALSAMO", "idImpianto": 46561, "points": [{"type": "Feature", "properties": {}, "geometry": {"type": "Point", "coordinates": [9.216780691950476, 45.5514147041983]}}], "price": 1.795, "ultima_rilevazione": "23/05/2022 11:45:48"}, {"Gestore": "SCARFONE COSIMO", "Bandiera": "Agip Eni", "Tipo impianto": "Altro", "Indirizzo": "mazzini  20835", "Nome impianto": "eni", "Comune": "MUGGIO'", "idImpianto": 41512, "points": [{"type": "Feature", "properties": {}, "geometry": {"type": "Point", "coordinates": [9.233100190758703, 45.59301366559917]}}], "price": 1.839, "ultima_rilevazione": "24/05/2022 09:10:31"}, {"Gestore": "FERRO MAURO", "Bandiera": "Agip Eni", "Tipo impianto": "Strada Statale", "Indirizzo": "Strada Statale, Km. 1+280, melzo 20867", "Nome impianto": "stazione eni ferro mauro", "Comune": "CAPONAGO", "idImpianto": 45069, "points": [{"type": "Feature", "properties": {}, "geometry": {"type": "Point", "coordinates": [9.376779000123, 45.560100000123]}}], "price": 1.794, "ultima_rilevazione": "24/05/2022 13:05:51"}, {"Gestore": "OIL COMPANY DI LOVINO FILOMENO", "Bandiera": "Esso", "Tipo impianto": "Strada Statale", "Indirizzo": "Statale 11 Padana Superiore, Km. 57, dir. Milano 20063", "Nome impianto": "ESSO - OIL COMPANY DI LOVINO FILOMENO", "Comune": "CERNUSCO SUL NAVIGLIO", "idImpianto": 27881, "points": [{"type": "Feature", "properties": {}, "geometry": {"type": "Point", "coordinates": [9.331437349319458, 45.5150830330387]}}], "price": 1.849, "ultima_rilevazione": "24/05/2022 16:05:59"}, {"Gestore": "G.T. CARBURANTI  DI  GIULIANI TOMMASO MARCO", "Bandiera": "Esso", "Tipo impianto": "Altro", "Indirizzo": "VIALE MARELLI 266 20099", "Nome impianto": "ESSO GTcarburanti", "Comune": "SESTO SAN GIOVANNI", "idImpianto": 31812, "points": [{"type": "Feature", "properties": {}, "geometry": {"type": "Point", "coordinates": [9.22847156745911, 45.52596815708628]}}], "price": 1.989, "ultima_rilevazione": "24/05/2022 21:00:49"}, {"Gestore": "EGI-2GO S.R.L.", "Bandiera": "Esso", "Tipo impianto": "Altro", "Indirizzo": "VIA G. MAZZINI 13 20835", "Nome impianto": "Muggio", "Comune": "MUGGIO'", "idImpianto": 48001, "points": [{"type": "Feature", "properties": {}, "geometry": {"type": "Point", "coordinates": [9.236082046627049, 45.59281963065065]}}], "price": 1.789, "ultima_rilevazione": "25/05/2022 17:09:38"}, {"Gestore": "NASSER PETROL SOCIETA' A RESPONSABILITA' LIMITATA SEMPLIFICATA", "Bandiera": "KEROPETROL", "Tipo impianto": "Altro", "Indirizzo": "VIALE Fratello Casiraghi 270 20099", "Nome impianto": "keropetrol", "Comune": "SESTO SAN GIOVANNI", "idImpianto": 50167, "points": [{"type": "Feature", "properties": {}, "geometry": {"type": "Point", "coordinates": [9.23442288458464, 45.54196656139872]}}], "price": 1.779, "ultima_rilevazione": "25/05/2022 19:44:50"}, {"Gestore": "LOR GAS DI OLIVARES RODRIGUEZ JUAN CARLOS", "Bandiera": "Api-Ip", "Tipo impianto": "Altro", "Indirizzo": "via ugo foscolo  20900", "Nome impianto": "totalerg", "Comune": "MONZA", "idImpianto": 11211, "points": [{"type": "Feature", "properties": {}, "geometry": {"type": "Point", "coordinates": [9.22737032175064, 45.57082423144908]}}], "price": 1.794, "ultima_rilevazione": "26/05/2022 10:22:26"}, {"Gestore": "TI-QUATTRO T.4 SRL", "Bandiera": "Agip Eni", "Tipo impianto": "Autostradale", "Indirizzo": "Autostrada A51 TANG.LE EST DI MILANO, Km. 9+720, dir. sud 20132", "Nome impianto": "CASCINA GOBBA OVEST", "Comune": "MILANO", "idImpianto": 33504, "points": [{"type": "Feature", "properties": {}, "geometry": {"type": "Point", "coordinates": [9.2592591047287, 45.50671157590588]}}], "price": 1.941, "ultima_rilevazione": "26/05/2022 16:26:21"}, {"Gestore": "MANFREDI LUCA", "Bandiera": "Agip Eni", "Tipo impianto": "Altro", "Indirizzo": "VIALE MONZA 316 20128", "Nome impianto": "ENI di manfredi luca", "Comune": "MILANO", "idImpianto": 44907, "points": [{"type": "Feature", "properties": {}, "geometry": {"type": "Point", "coordinates": [9.227576000123, 45.520849000123]}}], "price": 1.839, "ultima_rilevazione": "27/05/2022 06:18:05"}, {"Gestore": "TUFO CARMINE  S.N.C. DI TUFO CARMINE E C.", "Bandiera": "Agip Eni", "Tipo impianto": "Altro", "Indirizzo": "VIALE ITALIA ANGOLO VIA ISONZO  20099", "Nome impianto": "TUFO SNC", "Comune": "SESTO SAN GIOVANNI", "idImpianto": 4272, "points": [{"type": "Feature", "properties": {}, "geometry": {"type": "Point", "coordinates": [9.233606457710266, 45.52644861308865]}}], "price": 1.839, "ultima_rilevazione": "27/05/2022 07:16:05"},