{"area_comune": "[{\"type\": \"Feature\", \"properties\": {}, \"geometry\": {\"type\": \"Polygon\", \"coordinates\": [[[9.126663764419417, 45.4298806631098], [9.131527375721644, 45.415975747799386], [9.123335360427829, 45.414145752858644], [9.121058997316316, 45.41346115430366], [9.114970519947734, 45.41016321162948], [9.114293184395732, 45.40808647433257], [9.123146106864674, 45.385108113971825], [9.12577639885944, 45.38014896623755], [9.115400276364513, 45.37756816485694], [9.102718982274602, 45.384009939863866], [9.098984746175192, 45.38881695199514], [9.099278999518013, 45.389493944476186], [9.101383705240142, 45.39185678548217], [9.10215625994173, 45.395862272349675], [9.100872760894235, 45.3975508173249], [9.09996140476227, 45.39788450812107], [9.095171947726415, 45.39693584775827], [9.09227945455675, 45.40077219717109], [9.089342253215866, 45.405381167124844], [9.08670126033019, 45.420971314738516], [9.086711857523573, 45.42257604405961], [9.087070507082998, 45.42306183196308], [9.087658782522684, 45.42325040932781], [9.103782779993919, 45.427144830604504], [9.105784998994604, 45.42727468938063], [9.106037648707611, 45.425549398410375], [9.106499565346313, 45.42469281795659], [9.114834540112854, 45.426555948401514], [9.11716634793792, 45.427286181413926], [9.117567906802076, 45.42867887785653], [9.11673320266361, 45.42989043237916], [9.117047674036142, 45.436545244280126], [9.120403993486805, 45.437375330467596], [9.126663764419417, 45.4298806631098]]]}}]", "comune": "buccinasco", "buffer_1": "[{\"type\": \"Feature\", \"properties\": {}, \"geometry\": {\"type\": \"Polygon\", \"coordinates\": [[[9.13768459136276, 45.434442597514845], [9.138258464034216, 45.433672300829244], [9.138724040746924, 45.4328665998819], [9.139076977754534, 45.43203301984543], [9.14393772430055, 45.418127584767745], [9.144171651642411, 45.417288072181655], [9.144291348156864, 45.416436710525545], [9.144295737666578, 45.4155811909851], [9.144184785727044, 45.41472924196346], [9.143959499749965, 45.41388855926583], [9.143621919718187, 45.41306673659117], [9.143175099582747, 45.41227119695807], [9.14262307951633, 45.41150912568357], [9.141970849279534, 45.41078740551895], [9.141224303035772, 45.410112554527245], [9.140390186026904, 45.409490667261025], [9.139476033594221, 45.408927359770495], [9.138490103097174, 45.40842771893568], [9.129203572916918, 45.404177465236536], [9.138045709348221, 45.38265156277147], [9.138340904868993, 45.38176793514235], [9.138508298683949, 45.38086784773317], [9.138546194268262, 45.3799604556878], [9.138454212391661, 45.37905498801303], [9.138233294723978, 45.37816065370751], [9.137885694008435, 45.377286548111954], [9.137414950912675, 45.376441560432426], [9.136825857802624, 45.375634283376094], [9.136124409816302, 45.37487292581677], [9.135317743742668, 45.37416522937581], [9.13441406533307, 45.37351838976418], [9.133422565788665, 45.37293898368224], [9.13235332827542, 45.37243290201732], [9.131217225417581, 45.372005290015004], [9.130025808810291, 45.37166049502907], [9.119651046825304, 45.36908007443342], [9.11841536944099, 45.368821290152226], [9.117148983347137, 45.368651620451764], [9.115864786820266, 45.36857279342129], [9.114575859281182, 45.36858561191386], [9.113295328268821, 45.36868994538051], [9.112036235927434, 45.36888473119778], [9.11081140635727, 45.369167985475194], [9.10963331517047, 45.36953682323323], [9.108513962572017, 45.36998748774811], [9.107464751250761, 45.37051538876586], [9.106496370317892, 45.37111514919959], [9.090080937625793, 45.382362669383696], [9.089281448130626, 45.382962773658654], [9.088563075941682, 45.38361183097543], [9.087931829469525, 45.38430441525698], [9.08739298934736, 45.38503473634035], [9.086951064208218, 45.38579668834713], [9.086609752893374, 45.38658390069875], [9.074329971498551, 45.42034168072699], [9.074074357807138, 45.42122620975288], [9.073945822687081, 45.42212431977615], [9.073945664731875, 45.42302697947547], [9.074073891646895, 45.42392511135118], [9.074329219926476, 45.424809683012185], [9.074709087520777, 45.42567179802639], [9.075209679374728, 45.42650278542012], [9.075825965591292, 45.42729428692532], [9.076551751843395, 45.428038341095146], [9.077379741534422, 45.428727463439685], [9.078301609087513, 45.42935472177274], [9.079308083630147, 45.42991380600915], [9.08038904223411, 45.43039909170694], [9.081533611772874, 45.43080569671232], [9.082730278369766, 45.43112953033395], [9.083967003332098, 45.43136733454944], [9.10648684917428, 45.43485116410495], [9.10793245026091, 45.439358577272124], [9.108273844862817, 45.44022086216054], [9.108735223115989, 45.441055009902655], [9.109312026444409, 45.441852769474394], [9.109998553847149, 45.442606249451316], [9.110788018141891, 45.44330799612031], [9.11167261299106, 45.44395106727064], [9.112643590051587, 45.44452910093147], [9.11369134548745, 45.445036378373196], [9.114805514989714, 45.44546788074586], [9.115975076362751, 45.44581933879166], [9.117188458658783, 45.44608727513675], [9.118433656776407, 45.446269038741114], [9.119698350383295, 45.446362831163945], [9.120970025979272, 45.4463677243824], [9.12223610088403, 45.44628366998654], [9.123484047914138, 45.44611149965875], [9.124701519506974, 45.44585291693294], [9.125876470054836, 45.445510480315484], [9.126997275230766, 45.44508757793623], [9.128052847118182, 45.444588393982045], [9.129032743999153, 45.44401786724712], [9.129927273710344, 45.44338164221268], [9.130727589541005, 45.4426860131431], [9.131425777722818, 45.441937861754134], [9.13768459136276, 45.434442597514845]]]}}]", "buffer_3": "[{\"type\": \"Feature\", \"properties\": {}, \"geometry\": {\"type\": \"Polygon\", \"coordinates\": [[[9.086702763785702, 45.45022313504389], [9.08712282436541, 45.45080440953311], [9.089181902131656, 45.45306523369776], [9.091550018417703, 45.45517088503688], [9.094203765176545, 45.45710052067497], [9.09711689891164, 45.45883503802346], [9.100260600150396, 45.46035726444362], [9.103603758816, 45.461652127812755], [9.10711328266173, 45.46270680627783], [9.11075442568745, 45.4635108556881], [9.11449113324536, 45.464056313421466], [9.118286400363695, 45.46433777755644], [9.122102639675337, 45.46435246059011], [9.125902055235123, 45.464100217159064], [9.129647018446201, 45.46358354548285], [9.133300442293116, 45.462807562515835], [9.13682615009755, 45.461779953058546], [9.140189235071695, 45.460510893343], [9.143356407043125, 45.45901294986442], [9.146296322862751, 45.457300954480516], [9.14897989718178, 45.45539185703831], [9.151380590492847, 45.453304557013375], [9.153474671571349, 45.451059715855436], [9.159731567841769, 45.44356325811013], [9.161452514573876, 45.441252031424874], [9.162848400141913, 45.438834643327276], [9.163906224827482, 45.436333679961656], [9.168761238829898, 45.4224272070651], [9.16946194885238, 45.41990851843969], [9.169819903623113, 45.41735435603009], [9.16983191553585, 45.414787796172476], [9.16949792295662, 45.4122320241071], [9.16882098909046, 45.40971012453279], [9.16780727265024, 45.40724487318086], [9.166465970652332, 45.40485853128748], [9.16480923391224, 45.4025726448128], [9.162852056054646, 45.400407850209476], [9.160612137084346, 45.39838368848025], [9.158753608486196, 45.39699838825937], [9.162587568245113, 45.387652794230014], [9.163472057251631, 45.385001722230015], [9.163973054450734, 45.38230135154683], [9.164085518346308, 45.3795791519985], [9.1638083608757, 45.3768628115393], [9.16314445621205, 45.37417995461056], [9.162100609290212, 45.37155786129671], [9.160687484467223, 45.36902319013757], [9.158919495129007, 45.36660170740536], [9.156814655444045, 45.364318025582726], [9.154394395838281, 45.36219535367963], [9.151683344120665, 45.360255261902395], [9.148709074521857, 45.35851746303914], [9.145501827217563, 45.356999612753796], [9.142094201189789, 45.35571713078813], [9.138520823532316, 45.35468304485871], [9.12814878126615, 45.35210338519358], [9.124442776144846, 45.35132726459476], [9.1206447577668, 45.35081841109506], [9.116793374668173, 45.350582002647855], [9.112927816118233, 45.35062044486454], [9.109087415027615, 45.350933346636445], [9.105311249425359, 45.35151752409558], [9.101637746473857, 45.35236703287481], [9.098104292967387, 45.353473228346395], [9.094746856199801, 45.35482485323804], [9.091599618990628, 45.35640815175308], [9.088694632526812, 45.358207009055434], [9.072279398313697, 45.36945199623677], [9.069880859006613, 45.371251922407694], [9.067725471192347, 45.37319871869899], [9.065831269116979, 45.375276119410266], [9.064214110080433, 45.377466765802055], [9.062887541257211, 45.379752350814876], [9.061862685614715, 45.3821137717623], [9.04956912634087, 45.415868923625716], [9.048801161739323, 45.41852234489488], [9.048414360320939, 45.42121659055802], [9.048412665840306, 45.42392457005294], [9.048796150389991, 45.42661905088065], [9.04956101146659, 45.4292729324644], [9.050699608043328, 45.43185951883563], [9.052200535373428, 45.43435278739869], [9.054048737854101, 45.43672765105946], [9.056225658889748, 45.43896021106481], [9.058709426309608, 45.441027997987625], [9.061475071523658, 45.44291019840827], [9.06449478024527, 45.44458786498378], [9.067738172274659, 45.44604410776149], [9.071172607526861, 45.447264264782554], [9.074763515206339, 45.44823605022873], [9.078474742780518, 45.448949678594964], [9.086702763785702, 45.45022313504389]]]}}]", "buffer_5": "[{\"type\": \"Feature\", \"properties\": {}, \"geometry\": {\"type\": \"Polygon\", \"coordinates\": [[[9.071402219555797, 45.4662285251405], [9.072303949756751, 45.46703051410123], [9.076726796628366, 45.47024727743035], [9.081582356136895, 45.47313883404946], [9.086822582639972, 45.475676535428434], [9.092395597465925, 45.47783523535211], [9.098246204093426, 45.479593540541686], [9.10431643720136, 45.48093402397657], [9.110546140033962, 45.481843398736984], [9.116873564208804, 45.482312650588746], [9.123235985842362, 45.482337127951816], [9.12957033168336, 45.48191658833007], [9.135813808830553, 45.481055200726324], [9.141904531571095, 45.479761504017574], [9.147782138908253, 45.478048321718354], [9.15338839645305, 45.47593263400636], [9.158667776531386, 45.4734354083222], [9.163568010603871, 45.470581390276955], [9.168040608406214, 45.46739885700459], [9.172041338589146, 45.46391933547471], [9.17553066606284, 45.4601772886322], [9.181785641249613, 45.45267963772473], [9.184652765161571, 45.448827032472465], [9.18697783179611, 45.444797577343124], [9.188739227631931, 45.4406289335977], [9.193588505052565, 45.426721425171394], [9.194754567422716, 45.4225233600897], [9.195349266892887, 45.418266294489946], [9.195367359037954, 45.41398869351324], [9.194808810634937, 45.40972919922514], [9.19367879526846, 45.405526281544226], [9.191987641988769, 45.401417891034946], [9.189750737651767, 45.39744111668908], [9.186988383979372, 45.39363185176528], [9.186811184662636, 45.39343595126225], [9.18713374012132, 45.39264874126186], [9.188606057978316, 45.38822997347729], [9.189439078837731, 45.38372917575747], [9.189624480402777, 45.37919213838418], [9.189160531964113, 45.374665009441266], [9.18805210571186, 45.370193825344714], [9.186310620959112, 45.36582404295033], [9.183953922096213, 45.36160007798351], [9.181006091755558, 45.35756485445391], [9.17749720130235, 45.35375936959065], [9.173463001372491, 45.35022227866113], [9.16894455574948, 45.34698950382369], [9.163987822403795, 45.34409387091093], [9.158643186007101, 45.34156477775134], [9.152964946676699, 45.33942789731457], [9.147010770100518, 45.33770491861329], [9.136641445819103, 45.335126019026674], [9.13046648108935, 45.33383287132176], [9.124138348671895, 45.3329850411747], [9.117721385785964, 45.33259114801606], [9.111280826394136, 45.33265519630075], [9.104882142678564, 45.33317653507544], [9.098590384179342, 45.33414986454354], [9.092469521075909, 45.33556528956415], [9.086581798056725, 45.3374084195597], [9.080987105130912, 45.33966051385123], [9.075742371588461, 45.3422986709929], [9.07090098911347, 45.34529606024149], [9.054485958018788, 45.356538515628024], [9.05048827581578, 45.3595377483963], [9.046895512308867, 45.36278178286955], [9.043737739479518, 45.36624353041456], [9.041041411698945, 45.369894079375946], [9.038829142920887, 45.37370293562181], [9.03711951537693, 45.37763827644309], [9.024812188374948, 45.4113907946892], [9.023530375914477, 45.41581288635317], [9.022883714023916, 45.42030315425227], [9.022878855532955, 45.424816453178856], [9.023516002222857, 45.42930739569711], [9.024788896661416, 45.4337308085663], [9.026684879105995, 45.43804218743702], [9.029185009144706, 45.44219814523163], [9.032264251081205, 45.44615684966721], [9.035891721404576, 45.4498784454734], [9.040030996030154, 45.45332545699748], [9.044640474357553, 45.45646316707595], [9.049673796576606, 45.45925996828157], [9.055080310068472, 45.461687682928705], [9.060805580205463, 45.46372184853172], [9.066791940356813, 45.46534196576136], [9.071402219555797, 45.4662285251405]]]}}]", "centroid": "[{\"type\": \"Feature\", \"properties\": {}, \"geometry\": {\"type\": \"Point\", \"coordinates\": [9.112232185226384, 45.40787499637136]}}]", "Diesel High Quality": {"1": [{"Gestore": "SERVIZI & GESTIONI ITALIA S.R.L.", "Bandiera": "Q8", "Tipo impianto": "Altro", "Indirizzo": "VIA LORENTEGGIO 268 20152", "Nome impianto": "MILANO-VIA LORENTEGGIO 268", "Comune": "MILANO", "idImpianto": 11672, "points": [{"type": "Feature", "properties": {}, "geometry": {"type": "Point", "coordinates": [9.11799119510647, 45.44451291033063]}}], "price": 2.269, "ultima_rilevazione": "18/07/2022 00:35:32"}, {"Gestore": "SERVIZI & GESTIONI ITALIA S.R.L.", "Bandiera": "Q8", "Tipo impianto": "Altro", "Indirizzo": "VIA LORENTEGGIO 268 20152", "Nome impianto": "MILANO-VIA LORENTEGGIO 268", "Comune": "MILANO", "idImpianto": 11672, "points": [{"type": "Feature", "properties": {}, "geometry": {"type": "Point", "coordinates": [9.11799119510647, 45.44451291033063]}}], "price": 2.279, "ultima_rilevazione": "18/07/2022 00:35:32"}, {"Gestore": "PITSTOP S.A.S DI D. RUGGIERO E C.", "Bandiera": "Api-Ip", "Tipo impianto": "Altro", "Indirizzo": "VIA DELLA COSTITUZIONE SNC 20090", "Nome impianto": "PITSTOP", "Comune": "BUCCINASCO", "idImpianto": 46709, "points": [{"type": "Feature", "properties": {}, "geometry": {"type": "Point", "coordinates": [9.125681348661374, 45.42677413759954]}}], "price": 1.819, "ultima_rilevazione": "18/07/2022 16:03:27"}, {"Gestore": "EGI-2GO S.R.L.", "Bandiera": "Esso", "Tipo impianto": "Altro", "Indirizzo": "VIA LORENTEGGIO 278 20147", "Nome impianto": "lorenteggio", "Comune": "MILANO", "idImpianto": 48647, "points": [{"type": "Feature", "properties": {}, "geometry": {"type": "Point", "coordinates": [9.116153860118851, 45.44387658650403]}}], "price": 2.099, "ultima_rilevazione": "22/07/2022 11:23:16"}, {"Gestore": "GF GOMME DI CASO GIUSEPPE", "Bandiera": "Esso", "Tipo impianto": "Altro", "Indirizzo": "VIA VERDI  1 20090", "Nome impianto": "Gf Gomme di Caso Giuseppe", "Comune": "ASSAGO", "idImpianto": 35453, "points": [{"type": "Feature", "properties": {}, "geometry": {"type": "Point", "coordinates": [9.127376228570938, 45.40764743259112]}}], "price": 2.106, "ultima_rilevazione": "22/07/2022 10:57:56"}, {"Gestore": "LE MANS SERVICE S.R.L.", "Bandiera": "Agip Eni", "Tipo impianto": "Autostradale", "Indirizzo": "A50 TANG.LE OVEST DI MILANO, Km. 18.723, Ovest 20094", "Nome impianto": "ASSAGO", "Comune": "ASSAGO", "idImpianto": 3503, "points": [{"type": "Feature", "properties": {}, "geometry": {"type": "Point", "coordinates": [9.12240854232789, 45.40091753316316]}}], "price": 2.439, "ultima_rilevazione": "22/07/2022 15:30:35"}, {"Gestore": "LE MANS SERVICE S.R.L.", "Bandiera": "Agip Eni", "Tipo impianto": "Autostradale", "Indirizzo": "A50 TANG.LE OVEST DI MILANO, Km. 18.723, Ovest 20094", "Nome impianto": "ASSAGO", "Comune": "ASSAGO", "idImpianto": 3503, "points": [{"type": "Feature", "properties": {}, "geometry": {"type": "Point", "coordinates": [9.12240854232789, 45.40091753316316]}}], "price": 2.369, "ultima_rilevazione": "22/07/2022 15:30:35"}], "3": [{"Gestore": "SERVIZI & GESTIONI ITALIA srl", "Bandiera": "Q8", "Tipo impianto": "Altro", "Indirizzo": "VIA MILANO 30 20029", "Nome impianto": "CESANO BOSCONE VIA MILANO 30", "Comune": "CESANO BOSCONE", "idImpianto": 6441, "points": [{"type": "Feature", "properties": {}, "geometry": {"type": "Point", "coordinates": [9.097773485319522, 45.4416935736466]}}], "price": 1.719, "ultima_rilevazione": "18/07/2022 00:35:29"}, {"Gestore": "SERVIZI & GESTIONI ITALIA S.R.L.", "Bandiera": "Q8", "Tipo impianto": "Altro", "Indirizzo": "VIA S.RITA 41 20143", "Nome impianto": "MILANO - VIA S.RITA 41", "Comune": "MILANO", "idImpianto": 30890, "points": [{"type": "Feature", "properties": {}, "geometry": {"type": "Point", "coordinates": [9.15255239444275, 45.43946312005717]}}], "price": 2.264, "ultima_rilevazione": "19/07/2022 07:07:00"}, {"Gestore": "SERVIZI & GESTIONI ITALIA S.R.L.", "Bandiera": "Q8", "Tipo impianto": "Altro", "Indirizzo": "VIA S.RITA 41 20143", "Nome impianto": "MILANO - VIA S.RITA 41", "Comune": "MILANO", "idImpianto": 30890, "points": [{"type": "Feature", "properties": {}, "geometry": {"type": "Point", "coordinates": [9.15255239444275, 45.43946312005717]}}], "price": 2.274, "ultima_rilevazione": "19/07/2022 07:07:00"}, {"Gestore": "SERVIZI & GESTIONI ITALIA S.R.L.", "Bandiera": "Q8", "Tipo impianto": "Altro", "Indirizzo": "VIA S.RITA DA CASCIA 2 20143", "Nome impianto": "MILANO-VIA S.RITA DA CASCIA 2", "Comune": "MILANO", "idImpianto": 11674, "points": [{"type": "Feature", "properties": {}, "geometry": {"type": "Point", "coordinates": [9.148052036762238, 45.44220035218852]}}], "price": 2.264, "ultima_rilevazione": "19/07/2022 07:07:02"}, {"Gestore": "SERVIZI & GESTIONI ITALIA S.R.L.", "Bandiera": "Q8", "Tipo impianto": "Altro", "Indirizzo": "VIA S.RITA DA CASCIA 2 20143", "Nome impianto": "MILANO-VIA S.RITA DA CASCIA 2", "Comune": "MILANO", "idImpianto": 11674, "points": [{"type": "Feature", "properties": {}, "geometry": {"type": "Point", "coordinates": [9.148052036762238, 45.44220035218852]}}], "price": 2.274, "ultima_rilevazione": "19/07/2022 07:07:02"}, {"Gestore": "SERVIZI & GESTIONI ITALIA S.R.L.", "Bandiera": "Q8", "Tipo impianto": "Altro", "Indirizzo": "VIA L. DA VINCI ANG. L.ARIOSTO  20090", "Nome impianto": "TREZZANO SUL NAVIGLIO VIA L. DA VINCI ANG. L.ARIOSTO", "Comune": "TREZZANO SUL NAVIGLIO", "idImpianto": 35904, "points": [{"type": "Feature", "properties": {}, "geometry": {"type": "Point", "coordinates": [9.051848990212989, 45.4181909556288]}}], "price": 2.284, "ultima_rilevazione": "19/07/2022 07:07:02"}, {"Gestore": "VUOTTI ANTONIO", "Bandiera": "Esso", "Tipo impianto": "Altro", "Indirizzo": "VIA DELLE FORZE ARMATE 189 20152", "Nome impianto": "Esso", "Comune": "MILANO", "idImpianto": 47900, "points": [{"type": "Feature", "properties": {}, "geometry": {"type": "Point", "coordinates": [9.11278631779098, 45.460115237367255]}}], "price": 2.019, "ultima_rilevazione": "22/07/2022 17:59:45"}, {"Gestore": "MONTAGNA GIULIO MAURO", "Bandiera": "Esso", "Tipo impianto": "Altro", "Indirizzo": "viale forze armate ang fratellill zoia 226 20152", "Nome impianto": "Esso", "Comune": "MILANO", "idImpianto": 49382, "points": [{"type": "Feature", "properties": {}, "geometry": {"type": "Point", "coordinates": [9.110602186508189, 45.46076376258973]}}], "price": 2.049, "ultima_rilevazione": "22/07/2022 07:34:00"}, {"Gestore": "VIOTTI PAOLO", "Bandiera": "Q8", "Tipo impianto": "Altro", "Indirizzo": "VIA BENVENUTO CELLINI 17 20094", "Nome impianto": "stazione servizio Q8", "Comune": "CORSICO", "idImpianto": 9555, "points": [{"type": "Feature", "properties": {}, "geometry": {"type": "Point", "coordinates": [9.091576784849169, 45.43753338858258]}}], "price": 2.199, "ultima_rilevazione": "22/07/2022 07:55:25"}, {"Gestore": "IP SERVICES S.R.L.", "Bandiera": "Api-Ip", "Tipo impianto": "Altro", "Indirizzo": "Via Gozzoli 140 20152", "Nome impianto": "Milano Gozzoli", "Comune": "MILANO", "idImpianto": 36483, "points": [{"type": "Feature", "properties": {}, "geometry": {"type": "Point", "coordinates": [9.096267685319503, 45.45021919503954]}}], "price": 1.899, "ultima_rilevazione": "22/07/2022 16:02:57"}, {"Gestore": "EGI-2GO S.R.L.", "Bandiera": "Esso", "Tipo impianto": "Altro", "Indirizzo": "VIALE LOMBARDIA 38 20089", "Nome impianto": "EGI-2GO ROZZANO", "Comune": "ROZZANO", "idImpianto": 50614, "points": [{"type": "Feature", "properties": {}, "geometry": {"type": "Point", "coordinates": [9.151350734779378, 45.38544807409766]}}], "price": 2.099, "ultima_rilevazione": "23/07/2022 07:44:40"}], "5": [{"Gestore": "SERVIZI & GESTIONI ITALIA S.R.L.", "Bandiera": "Q8", "Tipo impianto": "Altro", "Indirizzo": "P.LE BRESCIA ANG. VIA OSOPPO S/N 20149", "Nome impianto": "MILANO-P.LE BRESCIA ANG. VIA OSOPPO", "Comune": "MILANO", "idImpianto": 11693, "points": [{"type": "Feature", "properties": {}, "geometry": {"type": "Point", "coordinates": [9.14444483420118, 45.4699713586045]}}], "price": 1.949, "ultima_rilevazione": "18/07/2022 00:35:33"}, {"Gestore": "SILMA S.A.S. DI SAVERIO MANOSPERTI & C", "Bandiera": "Q8", "Tipo impianto": "Altro", "Indirizzo": "VIA DELLA CHIESA ROSSA 15 20142", "Nome impianto": "Q8", "Comune": "MILANO", "idImpianto": 35092, "points": [{"type": "Feature", "properties": {}, "geometry": {"type": "Point", "coordinates": [9.174308017196608, 45.4347660147854]}}], "price": 2.199, "ultima_rilevazione": "16/07/2022 23:11:15"}, {"Gestore": "SERVIZI & GESTIONI ITALIA S.R.L.", "Bandiera": "Q8", "Tipo impianto": "Altro", "Indirizzo": "CURIEL ANG. FRANCHI/QUINTO STA  20089", "Nome impianto": "ROZZANO CURIEL ANG. FRANCHI/QUINTO STA", "Comune": "ROZZANO", "idImpianto": 35905, "points": [{"type": "Feature", "properties": {}, "geometry": {"type": "Point", "coordinates": [9.173158313491854, 45.39875870418885]}}], "price": 2.269, "ultima_rilevazione": "18/07/2022 00:35:27"}, {"Gestore": "SERVIZI & GESTIONI ITALIA S.R.L.", "Bandiera": "Q8", "Tipo impianto": "Altro", "Indirizzo": "VIALE CASSALA 4/A 20143", "Nome impianto": "MILANO-VIALE CASSALA 4/A", "Comune": "MILANO", "idImpianto": 11661, "points": [{"type": "Feature", "properties": {}, "geometry": {"type": "Point", "coordinates": [9.159797725200631, 45.44588118208996]}}], "price": 2.269, "ultima_rilevazione": "18/07/2022 00:35:32"}, {"Gestore": "SERVIZI & GESTIONI ITALIA S.R.L.", "Bandiera": "Q8", "Tipo impianto": "Altro", "Indirizzo": "VIALE CASSALA 4/A 20143", "Nome impianto": "MILANO-VIALE CASSALA 4/A", "Comune": "MILANO", "idImpianto": 11661, "points": [{"type": "Feature", "properties": {}, "geometry": {"type": "Point", "coordinates": [9.159797725200631, 45.44588118208996]}}], "price": 2.279, "ultima_rilevazione": "18/07/2022 00:35:32"}, {"Gestore": "SERVIZI & GESTIONI ITALIA S.R.L.", "Bandiera": "Q8", "Tipo impianto": "Altro", "Indirizzo": "VIALE BEZZI 82 20146", "Nome impianto": "MILANO-VIALE BEZZI 82", "Comune": "MILANO", "idImpianto": 11669, "points": [{"type": "Feature", "properties": {}, "geometry": {"type": "Point", "coordinates": [9.148964373016383, 45.46069782752843]}}], "price": 2.269, "ultima_rilevazione": "18/07/2022 00:35:32"}, {"Gestore": "SERVIZI & GESTIONI ITALIA S.R.L.", "Bandiera": "Q8", "Tipo impianto": "Altro", "Indirizzo": "VIALE BEZZI 82 20146", "Nome impianto": "MILANO-VIALE BEZZI 82", "Comune": "MILANO", "idImpianto": 11669, "points": [{"type": "Feature", "properties": {}, "geometry": {"type": "Point", "coordinates": [9.148964373016383, 45.46069782752843]}}], "price": 2.279, "ultima_rilevazione": "18/07/2022 00:35:32"}, {"Gestore": "SERVIZI & GESTIONI ITALIA S.R.L.", "Bandiera": "Q8", "Tipo impianto": "Altro", "Indirizzo": "PIAZZA TRIPOLI/RONCAGLIA  20146", "Nome impianto": "PIAZZA TRIPOLI/RONCAGLIA - MILANO", "Comune": "MILANO", "idImpianto": 28932, "points": [{"type": "Feature", "properties": {}, "geometry": {"type": "Point", "coordinates": [9.15067099577027, 45.459256888823695]}}], "price": 2.269, "ultima_rilevazione": "18/07/2022 00:35:32"}, {"Gestore": "SERVIZI & GESTIONI ITALIA S.R.L.", "Bandiera": "Q8", "Tipo impianto": "Altro", "Indirizzo": "PIAZZA TRIPOLI/RONCAGLIA  20146", "Nome impianto": "PIAZZA TRIPOLI/RONCAGLIA - MILANO", "Comune": "MILANO", "idImpianto": 28932, "points": [{"type": "Feature", "properties": {}, "geometry": {"type": "Point", "coordinates": [9.15067099577027, 45.459256888823695]}}], "price": 2.279, "ultima_rilevazione": "18/07/2022 00:35:32"}, {"Gestore": "B.S.B. S.A.S. DI SCHETTINO SALVATORE E C.", "Bandiera": "Q8", "Tipo impianto": "Altro", "Indirizzo": "viale romagna  22 20089", "Nome impianto": "Q 8", "Comune": "ROZZANO", "idImpianto": 35373, "points": [{"type": "Feature", "properties": {}, "geometry": {"type": "Point", "coordinates": [9.165473263229387, 45.3838481151157]}}], "price": 2.259, "ultima_rilevazione": "18/07/2022 07:56:47"}, {"Gestore": "SERVIZI & GESTIONI ITALIA S.R.L.", "Bandiera": "Q8", "Tipo impianto": "Altro", "Indirizzo": "VIA NOVARA 82 20147", "Nome impianto": "MILANO-VIA NOVARA 82", "Comune": "MILANO", "idImpianto": 11664, "points": [{"type": "Feature", "properties": {}, "geometry": {"type": "Point", "coordinates": [9.121613818454762, 45.47161880932868]}}], "price": 2.279, "ultima_rilevazione": "19/07/2022 07:07:02"}, {"Gestore": "SERVIZI & GESTIONI ITALIA S.R.L.", "Bandiera": "Q8", "Tipo impianto": "Altro", "Indirizzo": "VIA NOVARA 82 20147", "Nome impianto": "MILANO-VIA NOVARA 82", "Comune": "MILANO", "idImpianto": 11664, "points": [{"type": "Feature", "properties": {}, "geometry": {"type": "Point", "coordinates": [9.121613818454762, 45.47161880932868]}}], "price": 2.299, "ultima_rilevazione": "19/07/2022 07:07:02"}, {"Gestore": "NUOVA SIDAP  S.R.L.", "Bandiera": "Q8", "Tipo impianto": "Altro", "Indirizzo": "Via Sandro Pertini 331/11 20152", "Nome impianto": "MILANO PERTINI OIL", "Comune": "MILANO", "idImpianto": 45207, "points": [{"type": "Feature", "properties": {}, "geometry": {"type": "Point", "coordinates": [9.072222709655762, 45.45678067793206]}}], "price": 2.269, "ultima_rilevazione": "19/07/2022 10:57:34"}, {"Gestore": "NUOVA SIDAP  S.R.L.", "Bandiera": "Q8", "Tipo impianto": "Altro", "Indirizzo": "Via Sandro Pertini 331/11 20152", "Nome impianto": "MILANO PERTINI OIL", "Comune": "MILANO", "idImpianto": 45207, "points": [{"type": "Feature", "properties": {}, "geometry": {"type": "Point", "coordinates": [9.072222709655762, 45.45678067793206]}}], "price": 2.229, "ultima_rilevazione": "19/07/2022 10:57:34"}, {"Gestore": "LA PADANA SNC DI CONTI ANTONIO DARIO E SONIA", "Bandiera": "Esso", "Tipo impianto": "Altro", "Indirizzo": "VIALE LIGURIA 12 20143", "Nome impianto": "LA PADANA SNC", "Comune": "MILANO", "idImpianto": 31389, "points": [{"type": "Feature", "properties": {}, "geometry": {"type": "Point", "coordinates": [9.168712644110885, 45.44377193398634]}}], "price": 2.109, "ultima_rilevazione": "21/07/2022 14:37:22"}, {"Gestore": "VEGA CARBURANTI S.P.A.", "Bandiera": "Vega", "Tipo impianto": "Altro", "Indirizzo": "VIA DEI MISSAGLIA 109 20142", "Nome impianto": "VEGA MISSAGLIA", "Comune": "MILANO", "idImpianto": 37696, "points": [{"type": "Feature", "properties": {}, "geometry": {"type": "Point", "coordinates": [9.17501963675022, 45.40904747506723]}}], "price": 1.939, "ultima_rilevazione": "23/07/2022 00:07:28"}, {"Gestore": "EGI-2GO S.R.L.", "Bandiera": "Esso", "Tipo impianto": "Altro", "Indirizzo": "VIA PALATINO 1 20148", "Nome impianto": "EGI-2GO MI VIA PALATINO", "Comune": "MILANO", "idImpianto": 51317, "points": [{"type": "Feature", "properties": {}, "geometry": {"type": "Point", "coordinates": [9.131456999999989, 45.4762906691333]}}], "price": 2.059, "ultima_rilevazione": "22/07/2022 17:00:09"}, {"Gestore": "TORZINI LUCA", "Bandiera": "Q8", "Tipo impianto": "Altro", "Indirizzo": "VIA NOVARA 46 20147", "Nome impianto": "Stazione Rifornimento Q8 Torzini Luca", "Comune": "MILANO", "idImpianto": 13234, "points": [{"type": "Feature", "properties": {}, "geometry": {"type": "Point", "coordinates": [9.124655993219337, 45.46991993269708]}}], "price": 2.079, "ultima_rilevazione": "23/07/2022 06:44:32"}]}, "Blue Diesel": {"1": [{"Gestore": "URBINATI S.N.C. DI URBINATI ARKADI & C.", "Bandiera": "Agip Eni", "Tipo impianto": "Altro", "Indirizzo": "VIA LORENTEGGIO 239 20152", "Nome impianto": "URBINATI S.N.C. DI URBINATI ARKADI & C.", "Comune": "MILANO", "idImpianto": 6355, "points": [{"type": "Feature", "properties": {}, "geometry": {"type": "Point", "coordinates": [9.121377045277429, 45.44499073380677]}}], "price": 2.044, "ultima_rilevazione": "22/07/2022 08:53:46"}, {"Gestore": "URBINATI S.N.C. DI URBINATI ARKADI & C.", "Bandiera": "Agip Eni", "Tipo impianto": "Altro", "Indirizzo": "VIA LORENTEGGIO 239 20152", "Nome impianto": "URBINATI S.N.C. DI URBINATI ARKADI & C.", "Comune": "MILANO", "idImpianto": 6355, "points": [{"type": "Feature", "properties": {}, "geometry": {"type": "Point", "coordinates": [9.121377045277429, 45.44499073380677]}}], "price": 2.084, "ultima_rilevazione": "22/07/2022 08:53:46"}, {"Gestore": "F.LLI VIZZIELLI SNC DI VIZZIELLI FELICE DANILO E C", "Bandiera": "Agip Eni", "Tipo impianto": "Altro", "Indirizzo": "VIA LODOVICO IL MORO 187 20142", "Nome impianto": "ENI", "Comune": "MILANO", "idImpianto": 10843, "points": [{"type": "Feature", "properties": {}, "geometry": {"type": "Point", "coordinates": [9.126183986663818, 45.43895358051159]}}], "price": 2.034, "ultima_rilevazione": "22/07/2022 18:57:19"}, {"Gestore": "ENI FUEL S.P.A.", "Bandiera": "Agip Eni", "Tipo impianto": "Altro", "Indirizzo": "Via dei Mille  ", "Nome impianto": "12165 \u2013 Buccinasco", "Comune": "BUCCINASCO", "idImpianto": 50598, "points": [{"type": "Feature", "properties": {}, "geometry": {"type": "Point", "coordinates": [9.112099677988772, 45.423370319274255]}}], "price": 2.064, "ultima_rilevazione": "23/07/2022 07:44:03"}, {"Gestore": "ENI FUEL S.P.A.", "Bandiera": "Agip Eni", "Tipo impianto": "Altro", "Indirizzo": "Via dei Mille  ", "Nome impianto": "12165 \u2013 Buccinasco", "Comune": "BUCCINASCO", "idImpianto": 50598, "points": [{"type": "Feature", "properties": {}, "geometry": {"type": "Point", "coordinates": [9.112099677988772, 45.423370319274255]}}], "price": 2.124, "ultima_rilevazione": "23/07/2022 07:44:03"}, {"Gestore": "ENI FUEL S.P.A.", "Bandiera": "Agip Eni", "Tipo impianto": "Altro", "Indirizzo": "via Lorenteggio 258 20146", "Nome impianto": "PV 56132 Lorenteggio", "Comune": "MILANO", "idImpianto": 44949, "points": [{"type": "Feature", "properties": {}, "geometry": {"type": "Point", "coordinates": [9.120575503794951, 45.44527996387759]}}], "price": 2.034, "ultima_rilevazione": "23/07/2022 00:22:02"}, {"Gestore": "VIZZIELLI S.A.S. DI VIZZIELLI MONICA E C.", "Bandiera": "Agip Eni", "Tipo impianto": "Altro", "Indirizzo": "VIA DELLE INDUSTRIE 8 20094", "Nome impianto": "ENI", "Comune": "CORSICO", "idImpianto": 14630, "points": [{"type": "Feature", "properties": {}, "geometry": {"type": "Point", "coordinates": [9.07955914735794, 45.429669364959146]}}], "price": 2.059, "ultima_rilevazione": "23/07/2022 07:37:34"}, {"Gestore": "VIZZIELLI S.A.S. DI VIZZIELLI MONICA E C.", "Bandiera": "Agip Eni", "Tipo impianto": "Altro", "Indirizzo": "VIA DELLE INDUSTRIE 8 20094", "Nome impianto": "ENI", "Comune": "CORSICO", "idImpianto": 14630, "points": [{"type": "Feature", "properties": {}, "geometry": {"type": "Point", "coordinates": [9.07955914735794, 45.429669364959146]}}], "price": 1.999, "ultima_rilevazione": "23/07/2022 07:37:34"}], "3": [{"Gestore": "PUCCI PIETRO E VITANGELO & C. S.N.C.", "Bandiera": "Agip Eni", "Tipo impianto": "Altro", "Indirizzo": "VIALE ROMAGNA  20089", "Nome impianto": "stazione eni", "Comune": "ROZZANO", "idImpianto": 17549, "points": [{"type": "Feature", "properties": {}, "geometry": {"type": "Point", "coordinates": [9.16100174188614, 45.38219714460462]}}], "price": 1.739, "ultima_rilevazione": "15/12/2021 07:33:32"}, {"Gestore": "PEZZUTO VINCENZO", "Bandiera": "Agip Eni", "Tipo impianto": "Altro", "Indirizzo": "VIA REPUBBLICA SNC 20090", "Nome impianto": "Eni", "Comune": "CESANO BOSCONE", "idImpianto": 14813, "points": [{"type": "Feature", "properties": {}, "geometry": {"type": "Point", "coordinates": [9.098590761423113, 45.44272352185422]}}], "price": 1.739, "ultima_rilevazione": "17/12/2021 06:25:28"}, {"Gestore": "PEZZUTO VINCENZO", "Bandiera": "Agip Eni", "Tipo impianto": "Altro", "Indirizzo": "VIA REPUBBLICA SNC 20090", "Nome impianto": "Eni", "Comune": "CESANO BOSCONE", "idImpianto": 14813, "points": [{"type": "Feature", "properties": {}, "geometry": {"type": "Point", "coordinates": [9.098590761423113, 45.44272352185422]}}], "price": 1.939, "ultima_rilevazione": "17/12/2021 06:25:28"}, {"Gestore": "MIRA S.N.C. DI DELLI SANTI ANTONIO & C.", "Bandiera": "Agip Eni", "Tipo impianto": "Altro", "Indirizzo": "VIALE LOMBARDIA 38 20089", "Nome impianto": "eni", "Comune": "ROZZANO", "idImpianto": 15919, "points": [{"type": "Feature", "properties": {}, "geometry": {"type": "Point", "coordinates": [9.150886461138724, 45.385665890131136]}}], "price": 2.339, "ultima_rilevazione": "12/03/2022 10:16:58"}, {"Gestore": "CALI' MARCO", "Bandiera": "Agip Eni", "Tipo impianto": "Altro", "Indirizzo": "VIA INGANNI ANGELO 99 20147", "Nome impianto": "ENI CALI' MARCO INGANNI", "Comune": "MILANO", "idImpianto": 39911, "points": [{"type": "Feature", "properties": {}, "geometry": {"type": "Point", "coordinates": [9.122362812025472, 45.45662726916326]}}], "price": 2.034, "ultima_rilevazione": "11/07/2022 08:31:12"}, {"Gestore": "CALI' MARCO", "Bandiera": "Agip Eni", "Tipo impianto": "Altro", "Indirizzo": "VIA INGANNI ANGELO 99 20147", "Nome impianto": "ENI CALI' MARCO INGANNI", "Comune": "MILANO", "idImpianto": 39911, "points": [{"type": "Feature", "properties": {}, "geometry": {"type": "Point", "coordinates": [9.122362812025472, 45.45662726916326]}}], "price": 2.174, "ultima_rilevazione": "11/07/2022 08:31:12"}, {"Gestore": "CALI' MARCO", "Bandiera": "Agip Eni", "Tipo impianto": "Altro", "Indirizzo": "VIA SANTA RITA DA CASCIA 64 20143", "Nome impianto": "CALI MARCO", "Comune": "MILANO", "idImpianto": 14653, "points": [{"type": "Feature", "properties": {}, "geometry": {"type": "Point", "coordinates": [9.15306679140167, 45.438391529127045]}}], "price": 2.144, "ultima_rilevazione": "15/07/2022 10:25:25"}, {"Gestore": "CALI' MARCO", "Bandiera": "Agip Eni", "Tipo impianto": "Altro", "Indirizzo": "VIA SANTA RITA DA CASCIA 64 20143", "Nome impianto": "CALI MARCO", "Comune": "MILANO", "idImpianto": 14653, "points": [{"type": "Feature", "properties": {}, "geometry": {"type": "Point", "coordinates": [9.15306679140167, 45.438391529127045]}}], "price": 2.084, "ultima_rilevazione": "15/07/2022 10:25:25"}, {"Gestore": "PALAZZO MARINA", "Bandiera": "Agip Eni", "Tipo impianto": "Altro", "Indirizzo": "via dellla chiesa rossa 157 20142", "Nome impianto": "stazione di servizio ENI di Palazzo Marina", "Comune": "MILANO", "idImpianto": 46942, "points": [{"type": "Feature", "properties": {}, "geometry": {"type": "Point", "coordinates": [9.167575101852435, 45.42222447354936]}}], "price": 2.109, "ultima_rilevazione": "20/07/2022 14:32:15"}, {"Gestore": "METTA GERARDO", "Bandiera": "Agip Eni", "Tipo impianto": "Altro", "Indirizzo": "via circonvallazione 2 20090", "Nome impianto": "stazione di servizio di metta gerardo", "Comune": "TREZZANO SUL NAVIGLIO", "idImpianto": 41220, "points": [{"type": "Feature", "properties": {}, "geometry": {"type": "Point", "coordinates": [9.072803847082469, 45.41857103674258]}}], "price": 2.034, "ultima_rilevazione": "21/07/2022 07:23:53"}, {"Gestore": "VINCI S.A.S. DI VINCI SALVATORE & C.", "Bandiera": "Agip Eni", "Tipo impianto": "Autostradale", "Indirizzo": "Autostrada A7 MILANO-SERRAVALLE, Km. 1, dir. Genova 20142", "Nome impianto": "CANTALUPA OVEST", "Comune": "MILANO", "idImpianto": 7744, "points": [{"type": "Feature", "properties": {}, "geometry": {"type": "Point", "coordinates": [9.155162572860718, 45.4191693049389]}}], "price": 2.169, "ultima_rilevazione": "21/07/2022 07:25:48"}, {"Gestore": "VINCI S.A.S. DI VINCI SALVATORE & C.", "Bandiera": "Agip Eni", "Tipo impianto": "Autostradale", "Indirizzo": "Autostrada A7 MILANO-SERRAVALLE, Km. 1, dir. Genova 20142", "Nome impianto": "CANTALUPA OVEST", "Comune": "MILANO", "idImpianto": 7744, "points": [{"type": "Feature", "properties": {}, "geometry": {"type": "Point", "coordinates": [9.155162572860718, 45.4191693049389]}}], "price": 2.109, "ultima_rilevazione": "21/07/2022 07:25:48"}, {"Gestore": "ADM SAS DI SQUERI ALBERTO & C.", "Bandiera": "Agip Eni", "Tipo impianto": "Autostradale", "Indirizzo": "Autostrada A50 TANG.LE OVEST DI MILANO, Km. km 12, dir. lato ovest 20152", "Nome impianto": "MUGGIANO OVEST", "Comune": "MILANO", "idImpianto": 37664, "points": [{"type": "Feature", "properties": {}, "geometry": {"type": "Point", "coordinates": [9.073683768510818, 45.44485416502995]}}], "price": 2.199, "ultima_rilevazione": "22/07/2022 11:35:52"}, {"Gestore": "ADM SAS DI SQUERI ALBERTO & C.", "Bandiera": "Agip Eni", "Tipo impianto": "Autostradale", "Indirizzo": "Autostrada A50 TANG.LE OVEST DI MILANO, Km. km 12, dir. lato ovest 20152", "Nome impianto": "MUGGIANO OVEST", "Comune": "MILANO", "idImpianto": 37664, "points": [{"type": "Feature", "properties": {}, "geometry": {"type": "Point", "coordinates": [9.073683768510818, 45.44485416502995]}}], "price": 2.179, "ultima_rilevazione": "22/07/2022 11:35:52"}], "5": [{"Gestore": "ALBERTINI DAVIDE", "Bandiera": "Agip Eni", "Tipo impianto": "Altro", "Indirizzo": "PIAZZA SERAFINO BELFANTI 7, 20143", "Nome impianto": "Albertini Davide", "Comune": "MILANO", "idImpianto": 25196, "points": [{"type": "Feature", "properties": {}, "geometry": {"type": "Point", "coordinates": [9.172314840475453, 45.44352133094952]}}], "price": 2.364, "ultima_rilevazione": "23/07/2022 07:42:03"}, {"Gestore": "ALBERTINI DAVIDE", "Bandiera": "Agip Eni", "Tipo impianto": "Altro", "Indirizzo": "PIAZZA SERAFINO BELFANTI 7, 20143", "Nome impianto": "Albertini Davide", "Comune": "MILANO", "idImpianto": 25196, "points": [{"type": "Feature", "properties": {}, "geometry": {"type": "Point", "coordinates": [9.172314840475453, 45.44352133094952]}}], "price": 2.344, "ultima_rilevazione": "23/07/2022 07:42:03"}, {"Gestore": "DENISE FRANCESCO", "Bandiera": "Agip Eni", "Tipo impianto": "Altro", "Indirizzo": "viale misurata 56 20146", "Nome impianto": "eni", "Comune": "MILANO", "idImpianto": 16409, "points": [{"type": "Feature", "properties": {}, "geometry": {"type": "Point", "coordinates": [9.152678782803378, 45.45461885575156]}}], "price": 2.084, "ultima_rilevazione": "15/07/2022 18:44:01"}, {"Gestore": "PERRONE LUCA", "Bandiera": "Agip Eni", "Tipo impianto": "Altro", "Indirizzo": "VIALE EUROPA 45 20090", "Nome impianto": "ENI PERRONE LUCA", "Comune": "CUSAGO", "idImpianto": 31149, "points": [{"type": "Feature", "properties": {}, "geometry": {"type": "Point", "coordinates": [9.043217510857176, 45.44143818013955]}}], "price": 2.064, "ultima_rilevazione": "21/07/2022 13:46:04"}, {"Gestore": "F.LLI DI LEO S.N.C. DI DI LEO FRANCESCA E DI LEO GIACOMO MARIA", "Bandiera": "Agip Eni", "Tipo impianto": "Altro", "Indirizzo": "VIALE PAPINIANO 54 20123", "Nome impianto": "pv56232", "Comune": "MILANO", "idImpianto": 22003, "points": [{"type": "Feature", "properties": {}, "geometry": {"type": "Point", "coordinates": [9.17105508685529, 45.45699042088013]}}], "price": 2.004, "ultima_rilevazione": "22/07/2022 17:08:29"}, {"Gestore": "F.LLI DI LEO S.N.C. DI DI LEO FRANCESCA E DI LEO GIACOMO MARIA", "Bandiera": "Agip Eni", "Tipo impianto": "Altro", "Indirizzo": "VIALE PAPINIANO 54 20123", "Nome impianto": "pv56232", "Comune": "MILANO", "idImpianto": 22003, "points": [{"type": "Feature", "properties": {}, "geometry": {"type": "Point", "coordinates": [9.17105508685529, 45.45699042088013]}}], "price": 2.044, "ultima_rilevazione": "22/07/2022 17:08:29"}, {"Gestore": "GESTIONI INNOVATIVE ITALIA S.R.L.", "Bandiera": "Agip Eni", "Tipo impianto": "Altro", "Indirizzo": "via curiel  20089", "Nome impianto": "56272", "Comune": "ROZZANO", "idImpianto": 48690, "points": [{"type": "Feature", "properties": {}, "geometry": {"type": "Point", "coordinates": [9.173047512309989, 45.39797011257277]}}], "price": 2.004, "ultima_rilevazione": "23/07/2022 06:06:05"}]}, "Gasolio High Quality": {"1": [], "3": [{"Gestore": "C.R.S. DI COLABRARO STEFANO", "Bandiera": "Esso", "Tipo impianto": "Altro", "Indirizzo": "VIA PARRI 60 20152", "Nome impianto": "stazione di servizio esso CRS", "Comune": "MILANO", "idImpianto": 35137, "points": [{"type": "Feature", "properties": {}, "geometry": {"type": "Point", "coordinates": [9.106551222503183, 45.454290166450704]}}], "price": 2.039, "ultima_rilevazione": "23/07/2022 07:47:52"}], "5": [{"Gestore": "MONTAGNA GIULIO MAURO", "Bandiera": "Esso", "Tipo impianto": "Altro", "Indirizzo": "Viale Cassala 33 20143", "Nome impianto": "Esso", "Comune": "MILANO", "idImpianto": 38996, "points": [{"type": "Feature", "properties": {}, "geometry": {"type": "Point", "coordinates": [9.162408196295132, 45.44529611804138]}}], "price": 2.099, "ultima_rilevazione": "22/07/2022 07:32:33"}, {"Gestore": "BRENTAN DANIELA", "Bandiera": "Esso", "Tipo impianto": "Altro", "Indirizzo": "VIA REMBRANDT PAOLO 13 20147", "Nome impianto": "Stazione di Servizio ESSO", "Comune": "MILANO", "idImpianto": 19181, "points": [{"type": "Feature", "properties": {}, "geometry": {"type": "Point", "coordinates": [9.13750672572553, 45.467250005743175]}}], "price": 2.039, "ultima_rilevazione": "22/07/2022 09:17:40"}, {"Gestore": "CAVALLARO S.A.S. DI CAVALLARO GIOVANNI & C.", "Bandiera": "Esso", "Tipo impianto": "Altro", "Indirizzo": "PIAZZALE DIEGO VELASQUEZ 30 20148", "Nome impianto": "Cavallaro Sas", "Comune": "MILANO", "idImpianto": 18095, "points": [{"type": "Feature", "properties": {}, "geometry": {"type": "Point", "coordinates": [9.141851709400951, 45.46763853786935]}}], "price": 2.036, "ultima_rilevazione": "23/07/2022 07:27:46"}]}, "Benzina": {"1": [{"Gestore": "STAZIONE DI SERVIZIO DI TURINO FRANCESCO", "Bandiera": "KEROPETROL", "Tipo impianto": "Altro", "Indirizzo": "Viale Lombardia 29 20090", "Nome impianto": "KEROPETROL 2", "Comune": "BUCCINASCO", "idImpianto": 33667, "points": [{"type": "Feature", "properties": {}, "geometry": {"type": "Point", "coordinates": [9.117480218410492, 45.42392310346575]}}], "price": 2.049, "ultima_rilevazione": "12/07/2022 09:24:33"}, {"Gestore": "SERVIZI & GESTIONI ITALIA srl", "Bandiera": "Q8", "Tipo impianto": "Altro", "Indirizzo": "LORENTEGGIO 260 20157", "Nome impianto": "MILANO LORENTEGGIO 260", "Comune": "MILANO", "idImpianto": 6436, "points": [{"type": "Feature", "properties": {}, "geometry": {"type": "Point", "coordinates": [9.119872403704903, 45.44512776366376]}}], "price": 1.969, "ultima_rilevazione": "18/07/2022 00:35:27"}, {"Gestore": "SERVIZI & GESTIONI ITALIA S.R.L.", "Bandiera": "Q8", "Tipo impianto": "Altro", "Indirizzo": "VIA LORENTEGGIO 268 20152", "Nome impianto": "MILANO-VIA LORENTEGGIO 268", "Comune": "MILANO", "idImpianto": 11672, "points": [{"type": "Feature", "properties": {}, "geometry": {"type": "Point", "coordinates": [9.11799119510647, 45.44451291033063]}}], "price": 1.979, "ultima_rilevazione": "18/07/2022 00:35:32"}, {"Gestore": "SERVIZI & GESTIONI ITALIA srl", "Bandiera": "Q8", "Tipo impianto": "Altro", "Indirizzo": "VIA DEI MILLE ANG.VIA PALERMO SNC 20094", "Nome impianto": "BUCCINASCO VIA DEI MILLE ANG.VIA PALERMO", "Comune": "BUCCINASCO", "idImpianto": 6446, "points": [{"type": "Feature", "properties": {}, "geometry": {"type": "Point", "coordinates": [9.111736337434422, 45.42506003957641]}}], "price": 1.989, "ultima_rilevazione": "18/07/2022 00:35:40"}, {"Gestore": "PITSTOP S.A.S DI D. RUGGIERO E C.", "Bandiera": "Api-Ip", "Tipo impianto": "Altro", "Indirizzo": "VIA DELLA COSTITUZIONE SNC 20090", "Nome impianto": "PITSTOP", "Comune": "BUCCINASCO", "idImpianto": 46709, "points": [{"type": "Feature", "properties": {}, "geometry": {"type": "Point", "coordinates": [9.125681348661374, 45.42677413759954]}}], "price": 1.989, "ultima_rilevazione": "18/07/2022 16:03:27"}, {"Gestore": "ENCAR SERVICE SRL", "Bandiera": "Api-Ip", "Tipo impianto": "Altro", "Indirizzo": "via lodovico il moro  201 20142", "Nome impianto": "ENCAR SERVICE SRL", "Comune": "MILANO", "idImpianto": 50263, "points": [{"type": "Feature", "properties": {}, "geometry": {"type": "Point", "coordinates": [9.12311553955078, 45.43769336428616]}}], "price": 1.989, "ultima_rilevazione": "19/07/2022 07:21:21"}, {"Gestore": "EGI-2GO S.R.L.", "Bandiera": "Esso", "Tipo impianto": "Altro", "Indirizzo": "STRADA PROVINCIALE NUOVA VIGEVANESE  43 20094", "Nome impianto": "esso corsico", "Comune": "CORSICO", "idImpianto": 49646, "points": [{"type": "Feature", "properties": {}, "geometry": {"type": "Point", "coordinates": [9.107805170091412, 45.42748549649036]}}], "price": 1.959, "ultima_rilevazione": "21/07/2022 11:33:38"}, {"Gestore": "URBINATI S.N.C. DI URBINATI ARKADI & C.", "Bandiera": "Agip Eni", "Tipo impianto": "Altro", "Indirizzo": "VIA LORENTEGGIO 239 20152", "Nome impianto": "URBINATI S.N.C. DI URBINATI ARKADI & C.", "Comune": "MILANO", "idImpianto": 6355, "points": [{"type": "Feature", "properties": {}, "geometry": {"type": "Point", "coordinates": [9.121377045277429, 45.44499073380677]}}], "price": 1.934, "ultima_rilevazione": "22/07/2022 08:53:46"}, {"Gestore": "GF GOMME DI CASO GIUSEPPE", "Bandiera": "Esso", "Tipo impianto": "Altro", "Indirizzo": "VIA VERDI  1 20090", "Nome impianto": "Gf Gomme di Caso Giuseppe", "Comune": "ASSAGO", "idImpianto": 35453, "points": [{"type": "Feature", "properties": {}, "geometry": {"type": "Point", "coordinates": [9.127376228570938, 45.40764743259112]}}], "price": 1.986, "ultima_rilevazione": "22/07/2022 10:57:56"}, {"Gestore": "EGI-2GO S.R.L.", "Bandiera": "Esso", "Tipo impianto": "Altro", "Indirizzo": "VIA LORENTEGGIO 278 20147", "Nome impianto": "lorenteggio", "Comune": "MILANO", "idImpianto": 48647, "points": [{"type": "Feature", "properties": {}, "geometry": {"type": "Point", "coordinates": [9.116153860118851, 45.44387658650403]}}], "price": 1.949, "ultima_rilevazione": "22/07/2022 11:23:16"}, {"Gestore": "T.D.M. S.R.L.", "Bandiera": "Tamoil", "Tipo impianto": "Altro", "Indirizzo": "S.P. 139 KM4+474  20080", "Nome impianto": "3953", "Comune": "ZIBIDO SAN GIACOMO", "idImpianto": 34365, "points": [{"type": "Feature", "properties": {}, "geometry": {"type": "Point", "coordinates": [9.095261469483376, 45.38152716408767]}}], "price": 1.929, "ultima_rilevazione": "22/07/2022 11:38:05"}, {"Gestore": "LE MANS SERVICE S.R.L.", "Bandiera": "Agip Eni", "Tipo impianto": "Autostradale", "Indirizzo": "A50 TANG.LE OVEST DI MILANO, Km. 18.723, Ovest 20094", "Nome impianto": "ASSAGO", "Comune": "ASSAGO", "idImpianto": 3503, "points": [{"type": "Feature", "properties": {}, "geometry": {"type": "Point", "coordinates": [9.12240854232789, 45.40091753316316]}}], "price": 2.139, "ultima_rilevazione": "22/07/2022 15:30:35"}, {"Gestore": "F.LLI VIZZIELLI SNC DI VIZZIELLI FELICE DANILO E C", "Bandiera": "Agip Eni", "Tipo impianto": "Altro", "Indirizzo": "VIA LODOVICO IL MORO 187 20142", "Nome impianto": "ENI", "Comune": "MILANO", "idImpianto": 10843, "points": [{"type": "Feature", "properties": {}, "geometry": {"type": "Point", "coordinates": [9.126183986663818, 45.43895358051159]}}], "price": 1.944, "ultima_rilevazione": "22/07/2022 18:57:19"}, {"Gestore": "DLM CARBURANTI S.R.L.", "Bandiera": "Api-Ip", "Tipo impianto": "Altro", "Indirizzo": "via piemonte  28 20090", "Nome impianto": "totalerg", "Comune": "BUCCINASCO", "idImpianto": 40102, "points": [{"type": "Feature", "properties": {}, "geometry": {"type": "Point", "coordinates": [9.119849490780323, 45.4155438573614]}}], "price": 1.979, "ultima_rilevazione": "22/07/2022 19:10:20"}, {"Gestore": "ENI FUEL S.P.A.", "Bandiera": "Agip Eni", "Tipo impianto": "Altro", "Indirizzo": "via Lorenteggio 258 20146", "Nome impianto": "PV 56132 Lorenteggio", "Comune": "MILANO", "idImpianto": 44949, "points": [{"type": "Feature", "properties": {}, "geometry": {"type": "Point", "coordinates": [9.120575503794951, 45.44527996387759]}}], "price": 1.924, "ultima_rilevazione": "23/07/2022 00:22:02"}, {"Gestore": "VIZZIELLI S.A.S. DI VIZZIELLI MONICA E C.", "Bandiera": "Agip Eni", "Tipo impianto": "Altro", "Indirizzo": "VIA DELLE INDUSTRIE 8 20094", "Nome impianto": "ENI", "Comune": "CORSICO", "idImpianto": 14630, "points": [{"type": "Feature", "properties": {}, "geometry": {"type": "Point", "coordinates": [9.07955914735794, 45.429669364959146]}}], "price": 1.909, "ultima_rilevazione": "23/07/2022 07:37:34"}, {"Gestore": "ENI FUEL S.P.A.", "Bandiera": "Agip Eni", "Tipo impianto": "Altro", "Indirizzo": "Via dei Mille  ", "Nome impianto": "12165 \u2013 Buccinasco", "Comune": "BUCCINASCO", "idImpianto": 50598, "points": [{"type": "Feature", "properties": {}, "geometry": {"type": "Point", "coordinates": [9.112099677988772, 45.423370319274255]}}], "price": 1.954, "ultima_rilevazione": "23/07/2022 07:44:03"}], "3": [{"Gestore": "PUCCI PIETRO E VITANGELO & C. S.N.C.", "Bandiera": "Agip Eni", "Tipo impianto": "Altro", "Indirizzo": "VIALE ROMAGNA  20089", "Nome impianto": "stazione eni", "Comune": "ROZZANO", "idImpianto": 17549, "points": [{"type": "Feature", "properties": {}, "geometry": {"type": "Point", "coordinates": [9.16100174188614, 45.38219714460462]}}], "price": 1.779, "ultima_rilevazione": "15/12/2021 07:33:32"}, {"Gestore": "PEZZUTO VINCENZO", "Bandiera": "Agip Eni", "Tipo impianto": "Altro", "Indirizzo": "VIA REPUBBLICA SNC 20090", "Nome impianto": "Eni", "Comune": "CESANO BOSCONE", "idImpianto": 14813, "points": [{"type": "Feature", "properties": {}, "geometry": {"type": "Point", "coordinates": [9.098590761423113, 45.44272352185422]}}], "price": 1.789, "ultima_rilevazione": "17/12/2021 06:25:28"}, {"Gestore": "MIRA S.N.C. DI DELLI SANTI ANTONIO & C.", "Bandiera": "Agip Eni", "Tipo impianto": "Altro", "Indirizzo": "VIALE LOMBARDIA 38 20089", "Nome impianto": "eni", "Comune": "ROZZANO", "idImpianto": 15919, "points": [{"type": "Feature", "properties": {}, "geometry": {"type": "Point", "coordinates": [9.150886461138724, 45.385665890131136]}}], "price": 2.209, "ultima_rilevazione": "12/03/2022 10:16:58"}, {"Gestore": "CALI' MARCO", "Bandiera": "Agip Eni", "Tipo impianto": "Altro", "Indirizzo": "VIA INGANNI ANGELO 99 20147", "Nome impianto": "ENI CALI' MARCO INGANNI", "Comune": "MILANO", "idImpianto": 39911, "points": [{"type": "Feature", "properties": {}, "geometry": {"type": "Point", "coordinates": [9.122362812025472, 45.45662726916326]}}], "price": 2.024, "ultima_rilevazione": "11/07/2022 08:31:12"}, {"Gestore": "BREAK POINT  S.R.L.", "Bandiera": "Api-Ip", "Tipo impianto": "Autostradale", "Indirizzo": "Autostrada A7 MILANO-SERRAVALLE, Km. 400, dir. Nord 20142", "Nome impianto": "CANTALUPA EST", "Comune": "MILANO", "idImpianto": 3786, "points": [{"type": "Feature", "properties": {}, "geometry": {"type": "Point", "coordinates": [9.158730728836076, 45.42123246954695]}}], "price": 2.182, "ultima_rilevazione": "12/07/2022 10:27:55"}, {"Gestore": "CALI' MARCO", "Bandiera": "Agip Eni", "Tipo impianto": "Altro", "Indirizzo": "VIA SANTA RITA DA CASCIA 64 20143", "Nome impianto": "CALI MARCO", "Comune": "MILANO", "idImpianto": 14653, "points": [{"type": "Feature", "properties": {}, "geometry": {"type": "Point", "coordinates": [9.15306679140167, 45.438391529127045]}}], "price": 1.994, "ultima_rilevazione": "15/07/2022 10:25:25"}, {"Gestore": "SERVIZI & GESTIONI ITALIA S.R.L.", "Bandiera": "Q8", "Tipo impianto": "Altro", "Indirizzo": "VIA BAGAROTTI 14/A 20152", "Nome impianto": "MILANO VIA BAGAROTTI 14/A", "Comune": "MILANO", "idImpianto": 23872, "points": [{"type": "Feature", "properties": {}, "geometry": {"type": "Point", "coordinates": [9.094877768122842, 45.4574490020773]}}], "price": 1.959, "ultima_rilevazione": "18/07/2022 00:35:24"}, {"Gestore": "SERVIZI & GESTIONI ITALIA srl", "Bandiera": "Q8", "Tipo impianto": "Altro", "Indirizzo": "VIA CIVIDALE DEL FRIULI 6 20152", "Nome impianto": "MILANO VIA CIVIDALE DEL FRIULI 6", "Comune": "MILANO", "idImpianto": 6437, "points": [{"type": "Feature", "properties": {}, "geometry": {"type": "Point", "coordinates": [9.100626387171928, 45.45898088643508]}}], "price": 1.959, "ultima_rilevazione": "18/07/2022 00:35:27"}, {"Gestore": "SERVIZI & GESTIONI ITALIA srl", "Bandiera": "Q8", "Tipo impianto": "Altro", "Indirizzo": "VIA MILANO 30 20029", "Nome impianto": "CESANO BOSCONE VIA MILANO 30", "Comune": "CESANO BOSCONE", "idImpianto": 6441, "points": [{"type": "Feature", "properties": {}, "geometry": {"type": "Point", "coordinates": [9.097773485319522, 45.4416935736466]}}], "price": 1.979, "ultima_rilevazione": "18/07/2022 00:35:29"}, {"Gestore": "SERVIZI & GESTIONI ITALIA S.R.L.", "Bandiera": "Q8", "Tipo impianto": "Altro", "Indirizzo": "LOC. BADILE SS. 35 KM. 111+90 S/N 20080", "Nome impianto": "ZIBIDO S.GIACOMO-LOC. BADILE SS. 35 KM. 111+90", "Comune": "ZIBIDO SAN GIACOMO", "idImpianto": 11655, "points": [{"type": "Feature", "properties": {}, "geometry": {"type": "Point", "coordinates": [9.13239061832428, 45.36190713625711]}}], "price": 1.989, "ultima_rilevazione": "18/07/2022 00:35:39"}, {"Gestore": "SERVIZI & GESTIONI ITALIA S.R.L.", "Bandiera": "Q8", "Tipo impianto": "Altro", "Indirizzo": "VIA FORZE ARMATE 241 20151", "Nome impianto": "MILANO - VIA FORZE ARMATE 241", "Comune": "MILANO", "idImpianto": 30114, "points": [{"type": "Feature", "properties": {}, "geometry": {"type": "Point", "coordinates": [9.109656087766323, 45.46037001431894]}}], "price": 1.959, "ultima_rilevazione": "18/07/2022 00:35:39"}, {"Gestore": "RAVASI SIMONE", "Bandiera": "Api-Ip", "Tipo impianto": "Altro", "Indirizzo": "via Santa Rita da Cascia 19 20143", "Nome impianto": "Ravasi Simone", "Comune": "MILANO", "idImpianto": 50417, "points": [{"type": "Feature", "properties": {}, "geometry": {"type": "Point", "coordinates": [9.150023339228218, 45.44129766303399]}}], "price": 1.999, "ultima_rilevazione": "18/07/2022 10:46:53"}, {"Gestore": "SERVIZI & GESTIONI ITALIA S.R.L.", "Bandiera": "Q8", "Tipo impianto": "Altro", "Indirizzo": "VIA COLOMBO ANG.VIA DI VITTORIO S/N 20090", "Nome impianto": "TREZZANO SUL NAVIGLIO-VIA COLOMBO ANG.VIA DI VITTORIO", "Comune": "TREZZANO SUL NAVIGLIO", "idImpianto": 11677, "points": [{"type": "Feature", "properties": {}, "geometry": {"type": "Point", "coordinates": [9.067928338623004, 45.42440753003055]}}], "price": 1.984, "ultima_rilevazione": "19/07/2022 01:38:11"}, {"Gestore": "SERVIZI & GESTIONI ITALIA S.R.L.", "Bandiera": "Q8", "Tipo impianto": "Altro", "Indirizzo": "VIA S.RITA 41 20143", "Nome impianto": "MILANO - VIA S.RITA 41", "Comune": "MILANO", "idImpianto": 30890, "points": [{"type": "Feature", "properties": {}, "geometry": {"type": "Point", "coordinates": [9.15255239444275, 45.43946312005717]}}], "price": 1.974, "ultima_rilevazione": "19/07/2022 07:07:00"}, {"Gestore": "SERVIZI & GESTIONI ITALIA S.R.L.", "Bandiera": "Q8", "Tipo impianto": "Altro", "Indirizzo": "VIA S.RITA DA CASCIA 2 20143", "Nome impianto": "MILANO-VIA S.RITA DA CASCIA 2", "Comune": "MILANO", "idImpianto": 11674, "points": [{"type": "Feature", "properties": {}, "geometry": {"type": "Point", "coordinates": [9.148052036762238, 45.44220035218852]}}], "price": 1.974, "ultima_rilevazione": "19/07/2022 07:07:02"}, {"Gestore": "SERVIZI & GESTIONI ITALIA S.R.L.", "Bandiera": "Q8", "Tipo impianto": "Altro", "Indirizzo": "VIA L. DA VINCI ANG. L.ARIOSTO  20090", "Nome impianto": "TREZZANO SUL NAVIGLIO VIA L. DA VINCI ANG. L.ARIOSTO", "Comune": "TREZZANO SUL NAVIGLIO", "idImpianto": 35904, "points": [{"type": "Feature", "properties": {}, "geometry": {"type": "Point", "coordinates": [9.051848990212989, 45.4181909556288]}}], "price": 2.014, "ultima_rilevazione": "19/07/2022 07:07:02"}, {"Gestore": "FC FRATELLI CESAREO SNC DI ANTONIO E MATTEO CESAREO", "Bandiera": "Api-Ip", "Tipo impianto": "Altro", "Indirizzo": "VIA ENRICO FERMI 48 20090", "Nome impianto": "TOTALERG", "Comune": "TREZZANO SUL NAVIGLIO", "idImpianto": 13219, "points": [{"type": "Feature", "properties": {}, "geometry": {"type": "Point", "coordinates": [9.066492909925842, 45.42952348037283]}}], "price": 1.979, "ultima_rilevazione": "19/07/2022 08:28:31"}, {"Gestore": "VINPE SERVIZI S.P.A.", "Bandiera": "Retitalia", "Tipo impianto": "Altro", "Indirizzo": "Via Pasubio 5 20090", "Nome impianto": "CESANO BOSCONE", "Comune": "CESANO BOSCONE", "idImpianto": 45121, "points": [{"type": "Feature", "properties": {}, "geometry": {"type": "Point", "coordinates": [9.087513000123, 45.447947000123]}}], "price": 1.899, "ultima_rilevazione": "19/07/2022 09:45:09"}, {"Gestore": "PALAZZO MARINA", "Bandiera": "Agip Eni", "Tipo impianto": "Altro", "Indirizzo": "via dellla chiesa rossa 157 20142", "Nome impianto": "stazione di servizio ENI di Palazzo Marina", "Comune": "MILANO", "idImpianto": 46942, "points": [{"type": "Feature", "properties": {}, "geometry": {"type": "Point", "coordinates": [9.167575101852435, 45.42222447354936]}}], "price": 1.969, "ultima_rilevazione": "20/07/2022 14:32:15"}, {"Gestore": "ENERGON SNC DI COLOMBO HIAELE & C.", "Bandiera": "Api-Ip", "Tipo impianto": "Altro", "Indirizzo": "S.P.  139 20080", "Nome impianto": "STAZIONE IP 2", "Comune": "ZIBIDO SAN GIACOMO", "idImpianto": 49740, "points": [{"type": "Feature", "properties": {}, "geometry": {"type": "Point", "coordinates": [9.10553891016355, 45.36967429557962]}}], "price": 1.989, "ultima_rilevazione": "20/07/2022 15:43:04"}, {"Gestore": "METTA GERARDO", "Bandiera": "Agip Eni", "Tipo impianto": "Altro", "Indirizzo": "via circonvallazione 2 20090", "Nome impianto": "stazione di servizio di metta gerardo", "Comune": "TREZZANO SUL NAVIGLIO", "idImpianto": 41220, "points": [{"type": "Feature", "properties": {}, "geometry": {"type": "Point", "coordinates": [9.072803847082469, 45.41857103674258]}}], "price": 1.944, "ultima_rilevazione": "21/07/2022 07:23:53"}, {"Gestore": "VINCI S.A.S. DI VINCI SALVATORE & C.", "Bandiera": "Agip Eni", "Tipo impianto": "Autostradale", "Indirizzo": "Autostrada A7 MILANO-SERRAVALLE, Km. 1, dir. Genova 20142", "Nome impianto": "CANTALUPA OVEST", "Comune": "MILANO", "idImpianto": 7744, "points": [{"type": "Feature", "properties": {}, "geometry": {"type": "Point", "coordinates": [9.155162572860718, 45.4191693049389]}}], "price": 2.019, "ultima_rilevazione": "21/07/2022 07:25:48"}, {"Gestore": "ZAMPERLIN ANGELO", "Bandiera": "Api-Ip", "Tipo impianto": "Altro", "Indirizzo": "VIA SANTA RITA DA CASCIA 60 20143", "Nome impianto": "Stazione ERG Santa Rita", "Comune": "MILANO", "idImpianto": 19310, "points": [{"type": "Feature", "properties": {}, "geometry": {"type": "Point", "coordinates": [9.152840279762245, 45.438610860986046]}}], "price": 1.939, "ultima_rilevazione": "21/07/2022 16:56:54"}, {"Gestore": "SABATINO LAURA", "Bandiera": "Api-Ip", "Tipo impianto": "Altro", "Indirizzo": "VIA PRIMATICCIO  101 20146", "Nome impianto": "IP", "Comune": "MILANO", "idImpianto": 48116, "points": [{"type": "Feature", "properties": {}, "geometry": {"type": "Point", "coordinates": [9.132374303779244, 45.45475934938423]}}], "price": 1.899, "ultima_rilevazione": "22/07/2022 07:07:56"}, {"Gestore": "MONTAGNA GIULIO MAURO", "Bandiera": "Esso", "Tipo impianto": "Altro", "Indirizzo": "viale forze armate ang fratellill zoia 226 20152", "Nome impianto": "Esso", "Comune": "MILANO", "idImpianto": 49382, "points": [{"type": "Feature", "properties": {}, "geometry": {"type": "Point", "coordinates": [9.110602186508189, 45.46076376258973]}}], "price": 1.929, "ultima_rilevazione": "22/07/2022 07:34:00"}, {"Gestore": "VIOTTI PAOLO", "Bandiera": "Q8", "Tipo impianto": "Altro", "Indirizzo": "VIA BENVENUTO CELLINI 17 20094", "Nome impianto": "stazione servizio Q8", "Comune": "CORSICO", "idImpianto": 9555, "points": [{"type": "Feature", "properties": {}, "geometry": {"type": "Point", "coordinates": [9.091576784849169, 45.43753338858258]}}], "price": 1.999, "ultima_rilevazione": "22/07/2022 07:55:25"}, {"Gestore": "DONADEI LEONARDANTONIO", "Bandiera": "Api-Ip", "Tipo impianto": "Altro", "Indirizzo": "Via Lorenteggio  208/2 20146", "Nome impianto": "Totalerg di Donadei Leonardo & Mattia", "Comune": "MILANO", "idImpianto": 37560, "points": [{"type": "Feature", "properties": {}, "geometry": {"type": "Point", "coordinates": [9.126368458343904, 45.4468807501942]}}], "price": 1.979, "ultima_rilevazione": "22/07/2022 08:16:37"}, {"Gestore": "IP SERVICES S.R.L.", "Bandiera": "Api-Ip", "Tipo impianto": "Altro", "Indirizzo": "VIALE LEGIONI ROMANE  20147", "Nome impianto": "MILANO - LEGIONI ROMANE", "Comune": "MILANO", "idImpianto": 24274, "points": [{"type": "Feature", "properties": {}, "geometry": {"type": "Point", "coordinates": [9.134208046627007, 45.46054326996602]}}], "price": 1.939, "ultima_rilevazione": "22/07/2022 09:01:00"}, {"Gestore": "IP SERVICES S.R.L.", "Bandiera": "Api-Ip", "Tipo impianto": "Altro", "Indirizzo": "VIA ISONZO  20090", "Nome impianto": "CESANO BOSCONE - ISONZO", "Comune": "CESANO BOSCONE", "idImpianto": 22889, "points": [{"type": "Feature", "properties": {}, "geometry": {"type": "Point", "coordinates": [9.101775101852354, 45.44217741702612]}}], "price": 1.969, "ultima_rilevazione": "22/07/2022 09:03:10"}, {"Gestore": "ADM SAS DI SQUERI ALBERTO & C.", "Bandiera": "Agip Eni", "Tipo impianto": "Autostradale", "Indirizzo": "Autostrada A50 TANG.LE OVEST DI MILANO, Km. km 12, dir. lato ovest 20152", "Nome impianto": "MUGGIANO OVEST", "Comune": "MILANO", "idImpianto": 37664, "points": [{"type": "Feature", "properties": {}, "geometry": {"type": "Point", "coordinates": [9.073683768510818, 45.44485416502995]}}], "price": 2.179, "ultima_rilevazione": "22/07/2022 11:35:52"}, {"Gestore": "PETROL CAR S.A.S. DI PIERCARLO ROLLA & C.", "Bandiera": "Pompe Bianche", "Tipo impianto": "Altro", "Indirizzo": "VIA VALLEAMBROSIA 42 20090", "Nome impianto": "Stazione di rifornimento Fremar Assago", "Comune": "ASSAGO", "idImpianto": 47326, "points": [{"type": "Feature", "properties": {}, "geometry": {"type": "Point", "coordinates": [9.155805000123, 45.402425000123]}}], "price": 1.919, "ultima_rilevazione": "22/07/2022 15:06:13"}, {"Gestore": "C.P.F. S.N.C. DI CIULLA PIETRO E FRANCESCO", "Bandiera": "Tamoil", "Tipo impianto": "Altro", "Indirizzo": "VIA GIUSEPPE MAZZINI 12 20090", "Nome impianto": "stazione di servizio tamoil", "Comune": "TREZZANO SUL NAVIGLIO", "idImpianto": 13306, "points": [{"type": "Feature", "properties": {}, "geometry": {"type": "Point", "coordinates": [9.061225558879867, 45.424319376510624]}}], "price": 1.959, "ultima_rilevazione": "22/07/2022 12:36:08"}, {"Gestore": "IP SERVICES S.R.L.", "Bandiera": "Api-Ip", "Tipo impianto": "Altro", "Indirizzo": "VIA CIRCONVALLAZIONE  20090", "Nome impianto": "TREZZANO SUL NAVIGLIO - CIRCONVALLAZIONE", "Comune": "TREZZANO SUL NAVIGLIO", "idImpianto": 24775, "points": [{"type": "Feature", "properties": {}, "geometry": {"type": "Point", "coordinates": [9.07297317790983, 45.41918399720786]}}], "price": 1.909, "ultima_rilevazione": "22/07/2022 14:02:17"}, {"Gestore": "CALOR SYSTEMS S.R.L.", "Bandiera": "Api-Ip", "Tipo impianto": "Altro", "Indirizzo": "VIALE FAMAGOSTA 9 20142", "Nome impianto": "MILANO FAMAGOSTA", "Comune": "MILANO", "idImpianto": 15883, "points": [{"type": "Feature", "properties": {}, "geometry": {"type": "Point", "coordinates": [9.156445432510395, 45.43744467091187]}}], "price": 1.949, "ultima_rilevazione": "22/07/2022 15:38:13"}, {"Gestore": "IP SERVICES S.R.L.", "Bandiera": "Api-Ip", "Tipo impianto": "Altro", "Indirizzo": "Via Gozzoli 140 20152", "Nome impianto": "Milano Gozzoli", "Comune": "MILANO", "idImpianto": 36483, "points": [{"type": "Feature", "properties": {}, "geometry": {"type": "Point", "coordinates": [9.096267685319503, 45.45021919503954]}}], "price": 1.929, "ultima_rilevazione": "22/07/2022 16:02:57"}, {"Gestore": "GS SPA", "Bandiera": "Q8", "Tipo impianto": "Altro", "Indirizzo": "Viale Milanofiori   20090", "Nome impianto": "Carrefour Q8 Assago", "Comune": "ASSAGO", "idImpianto": 48740, "points": [{"type": "Feature", "properties": {}, "geometry": {"type": "Point", "coordinates": [9.14818913741215, 45.40460093825732]}}], "price": 1.869, "ultima_rilevazione": "22/07/2022 16:09:33"}, {"Gestore": "VUOTTI ANTONIO", "Bandiera": "Esso", "Tipo impianto": "Altro", "Indirizzo": "VIA DELLE FORZE ARMATE 189 20152", "Nome impianto": "Esso", "Comune": "MILANO", "idImpianto": 47900, "points": [{"type": "Feature", "properties": {}, "geometry": {"type": "Point", "coordinates": [9.11278631779098, 45.460115237367255]}}], "price": 1.909, "ultima_rilevazione": "22/07/2022 17:59:45"}, {"Gestore": "EGI-2GO S.R.L.", "Bandiera": "Esso", "Tipo impianto": "Altro", "Indirizzo": "VIALE LOMBARDIA 38 20089", "Nome impianto": "EGI-2GO ROZZANO", "Comune": "ROZZANO", "idImpianto": 50614, "points": [{"type": "Feature", "properties": {}, "geometry": {"type": "Point", "coordinates": [9.151350734779378, 45.38544807409766]}}], "price": 1.949, "ultima_rilevazione": "23/07/2022 07:44:40"}, {"Gestore": "C.R.S. DI COLABRARO STEFANO", "Bandiera": "Esso", "Tipo impianto": "Altro", "Indirizzo": "VIA PARRI 60 20152", "Nome impianto": "stazione di servizio esso CRS", "Comune": "MILANO", "idImpianto": 35137, "points": [{"type": "Feature", "properties": {}, "geometry": {"type": "Point", "coordinates": [9.106551222503183, 45.454290166450704]}}], "price": 1.899, "ultima_rilevazione": "23/07/2022 07:47:52"}], "5": [{"Gestore": "ALBERTINI DAVIDE", "Bandiera": "Agip Eni", "Tipo impianto": "Altro", "Indirizzo": "PIAZZA SERAFINO BELFANTI 7, 20143", "Nome impianto": "Albertini Davide", "Comune": "MILANO", "idImpianto": 25196, "points": [{"type": "Feature", "properties": {}, "geometry": {"type": "Point", "coordinates": [9.172314840475453, 45.44352133094952]}}], "price": 2.214, "ultima_rilevazione": "23/07/2022 07:42:03"}, {"Gestore": "DE SIMONE DOMENICO", "Bandiera": "Api-Ip", "Tipo impianto": "Altro", "Indirizzo": "VIA CORREGGIO 11 20149", "Nome impianto": "Staz. Carburanti De Simone Domenico", "Comune": "MILANO", "idImpianto": 12654, "points": [{"type": "Feature", "properties": {}, "geometry": {"type": "Point", "coordinates": [9.152005747191993, 45.47070141453392]}}], "price": 2.31, "ultima_rilevazione": "13/07/2022 14:15:25"}, {"Gestore": "DENISE FRANCESCO", "Bandiera": "Agip Eni", "Tipo impianto": "Altro", "Indirizzo": "viale misurata 56 20146", "Nome impianto": "eni", "Comune": "MILANO", "idImpianto": 16409, "points": [{"type": "Feature", "properties": {}, "geometry": {"type": "Point", "coordinates": [9.152678782803378, 45.45461885575156]}}], "price": 1.994, "ultima_rilevazione": "15/07/2022 18:44:01"}, {"Gestore": "SILMA S.A.S. DI SAVERIO MANOSPERTI & C", "Bandiera": "Q8", "Tipo impianto": "Altro", "Indirizzo": "VIA DELLA CHIESA ROSSA 15 20142", "Nome impianto": "Q8", "Comune": "MILANO", "idImpianto": 35092, "points": [{"type": "Feature", "properties": {}, "geometry": {"type": "Point", "coordinates": [9.174308017196608, 45.4347660147854]}}], "price": 2.079, "ultima_rilevazione": "16/07/2022 23:11:15"}, {"Gestore": "SERVIZI & GESTIONI ITALIA S.R.L.", "Bandiera": "Q8", "Tipo impianto": "Altro", "Indirizzo": "CURIEL ANG. FRANCHI/QUINTO STA  20089", "Nome impianto": "ROZZANO CURIEL ANG. FRANCHI/QUINTO STA", "Comune": "ROZZANO", "idImpianto": 35905, "points": [{"type": "Feature", "properties": {}, "geometry": {"type": "Point", "coordinates": [9.173158313491854, 45.39875870418885]}}], "price": 1.989, "ultima_rilevazione": "18/07/2022 00:35:27"}, {"Gestore": "SERVIZI & GESTIONI ITALIA S.R.L.", "Bandiera": "Q8", "Tipo impianto": "Altro", "Indirizzo": "V.LE LIGURIA 42 20124", "Nome impianto": "MILANO V.LE LIGURIA 42", "Comune": "MILANO", "idImpianto": 24848, "points": [{"type": "Feature", "properties": {}, "geometry": {"type": "Point", "coordinates": [9.174114105557235, 45.44351480077189]}}], "price": 1.969, "ultima_rilevazione": "18/07/2022 00:35:28"}, {"Gestore": "SERVIZI & GESTIONI ITALIA S.R.L.", "Bandiera": "Q8", "Tipo impianto": "Altro", "Indirizzo": "V.LE ROMAGNA ANG.V.L. DA VINCI  20089", "Nome impianto": "ROZZANO V.LE ROMAGNA ANG.V.L. DA VINCI", "Comune": "ROZZANO", "idImpianto": 8726, "points": [{"type": "Feature", "properties": {}, "geometry": {"type": "Point", "coordinates": [9.168928417790994, 45.383125432232845]}}], "price": 1.979, "ultima_rilevazione": "18/07/2022 00:35:30"}, {"Gestore": "SERVIZI & GESTIONI ITALIA S.R.L.", "Bandiera": "Q8", "Tipo impianto": "Altro", "Indirizzo": "VIALE CASSALA 4/A 20143", "Nome impianto": "MILANO-VIALE CASSALA 4/A", "Comune": "MILANO", "idImpianto": 11661, "points": [{"type": "Feature", "properties": {}, "geometry": {"type": "Point", "coordinates": [9.159797725200631, 45.44588118208996]}}], "price": 1.979, "ultima_rilevazione": "18/07/2022 00:35:32"}, {"Gestore": "SERVIZI & GESTIONI ITALIA S.R.L.", "Bandiera": "Q8", "Tipo impianto": "Altro", "Indirizzo": "VIALE BEZZI 82 20146", "Nome impianto": "MILANO-VIALE BEZZI 82", "Comune": "MILANO", "idImpianto": 11669, "points": [{"type": "Feature", "properties": {}, "geometry": {"type": "Point", "coordinates": [9.148964373016383, 45.46069782752843]}}], "price": 1.979, "ultima_rilevazione": "18/07/2022 00:35:32"}, {"Gestore": "SERVIZI & GESTIONI ITALIA S.R.L.", "Bandiera": "Q8", "Tipo impianto": "Altro", "Indirizzo": "PIAZZA TRIPOLI/RONCAGLIA  20146", "Nome impianto": "PIAZZA TRIPOLI/RONCAGLIA - MILANO", "Comune": "MILANO", "idImpianto": 28932, "points": [{"type": "Feature", "properties": {}, "geometry": {"type": "Point", "coordinates": [9.15067099577027, 45.459256888823695]}}], "price": 1.979, "ultima_rilevazione": "18/07/2022 00:35:32"}, {"Gestore": "SERVIZI & GESTIONI ITALIA S.R.L.", "Bandiera": "Q8", "Tipo impianto": "Altro", "Indirizzo": "P.LE BRESCIA ANG. VIA OSOPPO S/N 20149", "Nome impianto": "MILANO-P.LE BRESCIA ANG. VIA OSOPPO", "Comune": "MILANO", "idImpianto": 11693, "points": [{"type": "Feature", "properties": {}, "geometry": {"type": "Point", "coordinates": [9.14444483420118, 45.4699713586045]}}], "price": 2.019, "ultima_rilevazione": "18/07/2022 00:35:33"}, {"Gestore": "SERVIZI & GESTIONI ITALIA S.R.L.", "Bandiera": "Q8", "Tipo impianto": "Altro", "Indirizzo": "VIA CASSALA 31 20143", "Nome impianto": "MILANO-VIA CASSALA 31", "Comune": "MILANO", "idImpianto": 11708, "points": [{"type": "Feature", "properties": {}, "geometry": {"type": "Point", "coordinates": [9.161465889549277, 45.445631990602784]}}], "price": 1.969, "ultima_rilevazione": "18/07/2022 00:35:35"}, {"Gestore": "SERVIZI & GESTIONI ITALIA S.R.L.", "Bandiera": "Q8", "Tipo impianto": "Altro", "Indirizzo": "VIA CURIEL EUGENIO 25 20098", "Nome impianto": "ROZZANO", "Comune": "ROZZANO", "idImpianto": 7295, "points": [{"type": "Feature", "properties": {}, "geometry": {"type": "Point", "coordinates": [9.178437604399733, 45.3912202992408]}}], "price": 1.969, "ultima_rilevazione": "18/07/2022 00:35:37"}, {"Gestore": "B.S.B. S.A.S. DI SCHETTINO SALVATORE E C.", "Bandiera": "Q8", "Tipo impianto": "Altro", "Indirizzo": "viale romagna  22 20089", "Nome impianto": "Q 8", "Comune": "ROZZANO", "idImpianto": 35373, "points": [{"type": "Feature", "properties": {}, "geometry": {"type": "Point", "coordinates": [9.165473263229387, 45.3838481151157]}}], "price": 1.999, "ultima_rilevazione": "18/07/2022 07:56:47"}, {"Gestore": "SERVIZI & GESTIONI ITALIA S.R.L.", "Bandiera": "Q8", "Tipo impianto": "Altro", "Indirizzo": "VIA S.GIUSTO 66 20153", "Nome impianto": "MILANO VIA S.GIUSTO 66", "Comune": "MILANO", "idImpianto": 8725, "points": [{"type": "Feature", "properties": {}, "geometry": {"type": "Point", "coordinates": [9.11729386686477, 45.47182559595421]}}], "price": 1.989, "ultima_rilevazione": "19/07/2022 01:38:10"}, {"Gestore": "SERVIZI & GESTIONI ITALIA S.R.L.", "Bandiera": "Q8", "Tipo impianto": "Altro", "Indirizzo": "VIA NOVARA 82 20147", "Nome impianto": "MILANO-VIA NOVARA 82", "Comune": "MILANO", "idImpianto": 11664, "points": [{"type": "Feature", "properties": {}, "geometry": {"type": "Point", "coordinates": [9.121613818454762, 45.47161880932868]}}], "price": 1.999, "ultima_rilevazione": "19/07/2022 07:07:02"}, {"Gestore": "NUOVA SIDAP  S.R.L.", "Bandiera": "Q8", "Tipo impianto": "Altro", "Indirizzo": "Via Sandro Pertini 331/11 20152", "Nome impianto": "MILANO PERTINI OIL", "Comune": "MILANO", "idImpianto": 45207, "points": [{"type": "Feature", "properties": {}, "geometry": {"type": "Point", "coordinates": [9.072222709655762, 45.45678067793206]}}], "price": 1.969, "ultima_rilevazione": "19/07/2022 10:57:34"}, {"Gestore": "GALLO NICOLA", "Bandiera": "Pompe Bianche", "Tipo impianto": "Altro", "Indirizzo": "VIA DELLE FORZE ARMATE 41 20147", "Nome impianto": "LUDOIL GALLO NICOLA", "Comune": "MILANO", "idImpianto": 18843, "points": [{"type": "Feature", "properties": {}, "geometry": {"type": "Point", "coordinates": [9.135295868647743, 45.46306765133359]}}], "price": 1.939, "ultima_rilevazione": "20/07/2022 07:35:31"}, {"Gestore": "ENERGY RETE S.R.L.", "Bandiera": "Energy Rete", "Tipo impianto": "Altro", "Indirizzo": "via S.Eusebio angolo vetta d'Italia 18 20144", "Nome impianto": "ENERGY RETE SRL", "Comune": "MILANO", "idImpianto": 32408, "points": [{"type": "Feature", "properties": {}, "geometry": {"type": "Point", "coordinates": [9.15880331991309, 45.46119370815366]}}], "price": 2.239, "ultima_rilevazione": "20/07/2022 17:22:38"}, {"Gestore": "AUTORIMESSA FRIGO SNC DI FRIGO RICCARDO, GIUSEPPE E GIOVANNI", "Bandiera": "Pompe Bianche", "Tipo impianto": "Altro", "Indirizzo": "PIAZZA ABBIATEGRASSO 7 20142", "Nome impianto": "GRIFO", "Comune": "MILANO", "idImpianto": 12804, "points": [{"type": "Feature", "properties": {}, "geometry": {"type": "Point", "coordinates": [9.177996218204498, 45.43076618915102]}}], "price": 1.949, "ultima_rilevazione": "21/07/2022 07:45:54"}, {"Gestore": "PERRONE LUCA", "Bandiera": "Agip Eni", "Tipo impianto": "Altro", "Indirizzo": "VIALE EUROPA 45 20090", "Nome impianto": "ENI PERRONE LUCA", "Comune": "CUSAGO", "idImpianto": 31149, "points": [{"type": "Feature", "properties": {}, "geometry": {"type": "Point", "coordinates": [9.043217510857176, 45.44143818013955]}}], "price": 1.974, "ultima_rilevazione": "21/07/2022 13:46:04"}, {"Gestore": "LA PADANA SNC DI CONTI ANTONIO DARIO E SONIA", "Bandiera": "Esso", "Tipo impianto": "Altro", "Indirizzo": "VIALE LIGURIA 12 20143", "Nome impianto": "LA PADANA SNC", "Comune": "MILANO", "idImpianto": 31389, "points": [{"type": "Feature", "properties": {}, "geometry": {"type": "Point", "coordinates": [9.168712644110885, 45.44377193398634]}}], "price": 1.969, "ultima_rilevazione": "21/07/2022 14:37:22"}, {"Gestore": "MARZIO FELICE LEONARDO", "Bandiera": "Api-Ip", "Tipo impianto": "Altro", "Indirizzo": "VIA TABACCHI 32 20138", "Nome impianto": "IP TABACCHI", "Comune": "MILANO", "idImpianto": 50100, "points": [{"type": "Feature", "properties": {}, "geometry": {"type": "Point", "coordinates": [9.183397099868724, 45.447655452878045]}}], "price": 2.039, "ultima_rilevazione": "22/07/2022 06:35:06"}, {"Gestore": "MONTAGNA GIULIO MAURO", "Bandiera": "Esso", "Tipo impianto": "Altro", "Indirizzo": "Viale Cassala 33 20143", "Nome impianto": "Esso", "Comune": "MILANO", "idImpianto": 38996, "points": [{"type": "Feature", "properties": {}, "geometry": {"type": "Point", "coordinates": [9.162408196295132, 45.44529611804138]}}], "price": 1.959, "ultima_rilevazione": "22/07/2022 07:32:33"}, {"Gestore": "T.D.M. S.R.L.", "Bandiera": "Tamoil", "Tipo impianto": "Altro", "Indirizzo": "VIA ELBA 20 20144", "Nome impianto": "2910", "Comune": "MILANO", "idImpianto": 50472, "points": [{"type": "Feature", "properties": {}, "geometry": {"type": "Point", "coordinates": [9.157091482149571, 45.46385121778768]}}], "price": 1.979, "ultima_rilevazione": "22/07/2022 09:04:11"}, {"Gestore": "BRENTAN DANIELA", "Bandiera": "Esso", "Tipo impianto": "Altro", "Indirizzo": "VIA REMBRANDT PAOLO 13 20147", "Nome impianto": "Stazione di Servizio ESSO", "Comune": "MILANO", "idImpianto": 19181, "points": [{"type": "Feature", "properties": {}, "geometry": {"type": "Point", "coordinates": [9.13750672572553, 45.467250005743175]}}], "price": 1.939, "ultima_rilevazione": "22/07/2022 09:17:40"}, {"Gestore": "SMILEPETROL S.N.C. DI GALLI MARIO E BERTIPAGLIA L.", "Bandiera": "Api-Ip", "Tipo impianto": "Altro", "Indirizzo": "VIALE DI PORTA VERCELLINA SNC 20123", "Nome impianto": "SMILEPETROL SNC", "Comune": "MILANO", "idImpianto": 12379, "points": [{"type": "Feature", "properties": {}, "geometry": {"type": "Point", "coordinates": [9.16580569675807, 45.46578161023504]}}], "price": 2.254, "ultima_rilevazione": "22/07/2022 11:30:19"}, {"Gestore": "GALLI AGNESE", "Bandiera": "KEROPETROL", "Tipo impianto": "Altro", "Indirizzo": "VIA ENRICO TOTI 2 20123", "Nome impianto": "galli agnese", "Comune": "MILANO", "idImpianto": 12348, "points": [{"type": "Feature", "properties": {}, "geometry": {"type": "Point", "coordinates": [9.166152693286447, 45.4668634802216]}}], "price": 2.187, "ultima_rilevazione": "22/07/2022 11:33:12"}, {"Gestore": "T.D.M. S.R.L.", "Bandiera": "Tamoil", "Tipo impianto": "Altro", "Indirizzo": "Via delle Forze Armate 353 20152", "Nome impianto": "8056", "Comune": "MILANO", "idImpianto": 32685, "points": [{"type": "Feature", "properties": {}, "geometry": {"type": "Point", "coordinates": [9.095978106943448, 45.46025389751213]}}], "price": 1.899, "ultima_rilevazione": "22/07/2022 11:42:07"}, {"Gestore": "T.D.M. S.R.L.", "Bandiera": "Tamoil", "Tipo impianto": "Altro", "Indirizzo": "PIAZZA AQUILEIA 6 20144", "Nome impianto": "8500", "Comune": "MILANO", "idImpianto": 43307, "points": [{"type": "Feature", "properties": {}, "geometry": {"type": "Point", "coordinates": [9.163037999717517, 45.46118965392807]}}], "price": 1.989, "ultima_rilevazione": "22/07/2022 12:40:13"}, {"Gestore": "IP SERVICES S.R.L.", "Bandiera": "Api-Ip", "Tipo impianto": "Altro", "Indirizzo": "VIA ALESSANDRO MANZONI  20089", "Nome impianto": "ROZZANO - ALESSANDRO MANZONI", "Comune": "ROZZANO", "idImpianto": 30183, "points": [{"type": "Feature", "properties": {}, "geometry": {"type": "Point", "coordinates": [9.16925624012947, 45.37832971253242]}}], "price": 1.899, "ultima_rilevazione": "22/07/2022 13:00:53"}, {"Gestore": "IP SERVICES S.R.L.", "Bandiera": "Api-Ip", "Tipo impianto": "Altro", "Indirizzo": "VIA SAN VIGILIO Ang. VIA FAMAGOSTA SNC 20142", "Nome impianto": "MILANO - VIGILIO FAMAGOSTA", "Comune": "MILANO", "idImpianto": 29917, "points": [{"type": "Feature", "properties": {}, "geometry": {"type": "Point", "coordinates": [9.164610728836124, 45.436733877746]}}], "price": 1.924, "ultima_rilevazione": "22/07/2022 14:01:01"}, {"Gestore": "IP SERVICES S.R.L.", "Bandiera": "Api-Ip", "Tipo impianto": "Altro", "Indirizzo": "VIA  CHIESA ROSSA 41 20142", "Nome impianto": "MILANO - CHIESA ROSSA", "Comune": "MILANO", "idImpianto": 30186, "points": [{"type": "Feature", "properties": {}, "geometry": {"type": "Point", "coordinates": [9.17361414047548, 45.43269030000002]}}], "price": 1.924, "ultima_rilevazione": "22/07/2022 14:02:17"}, {"Gestore": "IP SERVICES S.R.L.", "Bandiera": "Api-Ip", "Tipo impianto": "Altro", "Indirizzo": "VIA NOVARA  169 20147", "Nome impianto": "MILANO - NOVARA 169", "Comune": "MILANO", "idImpianto": 29212, "points": [{"type": "Feature", "properties": {}, "geometry": {"type": "Point", "coordinates": [9.11177510185246, 45.47614733814495]}}], "price": 1.959, "ultima_rilevazione": "22/07/2022 14:02:35"}, {"Gestore": "GONELLA IVANO", "Bandiera": "Api-Ip", "Tipo impianto": "Altro", "Indirizzo": "PIAZZALE SEGESTA ANG. VIA STRATICO 2 20148", "Nome impianto": "TOTAL ERG di IVANO GONELLA", "Comune": "MILANO", "idImpianto": 30934, "points": [{"type": "Feature", "properties": {}, "geometry": {"type": "Point", "coordinates": [9.136851909437496, 45.47616802144962]}}], "price": 1.959, "ultima_rilevazione": "22/07/2022 14:54:24"}, {"Gestore": "IP SERVICES S.R.L.", "Bandiera": "Api-Ip", "Tipo impianto": "Altro", "Indirizzo": "VIA SPEZIA 31 20142", "Nome impianto": "MI SPEZIA", "Comune": "MILANO", "idImpianto": 17685, "points": [{"type": "Feature", "properties": {}, "geometry": {"type": "Point", "coordinates": [9.172881224536924, 45.44043293453808]}}], "price": 1.924, "ultima_rilevazione": "22/07/2022 15:00:37"}, {"Gestore": "IP SERVICES S.R.L.", "Bandiera": "Api-Ip", "Tipo impianto": "Altro", "Indirizzo": "Strada Privinciale 30 Km 1,500  20082", "Nome impianto": "Noviglio Milano", "Comune": "NOVIGLIO", "idImpianto": 40078, "points": [{"type": "Feature", "properties": {}, "geometry": {"type": "Point", "coordinates": [9.088237434625626, 45.33851528748518]}}], "price": 1.899, "ultima_rilevazione": "22/07/2022 16:02:57"}, {"Gestore": "EGI-2GO S.R.L.", "Bandiera": "Esso", "Tipo impianto": "Altro", "Indirizzo": "VIA PALATINO 1 20148", "Nome impianto": "EGI-2GO MI VIA PALATINO", "Comune": "MILANO", "idImpianto": 51317, "points": [{"type": "Feature", "properties": {}, "geometry": {"type": "Point", "coordinates": [9.131456999999989, 45.4762906691333]}}], "price": 1.949, "ultima_rilevazione": "22/07/2022 17:00:09"}, {"Gestore": "KEROPETROL S.P.A.", "Bandiera": "KEROPETROL", "Tipo impianto": "Altro", "Indirizzo": "VIA SARDEGNA  28 20146", "Nome impianto": "KEROPETROL VIA SARDEGNA", "Comune": "MILANO", "idImpianto": 49777, "points": [{"type": "Feature", "properties": {}, "geometry": {"type": "Point", "coordinates": [9.151634541268766, 45.462782847828784]}}], "price": 1.999, "ultima_rilevazione": "22/07/2022 17:03:34"}, {"Gestore": "F.LLI DI LEO S.N.C. DI DI LEO FRANCESCA E DI LEO GIACOMO MARIA", "Bandiera": "Agip Eni", "Tipo impianto": "Altro", "Indirizzo": "VIALE PAPINIANO 54 20123", "Nome impianto": "pv56232", "Comune": "MILANO", "idImpianto": 22003, "points": [{"type": "Feature", "properties": {}, "geometry": {"type": "Point", "coordinates": [9.17105508685529, 45.45699042088013]}}], "price": 1.894, "ultima_rilevazione": "22/07/2022 17:08:29"}, {"Gestore": "PROCOGEN S.R.L.", "Bandiera": "Pompe Bianche", "Tipo impianto": "Altro", "Indirizzo": "sp 203 km 6.300 SNC 20082", "Nome impianto": "epr", "Comune": "NOVIGLIO", "idImpianto": 4984, "points": [{"type": "Feature", "properties": {}, "geometry": {"type": "Point", "coordinates": [9.0707266330719, 45.35294783727283]}}], "price": 1.948, "ultima_rilevazione": "22/07/2022 19:16:30"}, {"Gestore": "VEGA CARBURANTI S.P.A.", "Bandiera": "Vega", "Tipo impianto": "Altro", "Indirizzo": "VIA DEI MISSAGLIA 109 20142", "Nome impianto": "VEGA MISSAGLIA", "Comune": "MILANO", "idImpianto": 37696, "points": [{"type": "Feature", "properties": {}, "geometry": {"type": "Point", "coordinates": [9.17501963675022, 45.40904747506723]}}], "price": 1.899, "ultima_rilevazione": "23/07/2022 00:07:28"}, {"Gestore": "GESTIONI INNOVATIVE ITALIA S.R.L.", "Bandiera": "Agip Eni", "Tipo impianto": "Altro", "Indirizzo": "via curiel  20089", "Nome impianto": "56272", "Comune": "ROZZANO", "idImpianto": 48690, "points": [{"type": "Feature", "properties": {}, "geometry": {"type": "Point", "coordinates": [9.173047512309989, 45.39797011257277]}}], "price": 1.884, "ultima_rilevazione": "23/07/2022 06:06:05"}, {"Gestore": "TORZINI LUCA", "Bandiera": "Q8", "Tipo impianto": "Altro", "Indirizzo": "VIA NOVARA 46 20147", "Nome impianto": "Stazione Rifornimento Q8 Torzini Luca", "Comune": "MILANO", "idImpianto": 13234, "points": [{"type": "Feature", "properties": {}, "geometry": {"type": "Point", "coordinates": [9.124655993219337, 45.46991993269708]}}], "price": 2.019, "ultima_rilevazione": "23/07/2022 06:44:32"}, {"Gestore": "ENI FUEL S.P.A.", "Bandiera": "Agip Eni", "Tipo impianto": "Altro", "Indirizzo": "Via Forze Armate 322 20100", "Nome impianto": "PV 2373 Forze Armate", "Comune": "MILANO", "idImpianto": 38980, "points": [{"type": "Feature", "properties": {}, "geometry": {"type": "Point", "coordinates": [9.099088982208968, 45.46010315272357]}}], "price": 1.904, "ultima_rilevazione": "23/07/2022 07:02:02"}, {"Gestore": "ENI FUEL S.P.A.", "Bandiera": "Agip Eni", "Tipo impianto": "Altro", "Indirizzo": "s.s. dei Giovi 35  20082", "Nome impianto": "BINASCO", "Comune": "BINASCO", "idImpianto": 5395, "points": [{"type": "Feature", "properties": {}, "geometry": {"type": "Point", "coordinates": [9.10799504299166, 45.336321877906485]}}], "price": 1.914, "ultima_rilevazione": "23/07/2022 07:20:22"}, {"Gestore": "CAVALLARO S.A.S. DI CAVALLARO GIOVANNI & C.", "Bandiera": "Esso", "Tipo impianto": "Altro", "Indirizzo": "PIAZZALE DIEGO VELASQUEZ 30 20148", "Nome impianto": "Cavallaro Sas", "Comune": "MILANO", "idImpianto": 18095, "points": [{"type": "Feature", "properties": {}, "geometry": {"type": "Point", "coordinates": [9.141851709400951, 45.46763853786935]}}], "price": 1.936, "ultima_rilevazione": "23/07/2022 07:27:46"}]}, "null": {}, "GPL": {"1": [{"Gestore": "COSTA E GRANATA S.R.L.", "Bandiera": "Pompe Bianche", "Tipo impianto": "Altro", "Indirizzo": "VIA LORENTEGGIO 0263 20152", "Nome impianto": "GPL METANO", "Comune": "MILANO", "idImpianto": 46920, "points": [{"type": "Feature", "properties": {}, "geometry": {"type": "Point", "coordinates": [9.11859018898349, 45.44339571090068]}}], "price": 0.839, "ultima_rilevazione": "18/07/2022 11:48:56"}, {"Gestore": "LE MANS SERVICE S.R.L.", "Bandiera": "Agip Eni", "Tipo impianto": "Autostradale", "Indirizzo": "A50 TANG.LE OVEST DI MILANO, Km. 18.723, Ovest 20094", "Nome impianto": "ASSAGO", "Comune": "ASSAGO", "idImpianto": 3503, "points": [{"type": "Feature", "properties": {}, "geometry": {"type": "Point", "coordinates": [9.12240854232789, 45.40091753316316]}}], "price": 0.929, "ultima_rilevazione": "22/07/2022 15:30:35"}], "3": [{"Gestore": "BREAK POINT  S.R.L.", "Bandiera": "Api-Ip", "Tipo impianto": "Autostradale", "Indirizzo": "Autostrada A7 MILANO-SERRAVALLE, Km. 400, dir. Nord 20142", "Nome impianto": "CANTALUPA EST", "Comune": "MILANO", "idImpianto": 3786, "points": [{"type": "Feature", "properties": {}, "geometry": {"type": "Point", "coordinates": [9.158730728836076, 45.42123246954695]}}], "price": 0.903, "ultima_rilevazione": "12/07/2022 10:27:55"}, {"Gestore": "ROMOLO S.A.S. DI DRAGHICESCU ION - OPRESCU PETRISOR DORIN & C.", "Bandiera": "Pompe Bianche", "Tipo impianto": "Altro", "Indirizzo": "VIA ITALO SVEVO 2 20143", "Nome impianto": "ROMOLO S.A.S.", "Comune": "MILANO", "idImpianto": 37470, "points": [{"type": "Feature", "properties": {}, "geometry": {"type": "Point", "coordinates": [9.15937565267086, 45.44261926470932]}}], "price": 0.859, "ultima_rilevazione": "18/07/2022 06:43:14"}, {"Gestore": "COSTA E GRANATA S.A.S. DI COSTA FERRUCCIO &C.", "Bandiera": "Pompe Bianche", "Tipo impianto": "Altro", "Indirizzo": "STRADA PROVINCIALE 35 DEI GIOVI, KM 113,89  20089", "Nome impianto": "GAS AUTO", "Comune": "ROZZANO", "idImpianto": 34055, "points": [{"type": "Feature", "properties": {}, "geometry": {"type": "Point", "coordinates": [9.145747348666193, 45.38531733914764]}}], "price": 0.839, "ultima_rilevazione": "18/07/2022 11:48:19"}, {"Gestore": "PALAZZO MARINA", "Bandiera": "Agip Eni", "Tipo impianto": "Altro", "Indirizzo": "via dellla chiesa rossa 157 20142", "Nome impianto": "stazione di servizio ENI di Palazzo Marina", "Comune": "MILANO", "idImpianto": 46942, "points": [{"type": "Feature", "properties": {}, "geometry": {"type": "Point", "coordinates": [9.167575101852435, 45.42222447354936]}}], "price": 0.799, "ultima_rilevazione": "20/07/2022 14:32:15"}, {"Gestore": "VINCI S.A.S. DI VINCI SALVATORE & C.", "Bandiera": "Agip Eni", "Tipo impianto": "Autostradale", "Indirizzo": "Autostrada A7 MILANO-SERRAVALLE, Km. 1, dir. Genova 20142", "Nome impianto": "CANTALUPA OVEST", "Comune": "MILANO", "idImpianto": 7744, "points": [{"type": "Feature", "properties": {}, "geometry": {"type": "Point", "coordinates": [9.155162572860718, 45.4191693049389]}}], "price": 0.932, "ultima_rilevazione": "21/07/2022 07:25:48"}], "5": [{"Gestore": "SERVIZI & GESTIONI ITALIA S.R.L.", "Bandiera": "Q8", "Tipo impianto": "Altro", "Indirizzo": "VIA CURIEL EUGENIO 25 20098", "Nome impianto": "ROZZANO", "Comune": "ROZZANO", "idImpianto": 7295, "points": [{"type": "Feature", "properties": {}, "geometry": {"type": "Point", "coordinates": [9.178437604399733, 45.3912202992408]}}], "price": 0.899, "ultima_rilevazione": "18/07/2022 00:35:37"}, {"Gestore": "KEROPETROL S.P.A.", "Bandiera": "KEROPETROL", "Tipo impianto": "Altro", "Indirizzo": "Corso Europa 50 20090", "Nome impianto": "KEROPETROL SPA CUSAGO GPL", "Comune": "CUSAGO", "idImpianto": 38249, "points": [{"type": "Feature", "properties": {}, "geometry": {"type": "Point", "coordinates": [9.043574631214142, 45.4398930783233]}}], "price": 0.839, "ultima_rilevazione": "20/07/2022 17:57:36"}, {"Gestore": "PROCOGEN S.R.L.", "Bandiera": "Pompe Bianche", "Tipo impianto": "Altro", "Indirizzo": "sp 203 km 6.300 SNC 20082", "Nome impianto": "epr", "Comune": "NOVIGLIO", "idImpianto": 4984, "points": [{"type": "Feature", "properties": {}, "geometry": {"type": "Point", "coordinates": [9.0707266330719, 45.35294783727283]}}], "price": 0.838, "ultima_rilevazione": "22/07/2022 19:16:30"}]}, "Gasolio": {"1": [{"Gestore": "STAZIONE DI SERVIZIO DI TURINO FRANCESCO", "Bandiera": "KEROPETROL", "Tipo impianto": "Altro", "Indirizzo": "Viale Lombardia 29 20090", "Nome impianto": "KEROPETROL 2", "Comune": "BUCCINASCO", "idImpianto": 33667, "points": [{"type": "Feature", "properties": {}, "geometry": {"type": "Point", "coordinates": [9.117480218410492, 45.42392310346575]}}], "price": 2.029, "ultima_rilevazione": "12/07/2022 09:24:33"}, {"Gestore": "SERVIZI & GESTIONI ITALIA srl", "Bandiera": "Q8", "Tipo impianto": "Altro", "Indirizzo": "LORENTEGGIO 260 20157", "Nome impianto": "MILANO LORENTEGGIO 260", "Comune": "MILANO", "idImpianto": 6436, "points": [{"type": "Feature", "properties": {}, "geometry": {"type": "Point", "coordinates": [9.119872403704903, 45.44512776366376]}}], "price": 1.959, "ultima_rilevazione": "18/07/2022 00:35:27"}, {"Gestore": "SERVIZI & GESTIONI ITALIA S.R.L.", "Bandiera": "Q8", "Tipo impianto": "Altro", "Indirizzo": "VIA LORENTEGGIO 268 20152", "Nome impianto": "MILANO-VIA LORENTEGGIO 268", "Comune": "MILANO", "idImpianto": 11672, "points": [{"type": "Feature", "properties": {}, "geometry": {"type": "Point", "coordinates": [9.11799119510647, 45.44451291033063]}}], "price": 1.969, "ultima_rilevazione": "18/07/2022 00:35:32"}, {"Gestore": "SERVIZI & GESTIONI ITALIA srl", "Bandiera": "Q8", "Tipo impianto": "Altro", "Indirizzo": "VIA DEI MILLE ANG.VIA PALERMO SNC 20094", "Nome impianto": "BUCCINASCO VIA DEI MILLE ANG.VIA PALERMO", "Comune": "BUCCINASCO", "idImpianto": 6446, "points": [{"type": "Feature", "properties": {}, "geometry": {"type": "Point", "coordinates": [9.111736337434422, 45.42506003957641]}}], "price": 1.969, "ultima_rilevazione": "18/07/2022 00:35:40"}, {"Gestore": "PITSTOP S.A.S DI D. RUGGIERO E C.", "Bandiera": "Api-Ip", "Tipo impianto": "Altro", "Indirizzo": "VIA DELLA COSTITUZIONE SNC 20090", "Nome impianto": "PITSTOP", "Comune": "BUCCINASCO", "idImpianto": 46709, "points": [{"type": "Feature", "properties": {}, "geometry": {"type": "Point", "coordinates": [9.125681348661374, 45.42677413759954]}}], "price": 1.969, "ultima_rilevazione": "18/07/2022 16:03:27"}, {"Gestore": "ENCAR SERVICE SRL", "Bandiera": "Api-Ip", "Tipo impianto": "Altro", "Indirizzo": "via lodovico il moro  201 20142", "Nome impianto": "ENCAR SERVICE SRL", "Comune": "MILANO", "idImpianto": 50263, "points": [{"type": "Feature", "properties": {}, "geometry": {"type": "Point", "coordinates": [9.12311553955078, 45.43769336428616]}}], "price": 1.969, "ultima_rilevazione": "19/07/2022 07:21:21"}, {"Gestore": "EGI-2GO S.R.L.", "Bandiera": "Esso", "Tipo impianto": "Altro", "Indirizzo": "STRADA PROVINCIALE NUOVA VIGEVANESE  43 20094", "Nome impianto": "esso corsico", "Comune": "CORSICO", "idImpianto": 49646, "points": [{"type": "Feature", "properties": {}, "geometry": {"type": "Point", "coordinates": [9.107805170091412, 45.42748549649036]}}], "price": 1.919, "ultima_rilevazione": "21/07/2022 11:33:38"}, {"Gestore": "URBINATI S.N.C. DI URBINATI ARKADI & C.", "Bandiera": "Agip Eni", "Tipo impianto": "Altro", "Indirizzo": "VIA LORENTEGGIO 239 20152", "Nome impianto": "URBINATI S.N.C. DI URBINATI ARKADI & C.", "Comune": "MILANO", "idImpianto": 6355, "points": [{"type": "Feature", "properties": {}, "geometry": {"type": "Point", "coordinates": [9.121377045277429, 45.44499073380677]}}], "price": 1.944, "ultima_rilevazione": "22/07/2022 08:53:46"}, {"Gestore": "GF GOMME DI CASO GIUSEPPE", "Bandiera": "Esso", "Tipo impianto": "Altro", "Indirizzo": "VIA VERDI  1 20090", "Nome impianto": "Gf Gomme di Caso Giuseppe", "Comune": "ASSAGO", "idImpianto": 35453, "points": [{"type": "Feature", "properties": {}, "geometry": {"type": "Point", "coordinates": [9.127376228570938, 45.40764743259112]}}], "price": 1.956, "ultima_rilevazione": "22/07/2022 10:57:56"}, {"Gestore": "EGI-2GO S.R.L.", "Bandiera": "Esso", "Tipo impianto": "Altro", "Indirizzo": "VIA LORENTEGGIO 278 20147", "Nome impianto": "lorenteggio", "Comune": "MILANO", "idImpianto": 48647, "points": [{"type": "Feature", "properties": {}, "geometry": {"type": "Point", "coordinates": [9.116153860118851, 45.44387658650403]}}], "price": 1.939, "ultima_rilevazione": "22/07/2022 11:23:16"}, {"Gestore": "T.D.M. S.R.L.", "Bandiera": "Tamoil", "Tipo impianto": "Altro", "Indirizzo": "S.P. 139 KM4+474  20080", "Nome impianto": "3953", "Comune": "ZIBIDO SAN GIACOMO", "idImpianto": 34365, "points": [{"type": "Feature", "properties": {}, "geometry": {"type": "Point", "coordinates": [9.095261469483376, 45.38152716408767]}}], "price": 1.919, "ultima_rilevazione": "22/07/2022 11:38:05"}, {"Gestore": "LE MANS SERVICE S.R.L.", "Bandiera": "Agip Eni", "Tipo impianto": "Autostradale", "Indirizzo": "A50 TANG.LE OVEST DI MILANO, Km. 18.723, Ovest 20094", "Nome impianto": "ASSAGO", "Comune": "ASSAGO", "idImpianto": 3503, "points": [{"type": "Feature", "properties": {}, "geometry": {"type": "Point", "coordinates": [9.12240854232789, 45.40091753316316]}}], "price": 2.069, "ultima_rilevazione": "22/07/2022 15:30:35"}, {"Gestore": "F.LLI VIZZIELLI SNC DI VIZZIELLI FELICE DANILO E C", "Bandiera": "Agip Eni", "Tipo impianto": "Altro", "Indirizzo": "VIA LODOVICO IL MORO 187 20142", "Nome impianto": "ENI", "Comune": "MILANO", "idImpianto": 10843, "points": [{"type": "Feature", "properties": {}, "geometry": {"type": "Point", "coordinates": [9.126183986663818, 45.43895358051159]}}], "price": 1.934, "ultima_rilevazione": "22/07/2022 18:57:19"}, {"Gestore": "DLM CARBURANTI S.R.L.", "Bandiera": "Api-Ip", "Tipo impianto": "Altro", "Indirizzo": "via piemonte  28 20090", "Nome impianto": "totalerg", "Comune": "BUCCINASCO", "idImpianto": 40102, "points": [{"type": "Feature", "properties": {}, "geometry": {"type": "Point", "coordinates": [9.119849490780323, 45.4155438573614]}}], "price": 1.959, "ultima_rilevazione": "22/07/2022 19:10:20"}, {"Gestore": "ENI FUEL S.P.A.", "Bandiera": "Agip Eni", "Tipo impianto": "Altro", "Indirizzo": "via Lorenteggio 258 20146", "Nome impianto": "PV 56132 Lorenteggio", "Comune": "MILANO", "idImpianto": 44949, "points": [{"type": "Feature", "properties": {}, "geometry": {"type": "Point", "coordinates": [9.120575503794951, 45.44527996387759]}}], "price": 1.934, "ultima_rilevazione": "23/07/2022 00:22:02"}, {"Gestore": "VIZZIELLI S.A.S. DI VIZZIELLI MONICA E C.", "Bandiera": "Agip Eni", "Tipo impianto": "Altro", "Indirizzo": "VIA DELLE INDUSTRIE 8 20094", "Nome impianto": "ENI", "Comune": "CORSICO", "idImpianto": 14630, "points": [{"type": "Feature", "properties": {}, "geometry": {"type": "Point", "coordinates": [9.07955914735794, 45.429669364959146]}}], "price": 1.899, "ultima_rilevazione": "23/07/2022 07:37:34"}, {"Gestore": "ENI FUEL S.P.A.", "Bandiera": "Agip Eni", "Tipo impianto": "Altro", "Indirizzo": "Via dei Mille  ", "Nome impianto": "12165 \u2013 Buccinasco", "Comune": "BUCCINASCO", "idImpianto": 50598, "points": [{"type": "Feature", "properties": {}, "geometry": {"type": "Point", "coordinates": [9.112099677988772, 45.423370319274255]}}], "price": 1.944, "ultima_rilevazione": "23/07/2022 07:44:03"}], "3": [{"Gestore": "PUCCI PIETRO E VITANGELO & C. S.N.C.", "Bandiera": "Agip Eni", "Tipo impianto": "Altro", "Indirizzo": "VIALE ROMAGNA  20089", "Nome impianto": "stazione eni", "Comune": "ROZZANO", "idImpianto": 17549, "points": [{"type": "Feature", "properties": {}, "geometry": {"type": "Point", "coordinates": [9.16100174188614, 45.38219714460462]}}], "price": 1.639, "ultima_rilevazione": "15/12/2021 07:33:32"}, {"Gestore": "PEZZUTO VINCENZO", "Bandiera": "Agip Eni", "Tipo impianto": "Altro", "Indirizzo": "VIA REPUBBLICA SNC 20090", "Nome impianto": "Eni", "Comune": "CESANO BOSCONE", "idImpianto": 14813, "points": [{"type": "Feature", "properties": {}, "geometry": {"type": "Point", "coordinates": [9.098590761423113, 45.44272352185422]}}], "price": 1.639, "ultima_rilevazione": "17/12/2021 06:25:28"}, {"Gestore": "MIRA S.N.C. DI DELLI SANTI ANTONIO & C.", "Bandiera": "Agip Eni", "Tipo impianto": "Altro", "Indirizzo": "VIALE LOMBARDIA 38 20089", "Nome impianto": "eni", "Comune": "ROZZANO", "idImpianto": 15919, "points": [{"type": "Feature", "properties": {}, "geometry": {"type": "Point", "coordinates": [9.150886461138724, 45.385665890131136]}}], "price": 2.239, "ultima_rilevazione": "12/03/2022 10:16:58"}, {"Gestore": "CALI' MARCO", "Bandiera": "Agip Eni", "Tipo impianto": "Altro", "Indirizzo": "VIA INGANNI ANGELO 99 20147", "Nome impianto": "ENI CALI' MARCO INGANNI", "Comune": "MILANO", "idImpianto": 39911, "points": [{"type": "Feature", "properties": {}, "geometry": {"type": "Point", "coordinates": [9.122362812025472, 45.45662726916326]}}], "price": 1.934, "ultima_rilevazione": "11/07/2022 08:31:12"}, {"Gestore": "BREAK POINT  S.R.L.", "Bandiera": "Api-Ip", "Tipo impianto": "Autostradale", "Indirizzo": "Autostrada A7 MILANO-SERRAVALLE, Km. 400, dir. Nord 20142", "Nome impianto": "CANTALUPA EST", "Comune": "MILANO", "idImpianto": 3786, "points": [{"type": "Feature", "properties": {}, "geometry": {"type": "Point", "coordinates": [9.158730728836076, 45.42123246954695]}}], "price": 2.171, "ultima_rilevazione": "12/07/2022 10:27:55"}, {"Gestore": "CALI' MARCO", "Bandiera": "Agip Eni", "Tipo impianto": "Altro", "Indirizzo": "VIA SANTA RITA DA CASCIA 64 20143", "Nome impianto": "CALI MARCO", "Comune": "MILANO", "idImpianto": 14653, "points": [{"type": "Feature", "properties": {}, "geometry": {"type": "Point", "coordinates": [9.15306679140167, 45.438391529127045]}}], "price": 1.984, "ultima_rilevazione": "15/07/2022 10:25:25"}, {"Gestore": "SERVIZI & GESTIONI ITALIA S.R.L.", "Bandiera": "Q8", "Tipo impianto": "Altro", "Indirizzo": "VIA BAGAROTTI 14/A 20152", "Nome impianto": "MILANO VIA BAGAROTTI 14/A", "Comune": "MILANO", "idImpianto": 23872, "points": [{"type": "Feature", "properties": {}, "geometry": {"type": "Point", "coordinates": [9.094877768122842, 45.4574490020773]}}], "price": 1.899, "ultima_rilevazione": "18/07/2022 00:35:24"}, {"Gestore": "SERVIZI & GESTIONI ITALIA srl", "Bandiera": "Q8", "Tipo impianto": "Altro", "Indirizzo": "VIA CIVIDALE DEL FRIULI 6 20152", "Nome impianto": "MILANO VIA CIVIDALE DEL FRIULI 6", "Comune": "MILANO", "idImpianto": 6437, "points": [{"type": "Feature", "properties": {}, "geometry": {"type": "Point", "coordinates": [9.100626387171928, 45.45898088643508]}}], "price": 1.899, "ultima_rilevazione": "18/07/2022 00:35:27"}, {"Gestore": "SERVIZI & GESTIONI ITALIA srl", "Bandiera": "Q8", "Tipo impianto": "Altro", "Indirizzo": "VIA MILANO 30 20029", "Nome impianto": "CESANO BOSCONE VIA MILANO 30", "Comune": "CESANO BOSCONE", "idImpianto": 6441, "points": [{"type": "Feature", "properties": {}, "geometry": {"type": "Point", "coordinates": [9.097773485319522, 45.4416935736466]}}], "price": 1.929, "ultima_rilevazione": "18/07/2022 00:35:29"},