{"area_comune": "[{\"type\": \"Feature\", \"properties\": {}, \"geometry\": {\"type\": \"Polygon\", \"coordinates\": [[[8.84704054402815, 45.64245546488668], [8.851609495533905, 45.64216444726419], [8.852570143701533, 45.637944312439664], [8.858931994120294, 45.63886144054484], [8.858636785602688, 45.63380259792906], [8.857651014182107, 45.6278787399871], [8.858233166324304, 45.625944283474354], [8.868484421821284, 45.619826944784926], [8.879458028884542, 45.616715750163465], [8.88011592470333, 45.612393860831425], [8.874233477883541, 45.601741632232695], [8.870818679814322, 45.597588446414235], [8.869910121690321, 45.5968133201295], [8.866297549424237, 45.59550403172307], [8.864093728117886, 45.594898366943795], [8.864736796520921, 45.59406204741385], [8.866124361339041, 45.59284855660267], [8.867824886556, 45.59201537363339], [8.868720221811879, 45.5902322960237], [8.872949429435945, 45.58518755345], [8.873920679127115, 45.58079617609028], [8.870876200731686, 45.57809247954914], [8.86300213987209, 45.57455494062791], [8.848800650186137, 45.57006354963595], [8.842978882500224, 45.571333832285305], [8.841492423766427, 45.571268772277996], [8.83999463889297, 45.5706816257705], [8.837002180367074, 45.568463146341635], [8.836175924124843, 45.57055919455082], [8.834680621463093, 45.577892832087564], [8.825274535704333, 45.581652914946886], [8.82079636666255, 45.58089957107775], [8.815092683493743, 45.58767298298622], [8.812633711206411, 45.59084926567661], [8.807568161808527, 45.59924761872359], [8.805640410926435, 45.60352159573825], [8.804931376536334, 45.607575922631106], [8.805713678324674, 45.61190069192851], [8.814338897573734, 45.62495104495031], [8.815674628518218, 45.62544972218457], [8.816896123700309, 45.62549683069916], [8.820704309167777, 45.63054663784098], [8.819153811138339, 45.63134361866124], [8.824879861467227, 45.638265200822545], [8.828786983868076, 45.64035938424887], [8.829812642849703, 45.64063992980383], [8.832237361168772, 45.64078751996919], [8.845706938811837, 45.642653841010734], [8.84704054402815, 45.64245546488668]]]}}]", "comune": "busto-arsizio", "buffer_1": "[{\"type\": \"Feature\", \"properties\": {}, \"geometry\": {\"type\": \"Polygon\", \"coordinates\": [[[8.8437019492682, 45.65114642219474], [8.844930813849135, 45.65133388745635], [8.846179945379223, 45.65143609020735], [8.847437344257006, 45.65145204864248], [8.848690931345635, 45.6513816094511], [8.8499286641764, 45.651225449292426], [8.851138652797575, 45.65098506828621], [8.852309274147832, 45.650662775582326], [8.853429283847992, 45.65026166714858], [8.854487924330545, 45.64978559599141], [8.855475028262392, 45.6492391350978], [8.856381116262792, 45.6486275334562], [8.85719748797471, 45.64795666558189], [8.890270687138477, 45.61789214794971], [8.890964684618302, 45.61719507165954], [8.891561829380237, 45.61645514415508], [8.892056794406678, 45.615678971023556], [8.892445165446913, 45.61487348115331], [8.892723480292778, 45.614045864844], [8.892889259533455, 45.61320350959231], [8.89294102852015, 45.612353934127896], [8.892878330350493, 45.61150472128937], [8.892701729763056, 45.610663450339885], [8.892412807913809, 45.60983762932679], [8.89201414808763, 45.609034628088686], [8.891509312478663, 45.60826161250717], [8.890902810252598, 45.60752548058922], [8.878785476968732, 45.59429788908548], [8.885435636435872, 45.58475089849742], [8.88593527690732, 45.583933392231515], [8.88631753670817, 45.58308524529162], [8.886578686672102, 45.58221474373972], [8.88671618123335, 45.58133039164988], [8.886728683081675, 45.580440828006154], [8.886616076000719, 45.57955474229773], [8.886379465773087, 45.578680789636536], [8.886021169152306, 45.5778275062263], [8.885544691018177, 45.577003226008244], [8.884954689947044, 45.5762159992968], [8.884256932540808, 45.57547351419804], [8.883458236967217, 45.57478302157644], [8.882566406268014, 45.57415126430041], [8.881590152089938, 45.57358441145478], [8.880539009585375, 45.57308799815978], [8.879423244314044, 45.57266687158142], [8.8425088573091, 45.5603356080042], [8.841332016910151, 45.5599915258935], [8.840112344271159, 45.55973127405162], [8.83886190525955, 45.55955742696987], [8.83759306966693, 45.55947170437437], [8.836318389006989, 45.55947495423815], [8.835050472528529, 45.559567144404845], [8.833801862661547, 45.559747362906684], [8.832584911119659, 45.560013826973524], [8.831411656875932, 45.56036390064436], [8.830293707211172, 45.56079412080822], [8.829242123004141, 45.561300231418876], [8.8282673093925, 45.561877225546624], [8.827378912881498, 45.56251939485417], [8.826585725915304, 45.563220386009505], [8.82589559985376, 45.56397326348115], [8.793819658899746, 45.60308294361577], [8.79326231667573, 45.6038432980974], [8.79281026810632, 45.60463734293254], [8.792467596777799, 45.60545791304084], [8.79223739975203, 45.606297603676914], [8.792121759456267, 45.60714883722337], [8.792121724713546, 45.60800393155478], [8.792237301091271, 45.608855169357], [8.792467450661727, 45.6096948677764], [8.792810101183518, 45.610515447770545], [8.793262164627757, 45.611309502533956], [8.813205591845826, 45.64200079030914], [8.813780685882088, 45.64278181975871], [8.814461669575696, 45.64351977118951], [8.81524205003843, 45.64420760419188], [8.81611438527615, 45.64483875626198], [8.817070355121244, 45.645407205468814], [8.818100840583233, 45.64590752796706], [8.819196010860997, 45.64633494980458], [8.820345417185393, 45.64668539252744], [8.82153809259423, 45.64695551214475], [8.8437019492682, 45.65114642219474]]]}}]", "buffer_3": "[{\"type\": \"Feature\", \"properties\": {}, \"geometry\": {\"type\": \"Polygon\", \"coordinates\": [[[8.837021650448726, 45.66852800005006], [8.840709341844502, 45.66909057147873], [8.844457911252803, 45.669397277798645], [8.848231314804782, 45.66944516982968], [8.851993268792251, 45.669233786998056], [8.855707600056878, 45.66876516178637], [8.85933859529426, 45.66804380010976], [8.862851345842902, 45.66707663781076], [8.866212084575304, 45.66587297369972], [8.869388511590826, 45.66444437979792], [8.872350105526742, 45.66280458966317], [8.87506841745338, 45.66096936589211], [8.877517344499486, 45.658956348095295], [8.910586169303189, 45.628886002765945], [8.912667762956934, 45.62679439450295], [8.914458600435157, 45.6245742653274], [8.915942721992762, 45.62224544435198], [8.917106912477836, 45.61982872898257], [8.917940818171772, 45.61734569886613], [8.918437037878286, 45.61481852293724], [8.918591187495696, 45.61226976129738], [8.918401937549227, 45.609722163704554], [8.917871023405352, 45.607198466477286], [8.917003228135913, 45.604721189627135], [8.915806338243518, 45.6023124360282], [8.91429107269978, 45.59999369441009], [8.912470985981678, 45.5977856479231], [8.908168043349162, 45.59309126413989], [8.908470406792881, 45.59265685673497], [8.909968492966266, 45.59020403156737], [8.911114280509624, 45.58765934733893], [8.911896620628225, 45.58504767171521], [8.912307919913221, 45.582394523570414], [8.91234421261647, 45.57972582342332], [8.912005197363975, 45.577067640085446], [8.911294238028338, 45.574445936001815], [8.91021832883248, 45.57188631377245], [8.908788024104778, 45.56941376632541], [8.907017333446568, 45.5670524331714], [8.904923583403342, 45.56482536510532], [8.902527247048182, 45.562754299634115], [8.899851743187188, 45.56085944930082], [8.896923207179388, 45.55915930494731], [8.893770235625874, 45.557670455809834], [8.890423607422347, 45.556407428177096], [8.853517441742206, 45.54407969427597], [8.849987778197907, 45.543047749879086], [8.8463297722444, 45.542267231491216], [8.842579581557947, 45.54174585323814], [8.838774271081663, 45.54148876787357], [8.834951448169617, 45.54149851606767], [8.831148892484544, 45.54177500140632], [8.827404184229847, 45.542315491342876], [8.823754334311591, 45.543114644093116], [8.820235420008691, 45.54416456121307], [8.81688222968001, 45.545454865350564], [8.81372791995551, 45.54697280241755], [8.810803688745688, 45.54870336719267], [8.808138467259937, 45.550629451135485], [8.80575863405104, 45.552732010976605], [8.80368775390094, 45.5549902564437], [8.771601553290033, 45.594093742795884], [8.769928850747323, 45.59637447487491], [8.768571861494527, 45.59875632816162], [8.767542866629206, 45.601217817548026], [8.766851192629948, 45.603736736764], [8.766503125757499, 45.60629035846809], [8.766501853744206, 45.60885563914019], [8.766847435354602, 45.611409426935204], [8.767536798151934, 45.613928670625846], [8.768563764552098, 45.61639062774948], [8.76991910599031, 45.61877307007642], [8.789852407300367, 45.64946837478952], [8.791576990533983, 45.651811802509705], [8.793619446145875, 45.654026037023044], [8.795960314382652, 45.656089942622984], [8.798577279706926, 45.65798381631174], [8.80144538319293, 45.6596895763913], [8.804537260514923, 45.661190935608644], [8.807823403261448, 45.66247355717771], [8.81127244107126, 45.66352519216433], [8.814851441874065, 45.66433579689897], [8.837021650448726, 45.66852800005006]]]}}]", "buffer_5": "[{\"type\": \"Feature\", \"properties\": {}, \"geometry\": {\"type\": \"Polygon\", \"coordinates\": [[[8.830337201274554, 45.685909128303166], [8.836485184546174, 45.686847040439204], [8.842734760046827, 45.687358381283694], [8.849025779400392, 45.687438229243334], [8.855297692433604, 45.687085815622154], [8.861490134136375, 45.686304532079646], [8.867543509778207, 45.685101897762564], [8.873399572349966, 45.683489486437686], [8.879001986584775, 45.681482814351014], [8.884296873959519, 45.67910118992957], [8.889233333286791, 45.67636752681969], [8.893763931773575, 45.67330812211767], [8.897845161743184, 45.66995240199012], [8.930909597056589, 45.63987622824306], [8.934378253398261, 45.63638958216233], [8.937361986017555, 45.63268878930025], [8.939834230998507, 45.628806918760176], [8.941773009227715, 45.62477865076917], [8.94316111947195, 45.62063996595551], [8.94398628822456, 45.616427823243505], [8.944241275115544, 45.61217982927468], [8.943923933092648, 45.60793390233054], [8.943037222995073, 45.603727933771665], [8.941589182553445, 45.59959945001882], [8.93959285025535, 45.59558527808625], [8.937066144911979, 45.59172121763572], [8.93633268855587, 45.59083189703606], [8.93721710732077, 45.5878749885449], [8.937900631519126, 45.58345292269388], [8.937959097898911, 45.57900507464057], [8.937392082966594, 45.574574892917134], [8.93620527067354, 45.5702056433894], [8.934410391239195, 45.56593998698786], [8.932025101232595, 45.56181956372663], [8.929072806290401, 45.55788458704394], [8.925582428389218, 45.554173452384134], [8.92158812010336, 45.55072236378965], [8.917128928763079, 45.54756498208687], [8.912248413878961, 45.54473209803006], [8.906994221612718, 45.542251333521655], [8.901417620450912, 45.54014687374934], [8.864519673179258, 45.527822665970476], [8.85863832930266, 45.526103261336154], [8.8525433381052, 45.524802792134984], [8.846294895944654, 45.52393409970815], [8.839954703814517, 45.523505761302644], [8.833585362155757, 45.52352200597059], [8.82724975710297, 45.523982673112776], [8.821010444012444, 45.52488321406146], [8.814929034142306, 45.52621473668683], [8.809065590328384, 45.52796409260169], [8.803478037423908, 45.530114006132735], [8.798221593146767, 45.53264324382661], [8.79334822480523, 45.53552682287096], [8.788906137152395, 45.53873625643483], [8.784939296352052, 45.54223983357501], [8.781486994725116, 45.546002931017654], [8.74939055390077, 45.585100221629965], [8.746601591698711, 45.58890088920457], [8.744338538710023, 45.59287017552149], [8.742621913860056, 45.596972288979075], [8.74146731998895, 45.60117023243915], [8.74088529908228, 45.60542613622918], [8.74088123275695, 45.609701599293956], [8.74145528905709, 45.61395803544062], [8.74260241620662, 45.618157021564514], [8.744312383545248, 45.62226064471438], [8.746569869446626, 45.6262318448544], [8.76649303087026, 45.6569311635278], [8.769366169590164, 45.66083744172515], [8.772769434619274, 45.66452846619636], [8.776670424714197, 45.667968986627876], [8.78103196486738, 45.671126138857005], [8.785812459617798, 45.67396976017597], [8.790966289582315, 45.676472678921165], [8.796444247434826, 45.67861097551328], [8.802194009143024, 45.68036421238632], [8.808160635896403, 45.68171563054408], [8.830337201274554, 45.685909128303166]]]}}]", "centroid": "[{\"type\": \"Feature\", \"properties\": {}, \"geometry\": {\"type\": \"Point\", \"coordinates\": [8.843624487162344, 45.605651173023574]}}]", "Diesel High Quality": {"1": [{"Gestore": "LEPRI MARCO", "Bandiera": "Esso", "Tipo impianto": "Strada Statale", "Indirizzo": "Statale 33 del Sempione, Km. 144, dir. NORD 21052", "Nome impianto": "ESSO SEMPIONE", "Comune": "BUSTO ARSIZIO", "idImpianto": 9058, "points": [{"type": "Feature", "properties": {}, "geometry": {"type": "Point", "coordinates": [8.841612339019775, 45.62873718186091]}}], "price": 2.176, "ultima_rilevazione": "08/07/2022 18:19:22"}, {"Gestore": "LEPRI MARCO", "Bandiera": "Esso", "Tipo impianto": "Altro", "Indirizzo": "CORSO ITALIA  21052", "Nome impianto": "ESSO ITALIA", "Comune": "BUSTO ARSIZIO", "idImpianto": 9059, "points": [{"type": "Feature", "properties": {}, "geometry": {"type": "Point", "coordinates": [8.83901059627533, 45.615347715796815]}}], "price": 2.176, "ultima_rilevazione": "08/07/2022 18:20:33"}, {"Gestore": "BOSATELLI BRUNO & C. - S.A.S.", "Bandiera": "Esso", "Tipo impianto": "Altro", "Indirizzo": "VIA PER FAGNANO 24 21052", "Nome impianto": "ESSO", "Comune": "BUSTO ARSIZIO", "idImpianto": 10021, "points": [{"type": "Feature", "properties": {}, "geometry": {"type": "Point", "coordinates": [8.857867866754532, 45.62548446746924]}}], "price": 2.156, "ultima_rilevazione": "08/07/2022 18:32:04"}, {"Gestore": "MARINO ROCCO", "Bandiera": "Api-Ip", "Tipo impianto": "Altro", "Indirizzo": "VIALE BOCCACCIO 42 21052", "Nome impianto": "IP", "Comune": "BUSTO ARSIZIO", "idImpianto": 22418, "points": [{"type": "Feature", "properties": {}, "geometry": {"type": "Point", "coordinates": [8.860757946968079, 45.59867244590827]}}], "price": 2.029, "ultima_rilevazione": "09/07/2022 12:50:01"}, {"Gestore": "SERVIZI & GESTIONI ITALIA S.R.L.", "Bandiera": "Q8", "Tipo impianto": "Altro", "Indirizzo": "CORSO ITALIA 23 21052", "Nome impianto": "BUSTO ARSIZIO-CORSO ITALIA 23", "Comune": "BUSTO ARSIZIO", "idImpianto": 11922, "points": [{"type": "Feature", "properties": {}, "geometry": {"type": "Point", "coordinates": [8.846762449073822, 45.62081875947187]}}], "price": 2.279, "ultima_rilevazione": "11/07/2022 00:35:19"}, {"Gestore": "SERVIZI & GESTIONI ITALIA S.R.L.", "Bandiera": "Q8", "Tipo impianto": "Altro", "Indirizzo": "CORSO ITALIA 23 21052", "Nome impianto": "BUSTO ARSIZIO-CORSO ITALIA 23", "Comune": "BUSTO ARSIZIO", "idImpianto": 11922, "points": [{"type": "Feature", "properties": {}, "geometry": {"type": "Point", "coordinates": [8.846762449073822, 45.62081875947187]}}], "price": 2.299, "ultima_rilevazione": "11/07/2022 00:35:19"}, {"Gestore": "SERVIZI & GESTIONI ITALIA srl", "Bandiera": "Q8", "Tipo impianto": "Altro", "Indirizzo": "V.LE RIMEMBRANZE 53 21052", "Nome impianto": "BUSTO ARSIZIO V.LE RIMEMBRANZE  53", "Comune": "BUSTO ARSIZIO", "idImpianto": 6459, "points": [{"type": "Feature", "properties": {}, "geometry": {"type": "Point", "coordinates": [8.833518582942133, 45.60909492679454]}}], "price": 2.279, "ultima_rilevazione": "11/07/2022 00:35:20"}, {"Gestore": "SERVIZI & GESTIONI ITALIA srl", "Bandiera": "Q8", "Tipo impianto": "Altro", "Indirizzo": "V.LE RIMEMBRANZE 53 21052", "Nome impianto": "BUSTO ARSIZIO V.LE RIMEMBRANZE  53", "Comune": "BUSTO ARSIZIO", "idImpianto": 6459, "points": [{"type": "Feature", "properties": {}, "geometry": {"type": "Point", "coordinates": [8.833518582942133, 45.60909492679454]}}], "price": 2.299, "ultima_rilevazione": "11/07/2022 00:35:20"}], "3": [{"Gestore": "SERVIZI & GESTIONI ITALIA srl", "Bandiera": "Q8", "Tipo impianto": "Altro", "Indirizzo": "VIALE LOMBARDIA 27 21053", "Nome impianto": "CASTELLANZA VIALE LOMBARDIA 27", "Comune": "CASTELLANZA", "idImpianto": 6460, "points": [{"type": "Feature", "properties": {}, "geometry": {"type": "Point", "coordinates": [8.904368128241686, 45.61509008291705]}}], "price": 1.705, "ultima_rilevazione": "11/07/2022 00:35:22"}, {"Gestore": "BROMAR S.N.C. DI BROCCOLO SONIA E C.", "Bandiera": "Q8", "Tipo impianto": "Altro", "Indirizzo": "VIA TORINO, ANGOLO VIA CHECCHI 82 21013", "Nome impianto": "BROMAR S.N.C.", "Comune": "GALLARATE", "idImpianto": 10555, "points": [{"type": "Feature", "properties": {}, "geometry": {"type": "Point", "coordinates": [8.792936000123, 45.644901000123]}}], "price": 2.359, "ultima_rilevazione": "08/07/2022 08:57:03"}, {"Gestore": "BROMAR S.N.C. DI BROCCOLO SONIA E C.", "Bandiera": "Q8", "Tipo impianto": "Altro", "Indirizzo": "VIA TORINO, ANGOLO VIA CHECCHI 82 21013", "Nome impianto": "BROMAR S.N.C.", "Comune": "GALLARATE", "idImpianto": 10555, "points": [{"type": "Feature", "properties": {}, "geometry": {"type": "Point", "coordinates": [8.792936000123, 45.644901000123]}}], "price": 2.399, "ultima_rilevazione": "08/07/2022 08:57:03"}, {"Gestore": "ACEZ SAS DI ZUCCALA' CLEMENTE & C.", "Bandiera": "Esso", "Tipo impianto": "Altro", "Indirizzo": "Via Magenta  29 20010", "Nome impianto": "ESSO", "Comune": "SAN GIORGIO SU LEGNANO", "idImpianto": 49616, "points": [{"type": "Feature", "properties": {}, "geometry": {"type": "Point", "coordinates": [8.901193176236326, 45.5710689638264]}}], "price": 2.139, "ultima_rilevazione": "09/07/2022 08:05:51"}, {"Gestore": "SERVIZI & GESTIONI ITALIA S.R.L.", "Bandiera": "Q8", "Tipo impianto": "Altro", "Indirizzo": "VIA SABOTINO 75 20025", "Nome impianto": "LEGNANO-VIA SABOTINO 75", "Comune": "LEGNANO", "idImpianto": 11683, "points": [{"type": "Feature", "properties": {}, "geometry": {"type": "Point", "coordinates": [8.90271335449222, 45.58602158677832]}}], "price": 2.289, "ultima_rilevazione": "11/07/2022 00:35:00"}, {"Gestore": "SERVIZI & GESTIONI ITALIA S.R.L.", "Bandiera": "Q8", "Tipo impianto": "Altro", "Indirizzo": "VIA SABOTINO 75 20025", "Nome impianto": "LEGNANO-VIA SABOTINO 75", "Comune": "LEGNANO", "idImpianto": 11683, "points": [{"type": "Feature", "properties": {}, "geometry": {"type": "Point", "coordinates": [8.90271335449222, 45.58602158677832]}}], "price": 2.299, "ultima_rilevazione": "11/07/2022 00:35:00"}, {"Gestore": "SERVIZI & GESTIONI ITALIA S.R.L.", "Bandiera": "Q8", "Tipo impianto": "Altro", "Indirizzo": "VIA XX SETTEMBRE 84 20025", "Nome impianto": "LEGNANO-VIA XX SETTEMBRE 84", "Comune": "LEGNANO", "idImpianto": 11691, "points": [{"type": "Feature", "properties": {}, "geometry": {"type": "Point", "coordinates": [8.910728746032646, 45.58447337466343]}}], "price": 2.289, "ultima_rilevazione": "11/07/2022 00:35:01"}, {"Gestore": "SERVIZI & GESTIONI ITALIA S.R.L.", "Bandiera": "Q8", "Tipo impianto": "Altro", "Indirizzo": "VIA XX SETTEMBRE 84 20025", "Nome impianto": "LEGNANO-VIA XX SETTEMBRE 84", "Comune": "LEGNANO", "idImpianto": 11691, "points": [{"type": "Feature", "properties": {}, "geometry": {"type": "Point", "coordinates": [8.910728746032646, 45.58447337466343]}}], "price": 2.299, "ultima_rilevazione": "11/07/2022 00:35:01"}], "5": [{"Gestore": "PARIANI STEFANO", "Bandiera": "Esso", "Tipo impianto": "Altro", "Indirizzo": "via Tadini 71 20022", "Nome impianto": "ESSO - CASTANO PRIMO", "Comune": "CASTANO PRIMO", "idImpianto": 25858, "points": [{"type": "Feature", "properties": {}, "geometry": {"type": "Point", "coordinates": [8.78672739510148, 45.55025713160988]}}], "price": 2.159, "ultima_rilevazione": "07/07/2022 08:17:01"}, {"Gestore": "PARIANI STEFANO", "Bandiera": "Esso", "Tipo impianto": "Altro", "Indirizzo": "via Milano 04 20020", "Nome impianto": "ESSO - VANZAGHELLO", "Comune": "VANZAGHELLO", "idImpianto": 47513, "points": [{"type": "Feature", "properties": {}, "geometry": {"type": "Point", "coordinates": [8.778483867645264, 45.57989379462136]}}], "price": 2.189, "ultima_rilevazione": "07/07/2022 08:25:58"}, {"Gestore": "IP SERVICES S.R.L.", "Bandiera": "Api-Ip", "Tipo impianto": "Altro", "Indirizzo": "via Sanzio 15 21013", "Nome impianto": "Gallarate Sanzio", "Comune": "GALLARATE", "idImpianto": 38380, "points": [{"type": "Feature", "properties": {}, "geometry": {"type": "Point", "coordinates": [8.795668647815774, 45.66804046676662]}}], "price": 1.979, "ultima_rilevazione": "10/07/2022 09:03:10"}, {"Gestore": "IP SERVICES S.R.L.", "Bandiera": "Api-Ip", "Tipo impianto": "Altro", "Indirizzo": "Via fratelli Bandiera  ", "Nome impianto": "Canegrate", "Comune": "CANEGRATE", "idImpianto": 10086, "points": [{"type": "Feature", "properties": {}, "geometry": {"type": "Point", "coordinates": [8.933268785476685, 45.56434859566271]}}], "price": 1.969, "ultima_rilevazione": "10/07/2022 09:04:11"}, {"Gestore": "SERVIZI & GESTIONI ITALIA S.R.L.", "Bandiera": "Q8", "Tipo impianto": "Altro", "Indirizzo": "VIA PER TURBIGO S/N 20010", "Nome impianto": "BUSCATE-PER TURBIGO", "Comune": "BUSCATE", "idImpianto": 11668, "points": [{"type": "Feature", "properties": {}, "geometry": {"type": "Point", "coordinates": [8.802199592590341, 45.54492022314928]}}], "price": 2.299, "ultima_rilevazione": "11/07/2022 00:34:54"}, {"Gestore": "SERVIZI & GESTIONI ITALIA S.R.L.", "Bandiera": "Q8", "Tipo impianto": "Altro", "Indirizzo": "VIA PER TURBIGO S/N 20010", "Nome impianto": "BUSCATE-PER TURBIGO", "Comune": "BUSCATE", "idImpianto": 11668, "points": [{"type": "Feature", "properties": {}, "geometry": {"type": "Point", "coordinates": [8.802199592590341, 45.54492022314928]}}], "price": 2.329, "ultima_rilevazione": "11/07/2022 00:34:54"}, {"Gestore": "SERVIZI & GESTIONI ITALIA S.R.L.", "Bandiera": "Q8", "Tipo impianto": "Altro", "Indirizzo": "CORSO SEMPIONE  ANG.VIA VOLTA 160 20025", "Nome impianto": "LEGNANO-CORSO SEMPIONE 160 ANG.VIA VOLTA", "Comune": "LEGNANO", "idImpianto": 11657, "points": [{"type": "Feature", "properties": {}, "geometry": {"type": "Point", "coordinates": [8.918259766864821, 45.60017318891127]}}], "price": 2.289, "ultima_rilevazione": "11/07/2022 00:34:59"}, {"Gestore": "SERVIZI & GESTIONI ITALIA S.R.L.", "Bandiera": "Q8", "Tipo impianto": "Altro", "Indirizzo": "CORSO SEMPIONE  ANG.VIA VOLTA 160 20025", "Nome impianto": "LEGNANO-CORSO SEMPIONE 160 ANG.VIA VOLTA", "Comune": "LEGNANO", "idImpianto": 11657, "points": [{"type": "Feature", "properties": {}, "geometry": {"type": "Point", "coordinates": [8.918259766864821, 45.60017318891127]}}], "price": 2.299, "ultima_rilevazione": "11/07/2022 00:34:59"}, {"Gestore": "SERVIZI & GESTIONI ITALIA S.R.L.", "Bandiera": "Q8", "Tipo impianto": "Altro", "Indirizzo": "VIALE CADORNA 58 20025", "Nome impianto": "LEGNANO-VIALE CADORNA 58", "Comune": "LEGNANO", "idImpianto": 11673, "points": [{"type": "Feature", "properties": {}, "geometry": {"type": "Point", "coordinates": [8.93926352262497, 45.59818863369359]}}], "price": 2.289, "ultima_rilevazione": "11/07/2022 00:35:00"}, {"Gestore": "SERVIZI & GESTIONI ITALIA S.R.L.", "Bandiera": "Q8", "Tipo impianto": "Altro", "Indirizzo": "VIALE CADORNA 58 20025", "Nome impianto": "LEGNANO-VIALE CADORNA 58", "Comune": "LEGNANO", "idImpianto": 11673, "points": [{"type": "Feature", "properties": {}, "geometry": {"type": "Point", "coordinates": [8.93926352262497, 45.59818863369359]}}], "price": 2.299, "ultima_rilevazione": "11/07/2022 00:35:00"}]}, "Blue Diesel": {"1": [{"Gestore": "DEDA ASTRIT", "Bandiera": "Agip Eni", "Tipo impianto": "Altro", "Indirizzo": "VIA PER FAGNANO 32 21052", "Nome impianto": "eni 52359", "Comune": "BUSTO ARSIZIO", "idImpianto": 46044, "points": [{"type": "Feature", "properties": {}, "geometry": {"type": "Point", "coordinates": [8.857783000123, 45.626435000123]}}], "price": 2.104, "ultima_rilevazione": "05/07/2022 13:23:26"}, {"Gestore": "VINCI S.A.S. DI VINCI SALVATORE & C.", "Bandiera": "Agip Eni", "Tipo impianto": "Altro", "Indirizzo": "via busto fagnano 36 21057", "Nome impianto": "02874 OLGIATE OLONA", "Comune": "OLGIATE OLONA", "idImpianto": 7166, "points": [{"type": "Feature", "properties": {}, "geometry": {"type": "Point", "coordinates": [8.858649730682373, 45.631588145862736]}}], "price": 2.054, "ultima_rilevazione": "09/07/2022 08:32:53"}, {"Gestore": "VINCI S.A.S. DI VINCI SALVATORE & C.", "Bandiera": "Agip Eni", "Tipo impianto": "Altro", "Indirizzo": "via busto fagnano 36 21057", "Nome impianto": "02874 OLGIATE OLONA", "Comune": "OLGIATE OLONA", "idImpianto": 7166, "points": [{"type": "Feature", "properties": {}, "geometry": {"type": "Point", "coordinates": [8.858649730682373, 45.631588145862736]}}], "price": 2.154, "ultima_rilevazione": "09/07/2022 08:32:53"}, {"Gestore": "CEPPI ROBERTO", "Bandiera": "Agip Eni", "Tipo impianto": "Altro", "Indirizzo": "VIALE ARMANDO DIAZ 28 21052", "Nome impianto": "ENI PV 02805", "Comune": "BUSTO ARSIZIO", "idImpianto": 38949, "points": [{"type": "Feature", "properties": {}, "geometry": {"type": "Point", "coordinates": [8.852900235581956, 45.62159883144696]}}], "price": 2.059, "ultima_rilevazione": "09/07/2022 11:23:32"}, {"Gestore": "ENI FUEL S.P.A.", "Bandiera": "Agip Eni", "Tipo impianto": "Altro", "Indirizzo": "VIA XX SETTEMBRE, 60  21052", "Nome impianto": "2807 \u2013 Busto Arsizio", "Comune": "BUSTO ARSIZIO", "idImpianto": 49792, "points": [{"type": "Feature", "properties": {}, "geometry": {"type": "Point", "coordinates": [8.867198119656962, 45.61297865138692]}}], "price": 2.064, "ultima_rilevazione": "11/07/2022 07:14:03"}, {"Gestore": "ENI FUEL S.P.A.", "Bandiera": "Agip Eni", "Tipo impianto": "Altro", "Indirizzo": "VIA XX SETTEMBRE, 60  21052", "Nome impianto": "2807 \u2013 Busto Arsizio", "Comune": "BUSTO ARSIZIO", "idImpianto": 49792, "points": [{"type": "Feature", "properties": {}, "geometry": {"type": "Point", "coordinates": [8.867198119656962, 45.61297865138692]}}], "price": 2.144, "ultima_rilevazione": "11/07/2022 07:14:03"}, {"Gestore": "IAMETTI S.A.S. DI IAMETTI DANILO E MARCO", "Bandiera": "Agip Eni", "Tipo impianto": "Altro", "Indirizzo": "VIALE PIRANDELLO 2 21052", "Nome impianto": "IAMETTI SAS", "Comune": "BUSTO ARSIZIO", "idImpianto": 14390, "points": [{"type": "Feature", "properties": {}, "geometry": {"type": "Point", "coordinates": [8.847196151520507, 45.60283165537623]}}], "price": 2.144, "ultima_rilevazione": "11/07/2022 07:15:11"}, {"Gestore": "IAMETTI S.A.S. DI IAMETTI DANILO E MARCO", "Bandiera": "Agip Eni", "Tipo impianto": "Altro", "Indirizzo": "VIALE PIRANDELLO 2 21052", "Nome impianto": "IAMETTI SAS", "Comune": "BUSTO ARSIZIO", "idImpianto": 14390, "points": [{"type": "Feature", "properties": {}, "geometry": {"type": "Point", "coordinates": [8.847196151520507, 45.60283165537623]}}], "price": 2.064, "ultima_rilevazione": "11/07/2022 07:15:11"}], "3": [{"Gestore": "BEMA SAS DI ANDREA BERTOLASO & C.", "Bandiera": "Agip Eni", "Tipo impianto": "Altro", "Indirizzo": "VIA BONICALZA 127 21012", "Nome impianto": "Eni 02862 Cassano Magnago", "Comune": "CASSANO MAGNAGO", "idImpianto": 45389, "points": [{"type": "Feature", "properties": {}, "geometry": {"type": "Point", "coordinates": [8.843454000123, 45.660386000123]}}], "price": 2.059, "ultima_rilevazione": "08/07/2022 15:33:52"}, {"Gestore": "VINCI S.A.S. DI VINCI SALVATORE & C.", "Bandiera": "Agip Eni", "Tipo impianto": "Altro", "Indirizzo": "VIA NOVARA ANG. VIA SABOTINO  20025", "Nome impianto": "IMP. ENI LEGNANO VINCI SAS", "Comune": "LEGNANO", "idImpianto": 7946, "points": [{"type": "Feature", "properties": {}, "geometry": {"type": "Point", "coordinates": [8.899647295475006, 45.5907244858852]}}], "price": 2.149, "ultima_rilevazione": "09/07/2022 08:33:42"}, {"Gestore": "RAIMONDI MAURO", "Bandiera": "Agip Eni", "Tipo impianto": "Altro", "Indirizzo": "VIA ARMANDO DIAZ 1 21057", "Nome impianto": "RAIMONDI MAURO", "Comune": "OLGIATE OLONA", "idImpianto": 14944, "points": [{"type": "Feature", "properties": {}, "geometry": {"type": "Point", "coordinates": [8.888167440891266, 45.63324351402306]}}], "price": 2.054, "ultima_rilevazione": "09/07/2022 14:19:29"}, {"Gestore": "RAIMONDI MAURO", "Bandiera": "Agip Eni", "Tipo impianto": "Altro", "Indirizzo": "VIA ARMANDO DIAZ 1 21057", "Nome impianto": "RAIMONDI MAURO", "Comune": "OLGIATE OLONA", "idImpianto": 14944, "points": [{"type": "Feature", "properties": {}, "geometry": {"type": "Point", "coordinates": [8.888167440891266, 45.63324351402306]}}], "price": 2.154, "ultima_rilevazione": "09/07/2022 14:19:29"}, {"Gestore": "BUSELLATO MASSIMO", "Bandiera": "Agip Eni", "Tipo impianto": "Altro", "Indirizzo": "VIA AMBROSOLI ANG. VIA MILANO 15 21013", "Nome impianto": "ENI BUSELLATO", "Comune": "GALLARATE", "idImpianto": 40509, "points": [{"type": "Feature", "properties": {}, "geometry": {"type": "Point", "coordinates": [8.807483911514282, 45.65049049417369]}}], "price": 2.144, "ultima_rilevazione": "09/07/2022 19:34:52"}, {"Gestore": "BUSELLATO MASSIMO", "Bandiera": "Agip Eni", "Tipo impianto": "Altro", "Indirizzo": "VIA AMBROSOLI ANG. VIA MILANO 15 21013", "Nome impianto": "ENI BUSELLATO", "Comune": "GALLARATE", "idImpianto": 40509, "points": [{"type": "Feature", "properties": {}, "geometry": {"type": "Point", "coordinates": [8.807483911514282, 45.65049049417369]}}], "price": 2.064, "ultima_rilevazione": "09/07/2022 19:34:52"}, {"Gestore": "ENI FUEL S.P.A.", "Bandiera": "Agip Eni", "Tipo impianto": "Altro", "Indirizzo": "Via Don Minzoni 52 21053", "Nome impianto": "PV 2906 Castellanza", "Comune": "CASTELLANZA", "idImpianto": 39454, "points": [{"type": "Feature", "properties": {}, "geometry": {"type": "Point", "coordinates": [8.892793580889702, 45.60381865060999]}}], "price": 2.054, "ultima_rilevazione": "10/07/2022 09:04:09"}, {"Gestore": "GESTIONI INNOVATIVE ITALIA S.R.L.", "Bandiera": "Agip Eni", "Tipo impianto": "Altro", "Indirizzo": "VIALE LOMBARDIA 72 21053", "Nome impianto": "PV 2857", "Comune": "CASTELLANZA", "idImpianto": 25132, "points": [{"type": "Feature", "properties": {}, "geometry": {"type": "Point", "coordinates": [8.910047560930252, 45.61004458384013]}}], "price": 2.054, "ultima_rilevazione": "11/07/2022 00:20:04"}, {"Gestore": "C.R. S.N.C. DI CANDIANI SIMONE  &  RAVASI PAOLO", "Bandiera": "Agip Eni", "Tipo impianto": "Altro", "Indirizzo": "VIA TORINO 76 21013", "Nome impianto": "crsnc", "Comune": "GALLARATE", "idImpianto": 10817, "points": [{"type": "Feature", "properties": {}, "geometry": {"type": "Point", "coordinates": [8.793311690807286, 45.64576312759459]}}], "price": 2.064, "ultima_rilevazione": "11/07/2022 06:25:38"}, {"Gestore": "ELLEPI SERVICE DI LUCA PULVIRENTI", "Bandiera": "Agip Eni", "Tipo impianto": "Altro", "Indirizzo": "via ercole ferrario 1 21013", "Nome impianto": "02908", "Comune": "GALLARATE", "idImpianto": 28790, "points": [{"type": "Feature", "properties": {}, "geometry": {"type": "Point", "coordinates": [8.792808172521973, 45.65281493830711]}}], "price": 2.059, "ultima_rilevazione": "11/07/2022 06:46:21"}, {"Gestore": "ELLEPI SERVICE DI LUCA PULVIRENTI", "Bandiera": "Agip Eni", "Tipo impianto": "Altro", "Indirizzo": "via ercole ferrario 1 21013", "Nome impianto": "02908", "Comune": "GALLARATE", "idImpianto": 28790, "points": [{"type": "Feature", "properties": {}, "geometry": {"type": "Point", "coordinates": [8.792808172521973, 45.65281493830711]}}], "price": 2.139, "ultima_rilevazione": "11/07/2022 06:46:21"}], "5": [{"Gestore": "VELE S.A.S. DI VERDUCI ANTONINO & CC", "Bandiera": "Agip Eni", "Tipo impianto": "Altro", "Indirizzo": "VIA SARONNESE 51 20027", "Nome impianto": "Vele sas di Verduci Antonino & c", "Comune": "RESCALDINA", "idImpianto": 11118, "points": [{"type": "Feature", "properties": {}, "geometry": {"type": "Point", "coordinates": [8.940021041264345, 45.61118996647434]}}], "price": 2.109, "ultima_rilevazione": "04/07/2022 10:09:27"}, {"Gestore": "COZZI ANDREA", "Bandiera": "Agip Eni", "Tipo impianto": "Altro", "Indirizzo": "VIA VARESE 14 21013", "Nome impianto": "ENI", "Comune": "GALLARATE", "idImpianto": 28889, "points": [{"type": "Feature", "properties": {}, "geometry": {"type": "Point", "coordinates": [8.797299733729574, 45.67431099042725]}}], "price": 2.059, "ultima_rilevazione": "09/07/2022 06:47:05"}, {"Gestore": "COZZI ANDREA", "Bandiera": "Agip Eni", "Tipo impianto": "Altro", "Indirizzo": "VIA VARESE 14 21013", "Nome impianto": "ENI", "Comune": "GALLARATE", "idImpianto": 28889, "points": [{"type": "Feature", "properties": {}, "geometry": {"type": "Point", "coordinates": [8.797299733729574, 45.67431099042725]}}], "price": 2.139, "ultima_rilevazione": "09/07/2022 06:47:05"}, {"Gestore": "PERRONE NICOLA", "Bandiera": "Agip Eni", "Tipo impianto": "Altro", "Indirizzo": "VIALE MAGENTA 42 20022", "Nome impianto": "imp.eni perrone nicola", "Comune": "CASTANO PRIMO", "idImpianto": 27877, "points": [{"type": "Feature", "properties": {}, "geometry": {"type": "Point", "coordinates": [8.785637319087982, 45.55032166802932]}}], "price": 2.089, "ultima_rilevazione": "09/07/2022 07:29:50"}, {"Gestore": "PERRONE NICOLA", "Bandiera": "Agip Eni", "Tipo impianto": "Altro", "Indirizzo": "VIALE MAGENTA 42 20022", "Nome impianto": "imp.eni perrone nicola", "Comune": "CASTANO PRIMO", "idImpianto": 27877, "points": [{"type": "Feature", "properties": {}, "geometry": {"type": "Point", "coordinates": [8.785637319087982, 45.55032166802932]}}], "price": 2.169, "ultima_rilevazione": "09/07/2022 07:29:50"}, {"Gestore": "LU.PI. DI LUCA PIVA", "Bandiera": "Agip Eni", "Tipo impianto": "Altro", "Indirizzo": "Via Carlo No\u00e8 48 21013", "Nome impianto": "Eni Station", "Comune": "GALLARATE", "idImpianto": 48492, "points": [{"type": "Feature", "properties": {}, "geometry": {"type": "Point", "coordinates": [8.782354151727843, 45.655678477844525]}}], "price": 2.059, "ultima_rilevazione": "09/07/2022 07:54:43"}, {"Gestore": "LU.PI. DI LUCA PIVA", "Bandiera": "Agip Eni", "Tipo impianto": "Altro", "Indirizzo": "Via Carlo No\u00e8 48 21013", "Nome impianto": "Eni Station", "Comune": "GALLARATE", "idImpianto": 48492, "points": [{"type": "Feature", "properties": {}, "geometry": {"type": "Point", "coordinates": [8.782354151727843, 45.655678477844525]}}], "price": 2.139, "ultima_rilevazione": "09/07/2022 07:54:43"}, {"Gestore": "GESTIONI INNOVATIVE ITALIA S.R.L.", "Bandiera": "Agip Eni", "Tipo impianto": "Altro", "Indirizzo": "VIA IV NOVEMBRE 16, 21012", "Nome impianto": "PV 2828", "Comune": "CASSANO MAGNAGO", "idImpianto": 25391, "points": [{"type": "Feature", "properties": {}, "geometry": {"type": "Point", "coordinates": [8.822863698005676, 45.67164085351821]}}], "price": 2.034, "ultima_rilevazione": "11/07/2022 00:18:05"}, {"Gestore": "COBIDO CAR SERVICE DI DOLCE ANTONINO & C. S.N.C.", "Bandiera": "Agip Eni", "Tipo impianto": "Altro", "Indirizzo": "S.S.SEMPIONE 22 20028", "Nome impianto": "ENI 2261 DI COBIDO CAR   SERVICE", "Comune": "SAN VITTORE OLONA", "idImpianto": 7399, "points": [{"type": "Feature", "properties": {}, "geometry": {"type": "Point", "coordinates": [8.935790061950684, 45.591472259122135]}}], "price": 2.174, "ultima_rilevazione": "11/07/2022 07:43:06"}, {"Gestore": "COBIDO CAR SERVICE DI DOLCE ANTONINO & C. S.N.C.", "Bandiera": "Agip Eni", "Tipo impianto": "Altro", "Indirizzo": "S.S.SEMPIONE 22 20028", "Nome impianto": "ENI 2261 DI COBIDO CAR   SERVICE", "Comune": "SAN VITTORE OLONA", "idImpianto": 7399, "points": [{"type": "Feature", "properties": {}, "geometry": {"type": "Point", "coordinates": [8.935790061950684, 45.591472259122135]}}], "price": 2.074, "ultima_rilevazione": "11/07/2022 07:43:06"}, {"Gestore": "COBIDO CAR SERVICE DI DOLCE ANTONINO & C. S.N.C.", "Bandiera": "Agip Eni", "Tipo impianto": "Altro", "Indirizzo": "VIA LUIGI CADORNA 60 20025", "Nome impianto": "ENI 02308 LEGNANO CO.BI.DO. ", "Comune": "LEGNANO", "idImpianto": 24513, "points": [{"type": "Feature", "properties": {}, "geometry": {"type": "Point", "coordinates": [8.939912617206573, 45.59869121272512]}}], "price": 2.074, "ultima_rilevazione": "11/07/2022 07:43:32"}]}, "Gasolio High Quality": {"1": [{"Gestore": "SOMMESE CARBURANTE S.R.L.", "Bandiera": "Sommese Petroli", "Tipo impianto": "Altro", "Indirizzo": "Via Per Cassano 80 21052", "Nome impianto": "SOMMESE CARBURANTE BUSTO ", "Comune": "BUSTO ARSIZIO", "idImpianto": 39853, "points": [{"type": "Feature", "properties": {}, "geometry": {"type": "Point", "coordinates": [8.846336471163909, 45.636349970305154]}}], "price": 2.079, "ultima_rilevazione": "04/07/2022 07:28:07"}, {"Gestore": "SOMMESE CARBURANTE S.R.L.", "Bandiera": "Sommese Petroli", "Tipo impianto": "Altro", "Indirizzo": "Via Giovanni Amendola 160 21052", "Nome impianto": "BUSTO VIA AMENDOLA", "Comune": "BUSTO ARSIZIO", "idImpianto": 50978, "points": [{"type": "Feature", "properties": {}, "geometry": {"type": "Point", "coordinates": [8.819097709966561, 45.60333064015385]}}], "price": 2.069, "ultima_rilevazione": "11/07/2022 06:08:04"}], "3": [{"Gestore": "BRUSAMOLIN CATIA", "Bandiera": "Esso", "Tipo impianto": "Altro", "Indirizzo": "via giuseppe verdi 49 21017", "Nome impianto": "stazione di servizio Esso", "Comune": "SAMARATE", "idImpianto": 16269, "points": [{"type": "Feature", "properties": {}, "geometry": {"type": "Point", "coordinates": [8.780278166570952, 45.62814871832988]}}], "price": 2.139, "ultima_rilevazione": "09/07/2022 10:38:51"}], "5": [{"Gestore": "SEVERO CARBURANTI DI SEVERO ALESSANDRO", "Bandiera": "Sommese Petroli", "Tipo impianto": "Altro", "Indirizzo": "via gramsci 94 21010", "Nome impianto": "Sommese Petroli", "Comune": "CARDANO AL CAMPO", "idImpianto": 41177, "points": [{"type": "Feature", "properties": {}, "geometry": {"type": "Point", "coordinates": [8.766267714120886, 45.65280249852187]}}], "price": 2.079, "ultima_rilevazione": "09/07/2022 12:59:01"}, {"Gestore": "GAIA S.A.S. DI GAIARIN DAVIDE & C.", "Bandiera": "Sommese Petroli", "Tipo impianto": "Altro", "Indirizzo": "VIA ARMANDO DIAZ 40 21054", "Nome impianto": "Gaia S.a.s.", "Comune": "FAGNANO OLONA", "idImpianto": 36188, "points": [{"type": "Feature", "properties": {}, "geometry": {"type": "Point", "coordinates": [8.867793474204973, 45.66553496346702]}}], "price": 2.079, "ultima_rilevazione": "10/07/2022 18:52:02"}]}, "Benzina": {"1": [{"Gestore": "COVA TIZIANO", "Bandiera": "Api-Ip", "Tipo impianto": "Altro", "Indirizzo": "s.p.128 via Damiano Chiesa 39 20020", "Nome impianto": "Tiziano Cova", "Comune": "DAIRAGO", "idImpianto": 9933, "points": [{"type": "Feature", "properties": {}, "geometry": {"type": "Point", "coordinates": [8.862136602401733, 45.57415304515296]}}], "price": 2.359, "ultima_rilevazione": "10/03/2022 16:46:53"}, {"Gestore": "SOMMESE CARBURANTE S.R.L.", "Bandiera": "Sommese Petroli", "Tipo impianto": "Altro", "Indirizzo": "Via Per Cassano 80 21052", "Nome impianto": "SOMMESE CARBURANTE BUSTO ", "Comune": "BUSTO ARSIZIO", "idImpianto": 39853, "points": [{"type": "Feature", "properties": {}, "geometry": {"type": "Point", "coordinates": [8.846336471163909, 45.636349970305154]}}], "price": 2.019, "ultima_rilevazione": "04/07/2022 07:28:07"}, {"Gestore": "DEDA ASTRIT", "Bandiera": "Agip Eni", "Tipo impianto": "Altro", "Indirizzo": "VIA PER FAGNANO 32 21052", "Nome impianto": "eni 52359", "Comune": "BUSTO ARSIZIO", "idImpianto": 46044, "points": [{"type": "Feature", "properties": {}, "geometry": {"type": "Point", "coordinates": [8.857783000123, 45.626435000123]}}], "price": 2.034, "ultima_rilevazione": "05/07/2022 13:23:26"}, {"Gestore": "F.LLI GADDA S.N.C. DI GIUSEPPE E ANGELO GADDA", "Bandiera": "Sommese Petroli", "Tipo impianto": "Altro", "Indirizzo": "VIA DON MINZONI 32 21053", "Nome impianto": "FLLI GADDA SNC", "Comune": "CASTELLANZA", "idImpianto": 10479, "points": [{"type": "Feature", "properties": {}, "geometry": {"type": "Point", "coordinates": [8.889191312828075, 45.609014872721055]}}], "price": 2.029, "ultima_rilevazione": "06/07/2022 10:20:38"}, {"Gestore": "2-ELLE SNC DI TESCARO LUCA E PAPANDREA LUCA", "Bandiera": "Total Erg", "Tipo impianto": "Altro", "Indirizzo": "VIALE TOSCANA 103 21052", "Nome impianto": "Total erg  2-elle snc", "Comune": "BUSTO ARSIZIO", "idImpianto": 12887, "points": [{"type": "Feature", "properties": {}, "geometry": {"type": "Point", "coordinates": [8.859471538577509, 45.58097631145069]}}], "price": 2.017, "ultima_rilevazione": "06/07/2022 19:00:13"}, {"Gestore": "MA-BO S.N.C. DI BLOISE ANTONIETTA E MAZZUCCHELLI GUIDO", "Bandiera": "Sommese Petroli", "Tipo impianto": "Strada Statale", "Indirizzo": "Statale 527 Bustese, Km. 20, dir. MILANO 21053", "Nome impianto": "MA.BO", "Comune": "CASTELLANZA", "idImpianto": 15625, "points": [{"type": "Feature", "properties": {}, "geometry": {"type": "Point", "coordinates": [8.875574233729594, 45.60463645835393]}}], "price": 2.029, "ultima_rilevazione": "08/07/2022 07:47:17"}, {"Gestore": "GS SPA", "Bandiera": "Tamoil", "Tipo impianto": "Altro", "Indirizzo": "Corso XX settembre 91 21052", "Nome impianto": "Carrefour Tamoil Busto Arsizio", "Comune": "BUSTO ARSIZIO", "idImpianto": 48733, "points": [{"type": "Feature", "properties": {}, "geometry": {"type": "Point", "coordinates": [8.876524726736776, 45.61425777724803]}}], "price": 1.989, "ultima_rilevazione": "08/07/2022 16:15:03"}, {"Gestore": "TOTALERG DI GIUDICE LORENA", "Bandiera": "Api-Ip", "Tipo impianto": "Altro", "Indirizzo": "VIA XX SETTEMBRE 54 21052", "Nome impianto": "TotalErg ", "Comune": "BUSTO ARSIZIO", "idImpianto": 38454, "points": [{"type": "Feature", "properties": {}, "geometry": {"type": "Point", "coordinates": [8.866095088954921, 45.61281552864417]}}], "price": 1.999, "ultima_rilevazione": "08/07/2022 16:48:07"}, {"Gestore": "KEROPETROL S.P.A.", "Bandiera": "KEROPETROL", "Tipo impianto": "Altro", "Indirizzo": "VIALE TOSCANA 140 21052", "Nome impianto": "KEROPETROL SPA BUSTO ARSIZIO", "Comune": "BUSTO ARSIZIO", "idImpianto": 47231, "points": [{"type": "Feature", "properties": {}, "geometry": {"type": "Point", "coordinates": [8.865001201629639, 45.58010593089396]}}], "price": 2.009, "ultima_rilevazione": "08/07/2022 17:52:24"}, {"Gestore": "ESPOSTO FILIPPONE FRANCESCO", "Bandiera": "Pompe Bianche", "Tipo impianto": "Altro", "Indirizzo": "VIALE BOCCACCIO 101 21052", "Nome impianto": "ESPOSTO FILIPPONE FRANCESCO", "Comune": "BUSTO ARSIZIO", "idImpianto": 22654, "points": [{"type": "Feature", "properties": {}, "geometry": {"type": "Point", "coordinates": [8.858603230094104, 45.58908169614077]}}], "price": 2.019, "ultima_rilevazione": "08/07/2022 18:02:01"}, {"Gestore": "LEPRI MARCO", "Bandiera": "Esso", "Tipo impianto": "Strada Statale", "Indirizzo": "Statale 33 del Sempione, Km. 144, dir. NORD 21052", "Nome impianto": "ESSO SEMPIONE", "Comune": "BUSTO ARSIZIO", "idImpianto": 9058, "points": [{"type": "Feature", "properties": {}, "geometry": {"type": "Point", "coordinates": [8.841612339019775, 45.62873718186091]}}], "price": 2.019, "ultima_rilevazione": "08/07/2022 18:19:22"}, {"Gestore": "LEPRI MARCO", "Bandiera": "Esso", "Tipo impianto": "Altro", "Indirizzo": "CORSO ITALIA  21052", "Nome impianto": "ESSO ITALIA", "Comune": "BUSTO ARSIZIO", "idImpianto": 9059, "points": [{"type": "Feature", "properties": {}, "geometry": {"type": "Point", "coordinates": [8.83901059627533, 45.615347715796815]}}], "price": 2.019, "ultima_rilevazione": "08/07/2022 18:20:33"}, {"Gestore": "BOSATELLI BRUNO & C. - S.A.S.", "Bandiera": "Esso", "Tipo impianto": "Altro", "Indirizzo": "VIA PER FAGNANO 24 21052", "Nome impianto": "ESSO", "Comune": "BUSTO ARSIZIO", "idImpianto": 10021, "points": [{"type": "Feature", "properties": {}, "geometry": {"type": "Point", "coordinates": [8.857867866754532, 45.62548446746924]}}], "price": 2.019, "ultima_rilevazione": "08/07/2022 18:32:04"}, {"Gestore": "VINCI S.A.S. DI VINCI SALVATORE & C.", "Bandiera": "Agip Eni", "Tipo impianto": "Altro", "Indirizzo": "via busto fagnano 36 21057", "Nome impianto": "02874 OLGIATE OLONA", "Comune": "OLGIATE OLONA", "idImpianto": 7166, "points": [{"type": "Feature", "properties": {}, "geometry": {"type": "Point", "coordinates": [8.858649730682373, 45.631588145862736]}}], "price": 2.004, "ultima_rilevazione": "09/07/2022 08:32:53"}, {"Gestore": "CEPPI ROBERTO", "Bandiera": "Agip Eni", "Tipo impianto": "Altro", "Indirizzo": "VIALE ARMANDO DIAZ 28 21052", "Nome impianto": "ENI PV 02805", "Comune": "BUSTO ARSIZIO", "idImpianto": 38949, "points": [{"type": "Feature", "properties": {}, "geometry": {"type": "Point", "coordinates": [8.852900235581956, 45.62159883144696]}}], "price": 1.989, "ultima_rilevazione": "09/07/2022 11:23:32"}, {"Gestore": "MARINO ROCCO", "Bandiera": "Api-Ip", "Tipo impianto": "Altro", "Indirizzo": "VIALE BOCCACCIO 42 21052", "Nome impianto": "IP", "Comune": "BUSTO ARSIZIO", "idImpianto": 22418, "points": [{"type": "Feature", "properties": {}, "geometry": {"type": "Point", "coordinates": [8.860757946968079, 45.59867244590827]}}], "price": 2.049, "ultima_rilevazione": "09/07/2022 12:50:01"}, {"Gestore": "IP SERVICES S.R.L.", "Bandiera": "Api-Ip", "Tipo impianto": "Altro", "Indirizzo": "VIA PER FAGNANO 46 21057", "Nome impianto": "OLGIATE OLONA", "Comune": "OLGIATE OLONA", "idImpianto": 27295, "points": [{"type": "Feature", "properties": {}, "geometry": {"type": "Point", "coordinates": [8.85911206994058, 45.63571781676173]}}], "price": 1.999, "ultima_rilevazione": "10/07/2022 09:01:11"}, {"Gestore": "IP SERVICES S.R.L.", "Bandiera": "Api-Ip", "Tipo impianto": "Strada Statale", "Indirizzo": "Statale 336 dell'Aeroporto della Malpensa, Km. KM. 1,850, dir. BUSTO ARSIZIO 21052", "Nome impianto": "BUSTO ARSIZIO", "Comune": "BUSTO ARSIZIO", "idImpianto": 24961, "points": [{"type": "Feature", "properties": {}, "geometry": {"type": "Point", "coordinates": [8.8329019239427, 45.63975625942259]}}], "price": 1.969, "ultima_rilevazione": "10/07/2022 09:02:12"}, {"Gestore": "IP SERVICES S.R.L.", "Bandiera": "Api-Ip", "Tipo impianto": "Altro", "Indirizzo": "VIALE BORRI 14 21052", "Nome impianto": "BUSTO ARSIZIO - BORRI 14", "Comune": "BUSTO ARSIZIO", "idImpianto": 29759, "points": [{"type": "Feature", "properties": {}, "geometry": {"type": "Point", "coordinates": [8.862762449073784, 45.606515011405214]}}], "price": 2.019, "ultima_rilevazione": "10/07/2022 09:02:43"}, {"Gestore": "T.D.M. S.R.L.", "Bandiera": "Tamoil", "Tipo impianto": "Altro", "Indirizzo": "VIA SARDEGNA 51 20020", "Nome impianto": "4047", "Comune": "MAGNAGO", "idImpianto": 43386, "points": [{"type": "Feature", "properties": {}, "geometry": {"type": "Point", "coordinates": [8.826061101079858, 45.57846679322805]}}], "price": 2.009, "ultima_rilevazione": "10/07/2022 11:52:07"}, {"Gestore": "SERVIZI & GESTIONI ITALIA S.R.L.", "Bandiera": "Q8", "Tipo impianto": "Altro", "Indirizzo": "VIALE BOCCACCIO 24 21052", "Nome impianto": "BUSTO ARSIZIO-VIALE BOCCACCIO 24", "Comune": "BUSTO ARSIZIO", "idImpianto": 11920, "points": [{"type": "Feature", "properties": {}, "geometry": {"type": "Point", "coordinates": [8.861526822090127, 45.60159704228577]}}], "price": 1.989, "ultima_rilevazione": "11/07/2022 00:35:19"}, {"Gestore": "SERVIZI & GESTIONI ITALIA S.R.L.", "Bandiera": "Q8", "Tipo impianto": "Altro", "Indirizzo": "CORSO ITALIA 23 21052", "Nome impianto": "BUSTO ARSIZIO-CORSO ITALIA 23", "Comune": "BUSTO ARSIZIO", "idImpianto": 11922, "points": [{"type": "Feature", "properties": {}, "geometry": {"type": "Point", "coordinates": [8.846762449073822, 45.62081875947187]}}], "price": 1.999, "ultima_rilevazione": "11/07/2022 00:35:19"}, {"Gestore": "SERVIZI & GESTIONI ITALIA srl", "Bandiera": "Q8", "Tipo impianto": "Altro", "Indirizzo": "V.LE RIMEMBRANZE 53 21052", "Nome impianto": "BUSTO ARSIZIO V.LE RIMEMBRANZE  53", "Comune": "BUSTO ARSIZIO", "idImpianto": 6459, "points": [{"type": "Feature", "properties": {}, "geometry": {"type": "Point", "coordinates": [8.833518582942133, 45.60909492679454]}}], "price": 1.999, "ultima_rilevazione": "11/07/2022 00:35:20"}, {"Gestore": "SERVIZI & GESTIONI ITALIA S.R.L.", "Bandiera": "Q8", "Tipo impianto": "Altro", "Indirizzo": "VIALE MALPENSA 19 21052", "Nome impianto": "BUSTO ARSIZIO VIALE MALPENSA 19", "Comune": "BUSTO ARSIZIO", "idImpianto": 23156, "points": [{"type": "Feature", "properties": {}, "geometry": {"type": "Point", "coordinates": [8.849781362951717, 45.63720059681254]}}], "price": 1.989, "ultima_rilevazione": "11/07/2022 00:35:22"}, {"Gestore": "SOMMESE CARBURANTE S.R.L.", "Bandiera": "Sommese Petroli", "Tipo impianto": "Altro", "Indirizzo": "Via Giovanni Amendola 160 21052", "Nome impianto": "BUSTO VIA AMENDOLA", "Comune": "BUSTO ARSIZIO", "idImpianto": 50978, "points": [{"type": "Feature", "properties": {}, "geometry": {"type": "Point", "coordinates": [8.819097709966561, 45.60333064015385]}}], "price": 1.979, "ultima_rilevazione": "11/07/2022 06:08:04"}, {"Gestore": "ENI FUEL S.P.A.", "Bandiera": "Agip Eni", "Tipo impianto": "Altro", "Indirizzo": "VIA XX SETTEMBRE, 60  21052", "Nome impianto": "2807 \u2013 Busto Arsizio", "Comune": "BUSTO ARSIZIO", "idImpianto": 49792, "points": [{"type": "Feature", "properties": {}, "geometry": {"type": "Point", "coordinates": [8.867198119656962, 45.61297865138692]}}], "price": 1.994, "ultima_rilevazione": "11/07/2022 07:14:03"}, {"Gestore": "IAMETTI S.A.S. DI IAMETTI DANILO E MARCO", "Bandiera": "Agip Eni", "Tipo impianto": "Altro", "Indirizzo": "VIALE PIRANDELLO 2 21052", "Nome impianto": "IAMETTI SAS", "Comune": "BUSTO ARSIZIO", "idImpianto": 14390, "points": [{"type": "Feature", "properties": {}, "geometry": {"type": "Point", "coordinates": [8.847196151520507, 45.60283165537623]}}], "price": 1.994, "ultima_rilevazione": "11/07/2022 07:15:11"}, {"Gestore": "KANT S.A.S. DI MASATO CHRISTIAN & C.", "Bandiera": "Tamoil", "Tipo impianto": "Altro", "Indirizzo": "VIA CASSANO MAGNAGO 60BIS 21052", "Nome impianto": "KANT SAS di Masato Christian", "Comune": "BUSTO ARSIZIO", "idImpianto": 14992, "points": [{"type": "Feature", "properties": {}, "geometry": {"type": "Point", "coordinates": [8.847899436950684, 45.63089004819352]}}], "price": 2.009, "ultima_rilevazione": "11/07/2022 07:18:06"}], "3": [{"Gestore": "PARIANI MARIA CLOTILDE", "Bandiera": "Pompe Bianche", "Tipo impianto": "Altro", "Indirizzo": "VIA ARMANDO DIAZ 73 20020", "Nome impianto": "MI367", "Comune": "MAGNAGO", "idImpianto": 44655, "points": [{"type": "Feature", "properties": {}, "geometry": {"type": "Point", "coordinates": [8.810134627447951, 45.57763022869528]}}], "price": 1.879, "ultima_rilevazione": "02/11/2021 16:56:04"}, {"Gestore": "BROMAR S.N.C. DI BROCCOLO SONIA E C.", "Bandiera": "Q8", "Tipo impianto": "Altro", "Indirizzo": "VIA TORINO, ANGOLO VIA CHECCHI 82 21013", "Nome impianto": "BROMAR S.N.C.", "Comune": "GALLARATE", "idImpianto": 10555, "points": [{"type": "Feature", "properties": {}, "geometry": {"type": "Point", "coordinates": [8.792936000123, 45.644901000123]}}], "price": 2.014, "ultima_rilevazione": "08/07/2022 08:57:03"}, {"Gestore": "PREALPINA DISTRIBUZIONE CARBURANTI S.R.L.", "Bandiera": "Pompe Bianche", "Tipo impianto": "Altro", "Indirizzo": "VIA DIAZ 71 21050", "Nome impianto": "PREALPINA DISTRIBUZIONE CARBURANTI SRL", "Comune": "MARNATE", "idImpianto": 41798, "points": [{"type": "Feature", "properties": {}, "geometry": {"type": "Point", "coordinates": [8.89830759814754, 45.631638269104215]}}], "price": 1.989, "ultima_rilevazione": "08/07/2022 10:51:33"}, {"Gestore": "AMBROGIO MORO S.P.A.", "Bandiera": "Moro", "Tipo impianto": "Altro", "Indirizzo": "VIA DE GASPERI 15 21057", "Nome impianto": "Moro_Olgiate Olona", "Comune": "OLGIATE OLONA", "idImpianto": 29418, "points": [{"type": "Feature", "properties": {}, "geometry": {"type": "Point", "coordinates": [8.886073544774604, 45.62942081847766]}}], "price": 1.969, "ultima_rilevazione": "08/07/2022 12:34:49"}, {"Gestore": "RIALTO S.P.A.", "Bandiera": "Pompe Bianche", "Tipo impianto": "Altro", "Indirizzo": "VIA PER BUSTO ARSIZIO 33 20025", "Nome impianto": "IL GIGANTE SELF 24H", "Comune": "LEGNANO", "idImpianto": 43583, "points": [{"type": "Feature", "properties": {}, "geometry": {"type": "Point", "coordinates": [8.901840000123, 45.605103000123]}}], "price": 1.949, "ultima_rilevazione": "08/07/2022 13:04:33"}, {"Gestore": "BEMA SAS DI ANDREA BERTOLASO & C.", "Bandiera": "Agip Eni", "Tipo impianto": "Altro", "Indirizzo": "VIA BONICALZA 127 21012", "Nome impianto": "Eni 02862 Cassano Magnago", "Comune": "CASSANO MAGNAGO", "idImpianto": 45389, "points": [{"type": "Feature", "properties": {}, "geometry": {"type": "Point", "coordinates": [8.843454000123, 45.660386000123]}}], "price": 1.989, "ultima_rilevazione": "08/07/2022 15:33:52"}, {"Gestore": "ACEZ SAS DI ZUCCALA' CLEMENTE & C.", "Bandiera": "Esso", "Tipo impianto": "Altro", "Indirizzo": "Via Magenta  29 20010", "Nome impianto": "ESSO", "Comune": "SAN GIORGIO SU LEGNANO", "idImpianto": 49616, "points": [{"type": "Feature", "properties": {}, "geometry": {"type": "Point", "coordinates": [8.901193176236326, 45.5710689638264]}}], "price": 1.999, "ultima_rilevazione": "09/07/2022 08:05:51"}, {"Gestore": "VINCI S.A.S. DI VINCI SALVATORE & C.", "Bandiera": "Agip Eni", "Tipo impianto": "Altro", "Indirizzo": "VIA NOVARA ANG. VIA SABOTINO  20025", "Nome impianto": "IMP. ENI LEGNANO VINCI SAS", "Comune": "LEGNANO", "idImpianto": 7946, "points": [{"type": "Feature", "properties": {}, "geometry": {"type": "Point", "coordinates": [8.899647295475006, 45.5907244858852]}}], "price": 2.089, "ultima_rilevazione": "09/07/2022 08:33:42"}, {"Gestore": "DE NIGRIS ANTONIO", "Bandiera": "Pompe Bianche", "Tipo impianto": "Altro", "Indirizzo": "VIA PIETRO MICCA 13 20020", "Nome impianto": "Occhio al prezzo", "Comune": "VILLA CORTESE", "idImpianto": 10058, "points": [{"type": "Feature", "properties": {}, "geometry": {"type": "Point", "coordinates": [8.889665101852415, 45.56317248850171]}}], "price": 2.009, "ultima_rilevazione": "09/07/2022 09:53:26"}, {"Gestore": "BRUSAMOLIN CATIA", "Bandiera": "Esso", "Tipo impianto": "Altro", "Indirizzo": "via giuseppe verdi 49 21017", "Nome impianto": "stazione di servizio Esso", "Comune": "SAMARATE", "idImpianto": 16269, "points": [{"type": "Feature", "properties": {}, "geometry": {"type": "Point", "coordinates": [8.780278166570952, 45.62814871832988]}}], "price": 2.079, "ultima_rilevazione": "09/07/2022 10:38:51"}, {"Gestore": "RAIMONDI MAURO", "Bandiera": "Agip Eni", "Tipo impianto": "Altro", "Indirizzo": "VIA ARMANDO DIAZ 1 21057", "Nome impianto": "RAIMONDI MAURO", "Comune": "OLGIATE OLONA", "idImpianto": 14944, "points": [{"type": "Feature", "properties": {}, "geometry": {"type": "Point", "coordinates": [8.888167440891266, 45.63324351402306]}}], "price": 2.004, "ultima_rilevazione": "09/07/2022 14:19:29"}, {"Gestore": "BUSELLATO MASSIMO", "Bandiera": "Agip Eni", "Tipo impianto": "Altro", "Indirizzo": "VIA AMBROSOLI ANG. VIA MILANO 15 21013", "Nome impianto": "ENI BUSELLATO", "Comune": "GALLARATE", "idImpianto": 40509, "points": [{"type": "Feature", "properties": {}, "geometry": {"type": "Point", "coordinates": [8.807483911514282, 45.65049049417369]}}], "price": 1.994, "ultima_rilevazione": "09/07/2022 19:34:52"}, {"Gestore": "IP SERVICES S.R.L.", "Bandiera": "Api-Ip", "Tipo impianto": "Altro", "Indirizzo": "Via Milano KM 27+576  21053", "Nome impianto": "CASTELLANZA", "Comune": "CASTELLANZA", "idImpianto": 5552, "points": [{"type": "Feature", "properties": {}, "geometry": {"type": "Point", "coordinates": [8.910448635581929, 45.60705975281448]}}], "price": 1.989, "ultima_rilevazione": "10/07/2022 09:03:40"}, {"Gestore": "ENI FUEL S.P.A.", "Bandiera": "Agip Eni", "Tipo impianto": "Altro", "Indirizzo": "Via Don Minzoni 52 21053", "Nome impianto": "PV 2906 Castellanza", "Comune": "CASTELLANZA", "idImpianto": 39454, "points": [{"type": "Feature", "properties": {}, "geometry": {"type": "Point", "coordinates": [8.892793580889702, 45.60381865060999]}}], "price": 2.004, "ultima_rilevazione": "10/07/2022 09:04:09"}, {"Gestore": "IP SERVICES S.R.L.", "Bandiera": "Api-Ip", "Tipo impianto": "Altro", "Indirizzo": "Via per Busto   21058", "Nome impianto": "SOLBIATE OLONA", "Comune": "SOLBIATE OLONA", "idImpianto": 10096, "points": [{"type": "Feature", "properties": {}, "geometry": {"type": "Point", "coordinates": [8.865092396736145, 45.64576541117171]}}], "price": 1.999, "ultima_rilevazione": "10/07/2022 09:04:13"}, {"Gestore": "IP SERVICES S.R.L.", "Bandiera": "Api-Ip", "Tipo impianto": "Altro", "Indirizzo": "Via Torino   21013", "Nome impianto": "Gallarate via Torino", "Comune": "GALLARATE", "idImpianto": 10130, "points": [{"type": "Feature", "properties": {}, "geometry": {"type": "Point", "coordinates": [8.79481032023773, 45.65067258728234]}}], "price": 1.989, "ultima_rilevazione": "10/07/2022 09:04:23"}, {"Gestore": "T.D.M. S.R.L.", "Bandiera": "Tamoil", "Tipo impianto": "Altro", "Indirizzo": "VIALE SABOTINO 156 20025", "Nome impianto": "8047", "Comune": "LEGNANO", "idImpianto": 48141, "points": [{"type": "Feature", "properties": {}, "geometry": {"type": "Point", "coordinates": [8.899011605522528, 45.59298829308605]}}], "price": 1.999, "ultima_rilevazione": "10/07/2022 12:12:09"}, {"Gestore": "VARGAS SRL", "Bandiera": "Pompe Bianche", "Tipo impianto": "Altro", "Indirizzo": "VIA OLONA 181 21013", "Nome impianto": "vargas s.r.l.", "Comune": "GALLARATE", "idImpianto": 4135, "points": [{"type": "Feature", "properties": {}, "geometry": {"type": "Point", "coordinates": [8.816686804893493, 45.64914025334275]}}], "price": 1.979, "ultima_rilevazione": "11/07/2022 00:16:04"}, {"Gestore": "GESTIONI INNOVATIVE ITALIA S.R.L.", "Bandiera": "Agip Eni", "Tipo impianto": "Altro", "Indirizzo": "VIALE LOMBARDIA 72 21053", "Nome impianto": "PV 2857", "Comune": "CASTELLANZA", "idImpianto": 25132, "points": [{"type": "Feature", "properties": {}, "geometry": {"type": "Point", "coordinates": [8.910047560930252, 45.61004458384013]}}], "price": 2.004, "ultima_rilevazione": "11/07/2022 00:20:04"}, {"Gestore": "SERVIZI & GESTIONI ITALIA S.R.L.", "Bandiera": "Q8", "Tipo impianto": "Altro", "Indirizzo": "VIA SABOTINO 75 20025", "Nome impianto": "LEGNANO-VIA SABOTINO 75", "Comune": "LEGNANO", "idImpianto": 11683, "points": [{"type": "Feature", "properties": {}, "geometry": {"type": "Point", "coordinates": [8.90271335449222, 45.58602158677832]}}], "price": 1.999, "ultima_rilevazione": "11/07/2022 00:35:00"}, {"Gestore": "SERVIZI & GESTIONI ITALIA S.R.L.", "Bandiera": "Q8", "Tipo impianto": "Altro", "Indirizzo": "VIA XX SETTEMBRE 84 20025", "Nome impianto": "LEGNANO-VIA XX SETTEMBRE 84", "Comune": "LEGNANO", "idImpianto": 11691, "points": [{"type": "Feature", "properties": {}, "geometry": {"type": "Point", "coordinates": [8.910728746032646, 45.58447337466343]}}], "price": 1.999, "ultima_rilevazione": "11/07/2022 00:35:01"}, {"Gestore": "SERVIZI & GESTIONI ITALIA srl", "Bandiera": "Q8", "Tipo impianto": "Altro", "Indirizzo": "VIALE LOMBARDIA 27 21053", "Nome impianto": "CASTELLANZA VIALE LOMBARDIA 27", "Comune": "CASTELLANZA", "idImpianto": 6460, "points": [{"type": "Feature", "properties": {}, "geometry": {"type": "Point", "coordinates": [8.904368128241686, 45.61509008291705]}}], "price": 1.984, "ultima_rilevazione": "11/07/2022 00:35:22"}, {"Gestore": "SOMMESE CARBURANTE S.R.L.", "Bandiera": "Sommese Petroli", "Tipo impianto": "Altro", "Indirizzo": "VIALE MILANO 33 21013", "Nome impianto": "SOMMESE CARBURANTE VIALE MILANO", "Comune": "GALLARATE", "idImpianto": 34333, "points": [{"type": "Feature", "properties": {}, "geometry": {"type": "Point", "coordinates": [8.801605022186209, 45.655140743708245]}}], "price": 1.979, "ultima_rilevazione": "11/07/2022 06:04:10"}, {"Gestore": "SOMMESE CARBURANTE S.R.L.", "Bandiera": "Retitalia", "Tipo impianto": "Altro", "Indirizzo": "VIA ALCIDE DE GASPERI  126 21057", "Nome impianto": "SOMMESE CARBURANTE OLGIATE", "Comune": "OLGIATE OLONA", "idImpianto": 34089, "points": [{"type": "Feature", "properties": {}, "geometry": {"type": "Point", "coordinates": [8.88465194543835, 45.63889968669999]}}], "price": 1.979, "ultima_rilevazione": "11/07/2022 06:08:04"}, {"Gestore": "C.R. S.N.C. DI CANDIANI SIMONE  &  RAVASI PAOLO", "Bandiera": "Agip Eni", "Tipo impianto": "Altro", "Indirizzo": "VIA TORINO 76 21013", "Nome impianto": "crsnc", "Comune": "GALLARATE", "idImpianto": 10817, "points": [{"type": "Feature", "properties": {}, "geometry": {"type": "Point", "coordinates": [8.793311690807286, 45.64576312759459]}}], "price": 1.994, "ultima_rilevazione": "11/07/2022 06:25:38"}, {"Gestore": "ELLEPI SERVICE DI LUCA PULVIRENTI", "Bandiera": "Agip Eni", "Tipo impianto": "Altro", "Indirizzo": "via ercole ferrario 1 21013", "Nome impianto": "02908", "Comune": "GALLARATE", "idImpianto": 28790, "points": [{"type": "Feature", "properties": {}, "geometry": {"type": "Point", "coordinates": [8.792808172521973, 45.65281493830711]}}], "price": 1.989, "ultima_rilevazione": "11/07/2022 06:46:21"}, {"Gestore": "SOMMESE CARBURANTE S.R.L.", "Bandiera": "Sommese Petroli", "Tipo impianto": "Altro", "Indirizzo": "VIA CIRCONVALLAZIONE SUD  20020", "Nome impianto": "SOMMESE CARBURANTE MAGNAGO", "Comune": "MAGNAGO", "idImpianto": 13607, "points": [{"type": "Feature", "properties": {}, "geometry": {"type": "Point", "coordinates": [8.806335926055908, 45.57064950675351]}}], "price": 2.019, "ultima_rilevazione": "11/07/2022 07:32:04"}], "5": [{"Gestore": "VELE S.A.S. DI VERDUCI ANTONINO & CC", "Bandiera": "Agip Eni", "Tipo impianto": "Altro", "Indirizzo": "VIA SARONNESE 51 20027", "Nome impianto": "Vele sas di Verduci Antonino & c", "Comune": "RESCALDINA", "idImpianto": 11118, "points": [{"type": "Feature", "properties": {}, "geometry": {"type": "Point", "coordinates": [8.940021041264345, 45.61118996647434]}}], "price": 2.059, "ultima_rilevazione": "04/07/2022 10:09:27"}, {"Gestore": "FUMAGALLI & MORANDI S.N.C DI FUMAGALLI ANTONELLA & C.", "Bandiera": "Sommese Petroli", "Tipo impianto": "Altro", "Indirizzo": "VIA GIUSEPPE GARIBALDI 83 21055", "Nome impianto": "FUMAGALLI & MORANDI", "Comune": "GORLA MINORE", "idImpianto": 19217, "points": [{"type": "Feature", "properties": {}, "geometry": {"type": "Point", "coordinates": [8.896482135582005, 45.65115185264066]}}], "price": 2.049, "ultima_rilevazione": "05/07/2022 15:04:50"}, {"Gestore": "STAZ. DI SERV. FINA \"A. BRUSATORI\" DI PASQUATO FRANCO", "Bandiera": "Pompe Bianche", "Tipo impianto": "Altro", "Indirizzo": "VIA FRANCESCO BARACCA 14 21015", "Nome impianto": "A.BRUSATORI", "Comune": "LONATE POZZOLO", "idImpianto": 7787, "points": [{"type": "Feature", "properties": {}, "geometry": {"type": "Point", "coordinates": [8.76099399140162, 45.58509993464472]}}], "price": 2.059, "ultima_rilevazione": "05/07/2022 18:02:59"}, {"Gestore": "CORNAREDO CARBURANTI S.R.L.", "Bandiera": "Repsol", "Tipo impianto": "Altro", "Indirizzo": "STRADA PROVINCIALE 109 KM. 3,044  20020", "Nome impianto": "CORNAREDO CARBURANTI S.R.L. - BUSTO G.", "Comune": "BUSTO GAROLFO", "idImpianto": 31151, "points": [{"type": "Feature", "properties": {}, "geometry": {"type": "Point", "coordinates": [8.909874558448792, 45.54602244098786]}}], "price": 2.039, "ultima_rilevazione": "06/07/2022 10:20:23"}, {"Gestore": "LO TURCO BRUNO", "Bandiera": "Pompe Bianche", "Tipo impianto": "Altro", "Indirizzo": "Via.C.Noe 43 21013", "Nome impianto": "Distributore Lo Turco Bruno", "Comune": "GALLARATE", "idImpianto": 17205, "points": [{"type": "Feature", "properties": {}, "geometry": {"type": "Point", "coordinates": [8.782966448561638, 45.658904859555896]}}], "price": 2.019, "ultima_rilevazione": "06/07/2022 20:36:54"}, {"Gestore": "PARIANI STEFANO", "Bandiera": "Esso", "Tipo impianto": "Altro", "Indirizzo": "via Tadini 71 20022", "Nome impianto": "ESSO - CASTANO PRIMO", "Comune": "CASTANO PRIMO", "idImpianto": 25858, "points": [{"type": "Feature", "properties": {}, "geometry": {"type": "Point", "coordinates": [8.78672739510148, 45.55025713160988]}}], "price": 2.039, "ultima_rilevazione": "07/07/2022 08:17:01"}, {"Gestore": "PARIANI STEFANO", "Bandiera": "Esso", "Tipo impianto": "Altro", "Indirizzo": "via Milano 04 20020", "Nome impianto": "ESSO - VANZAGHELLO", "Comune": "VANZAGHELLO", "idImpianto": 47513, "points": [{"type": "Feature", "properties": {}, "geometry": {"type": "Point", "coordinates": [8.778483867645264, 45.57989379462136]}}], "price": 2.059, "ultima_rilevazione": "07/07/2022 08:25:58"}, {"Gestore": "ELDAGAS - S.R.L.", "Bandiera": "Pompe Bianche", "Tipo impianto": "Altro", "Indirizzo": "VIA MONTE ROSA 85 21050", "Nome impianto": "ELDA GAS 1", "Comune": "CAIRATE", "idImpianto": 47651, "points": [{"type": "Feature", "properties": {}, "geometry": {"type": "Point", "coordinates": [8.85530563558198, 45.68314771128692]}}], "price": 1.999, "ultima_rilevazione": "07/07/2022 15:35:17"}, {"Gestore": "SERVIZI E GESTIONI ZENIT S.R.L. IN SIGLA - ZENIT S.R.L.", "Bandiera": "Esso", "Tipo impianto": "Altro", "Indirizzo": "VIA LEGNANO  20020", "Nome impianto": "VIA LEGNANO - BUSTO GAROLFO", "Comune": "BUSTO GAROLFO", "idImpianto": 35052, "points": [{"type": "Feature", "properties": {}, "geometry": {"type": "Point", "coordinates": [8.886666744947433, 45.55319164356803]}}], "price": 2.009, "ultima_rilevazione": "08/07/2022 09:01:21"}, {"Gestore": "AMBROGIO MORO S.P.A.", "Bandiera": "Moro", "Tipo impianto": "Altro", "Indirizzo": "VIALE PIETRO TOSELLI 36 20025", "Nome impianto": "Moro_Legnano Pietro Toselli 36", "Comune": "LEGNANO", "idImpianto": 12752, "points": [{"type": "Feature", "properties": {}, "geometry": {"type": "Point", "coordinates": [8.928309175393679, 45.588954267111305]}}], "price": 1.969, "ultima_rilevazione": "08/07/2022 09:57:20"}, {"Gestore": "COZZI ANDREA", "Bandiera": "Agip Eni", "Tipo impianto": "Altro", "Indirizzo": "VIA VARESE 14 21013", "Nome impianto": "ENI", "Comune": "GALLARATE", "idImpianto": 28889, "points": [{"type": "Feature", "properties": {}, "geometry": {"type": "Point", "coordinates": [8.797299733729574, 45.67431099042725]}}], "price": 1.989, "ultima_rilevazione": "09/07/2022 06:47:05"}, {"Gestore": "PERRONE NICOLA", "Bandiera": "Agip Eni", "Tipo impianto": "Altro", "Indirizzo": "VIALE MAGENTA 42 20022", "Nome impianto": "imp.eni perrone nicola", "Comune": "CASTANO PRIMO", "idImpianto": 27877, "points": [{"type": "Feature", "properties": {}, "geometry": {"type": "Point", "coordinates": [8.785637319087982, 45.55032166802932]}}], "price": 2.019, "ultima_rilevazione": "09/07/2022 07:29:50"}, {"Gestore": "LU.PI. DI LUCA PIVA", "Bandiera": "Agip Eni", "Tipo impianto": "Altro", "Indirizzo": "Via Carlo No\u00e8 48 21013", "Nome impianto": "Eni Station", "Comune": "GALLARATE", "idImpianto": 48492, "points": [{"type": "Feature", "properties": {}, "geometry": {"type": "Point", "coordinates": [8.782354151727843, 45.655678477844525]}}], "price": 1.989, "ultima_rilevazione": "09/07/2022 07:54:43"}, {"Gestore": "SEVERO CARBURANTI DI SEVERO ALESSANDRO", "Bandiera": "Sommese Petroli", "Tipo impianto": "Altro", "Indirizzo": "via gramsci 94 21010", "Nome impianto": "Sommese Petroli", "Comune": "CARDANO AL CAMPO", "idImpianto": 41177, "points": [{"type": "Feature", "properties": {}, "geometry": {"type": "Point", "coordinates": [8.766267714120886, 45.65280249852187]}}], "price": 1.999, "ultima_rilevazione": "09/07/2022 12:59:01"}, {"Gestore": "COOP LOMBARDIA SOCIETA' COOPERATIVA", "Bandiera": "Enercoop", "Tipo impianto": "Altro", "Indirizzo": "VIA ARCONATE 120 20020", "Nome impianto": "enercoop", "Comune": "BUSTO GAROLFO", "idImpianto": 48469, "points": [{"type": "Feature", "properties": {}, "geometry": {"type": "Point", "coordinates": [8.86991526391933, 45.54726255274761]}}], "price": 1.949, "ultima_rilevazione": "09/07/2022 13:08:12"}, {"Gestore": "IP SERVICES S.R.L.", "Bandiera": "Api-Ip", "Tipo impianto": "Altro", "Indirizzo": "S.P. 12 VIA COMO  21050", "Nome impianto": "CAIRATE - BOLLADELLO", "Comune": "CAIRATE", "idImpianto": 36260, "points": [{"type": "Feature", "properties": {}, "geometry": {"type": "Point", "coordinates": [8.844366107969336, 45.68073092003936]}}], "price": 1.989, "ultima_rilevazione": "10/07/2022 09:01:01"}, {"Gestore": "IP SERVICES S.R.L.", "Bandiera": "Api-Ip", "Tipo impianto": "Altro", "Indirizzo": "VIA CARLO NOE' 35  21013", "Nome impianto": "GALLARATE  - CARLO NOE' 35", "Comune": "GALLARATE", "idImpianto": 24620, "points": [{"type": "Feature", "properties": {}, "geometry": {"type": "Point", "coordinates": [8.783059766864653, 45.66112624437493]}}], "price": 1.989, "ultima_rilevazione": "10/07/2022 09:01:14"}, {"Gestore": "IP SERVICES S.R.L.", "Bandiera": "Api-Ip", "Tipo impianto": "Altro", "Indirizzo": "via Sanzio 15 21013", "Nome impianto": "Gallarate Sanzio", "Comune": "GALLARATE", "idImpianto": 38380, "points": [{"type": "Feature", "properties": {}, "geometry": {"type": "Point", "coordinates": [8.795668647815774, 45.66804046676662]}}], "price": 2.019, "ultima_rilevazione": "10/07/2022 09:03:10"}, {"Gestore": "IP SERVICES S.R.L.", "Bandiera": "Api-Ip", "Tipo impianto": "Altro", "Indirizzo": "SP34 per Turbigo  20020", "Nome impianto": "ARCONATE", "Comune": "ARCONATE", "idImpianto": 28342, "points": [{"type": "Feature", "properties": {}, "geometry": {"type": "Point", "coordinates": [8.831147700548172, 45.53196068818416]}}], "price": 1.959, "ultima_rilevazione": "10/07/2022 09:03:52"}, {"Gestore": "IP SERVICES S.R.L.", "Bandiera": "Api-Ip", "Tipo impianto": "Altro", "Indirizzo": "via Cadorna 34/A 20125", "Nome impianto": "LEGNANO", "Comune": "LEGNANO", "idImpianto": 5530, "points": [{"type": "Feature", "properties": {}, "geometry": {"type": "Point", "coordinates": [8.9372739370084, 45.59658459985469]}}], "price": 1.969, "ultima_rilevazione": "10/07/2022 09:04:00"}, {"Gestore": "IP SERVICES S.R.L.", "Bandiera": "Api-Ip", "Tipo impianto": "Altro", "Indirizzo": "Via fratelli Bandiera  ", "Nome impianto": "Canegrate", "Comune": "CANEGRATE", "idImpianto": 10086, "points": [{"type": "Feature", "properties": {}, "geometry": {"type": "Point", "coordinates": [8.933268785476685, 45.56434859566271]}}], "price": 1.999, "ultima_rilevazione": "10/07/2022 09:04:11"}, {"Gestore": "IP SERVICES S.R.L.", "Bandiera": "Api-Ip", "Tipo impianto": "Altro", "Indirizzo": "S.P. 527   21015", "Nome impianto": "Lonate Pozzolo", "Comune": "LONATE POZZOLO", "idImpianto": 10115, "points": [{"type": "Feature", "properties": {}, "geometry": {"type": "Point", "coordinates": [8.770669251680374, 45.59395294080901]}}], "price": 1.989, "ultima_rilevazione": "10/07/2022 09:04:35"}, {"Gestore": "T.D.M. S.R.L.", "Bandiera": "Tamoil", "Tipo impianto": "Altro", "Indirizzo": "CORSO SEMPIONE 85 20025", "Nome impianto": "8048", "Comune": "LEGNANO", "idImpianto": 41667, "points": [{"type": "Feature", "properties": {}, "geometry": {"type": "Point", "coordinates": [8.926056991163932, 45.59534201762624]}}], "price": 1.999, "ultima_rilevazione": "10/07/2022 12:16:08"}, {"Gestore": "DISTRIBUTORE TAMOIL DI CARNOVALI CRISTIAN", "Bandiera": "Tamoil", "Tipo impianto": "Altro", "Indirizzo": "VIALE LOMBARDIA 70 20027", "Nome impianto": "distributore tamoil", "Comune": "RESCALDINA", "idImpianto": 34589, "points": [{"type": "Feature", "properties": {}, "geometry": {"type": "Point", "coordinates": [8.938750550150871, 45.62785823041314]}}], "price": 2.049, "ultima_rilevazione": "11/07/2022 07:42:11"}, {"Gestore": "GAIA S.A.S. DI GAIARIN DAVIDE & C.", "Bandiera": "Sommese Petroli", "Tipo impianto": "Altro", "Indirizzo": "VIA ARMANDO DIAZ 40 21054", "Nome impianto": "Gaia S.a.s.", "Comune": "FAGNANO OLONA", "idImpianto": 36188, "points": [{"type": "Feature", "properties": {}, "geometry": {"type": "Point", "coordinates": [8.867793474204973, 45.66553496346702]}}], "price": 1.999, "ultima_rilevazione": "10/07/2022 18:52:02"}, {"Gestore": "AUTOGAS S.R.L.", "Bandiera": "Pompe Bianche", "Tipo impianto": "Altro", "Indirizzo": "VIA PER VANZAGHELLO  20022", "Nome impianto": "AUTOGAS S.R.L.", "Comune": "CASTANO PRIMO", "idImpianto": 13995, "points": [{"type": "Feature", "properties": {}, "geometry": {"type": "Point", "coordinates": [8.782466247958899, 45.56519425919456]}}], "price": 2.019, "ultima_rilevazione": "11/07/2022 07:52:08"}, {"Gestore": "GESTIONI INNOVATIVE ITALIA S.R.L.", "Bandiera": "Agip Eni", "Tipo impianto": "Altro", "Indirizzo": "VIA IV NOVEMBRE 16, 21012", "Nome impianto": "PV 2828", "Comune": "CASSANO MAGNAGO", "idImpianto": 25391, "points": [{"type": "Feature", "properties": {}, "geometry": {"type": "Point", "coordinates": [8.822863698005676, 45.67164085351821]}}], "price": 1.994, "ultima_rilevazione": "11/07/2022 00:18:05"}, {"Gestore": "SERVIZI & GESTIONI ITALIA S.R.L.", "Bandiera": "Q8", "Tipo impianto": "Altro", "Indirizzo": "VIA PER TURBIGO S/N 20010", "Nome impianto": "BUSCATE-PER TURBIGO", "Comune": "BUSCATE", "idImpianto": 11668, "points": [{"type": "Feature", "properties": {}, "geometry": {"type": "Point", "coordinates": [8.802199592590341, 45.54492022314928]}}], "price": 2.029, "ultima_rilevazione": "11/07/2022 00:34:54"}, {"Gestore": "SERVIZI & GESTIONI ITALIA S.R.L.", "Bandiera": "Q8", "Tipo impianto": "Altro", "Indirizzo": "CORSO SEMPIONE  ANG.VIA VOLTA 160 20025", "Nome impianto": "LEGNANO-CORSO SEMPIONE 160 ANG.VIA VOLTA", "Comune": "LEGNANO", "idImpianto": 11657, "points": [{"type": "Feature", "properties": {}, "geometry": {"type": "Point", "coordinates": [8.918259766864821, 45.60017318891127]}}], "price": 1.999, "ultima_rilevazione": "11/07/2022 00:34:59"}, {"Gestore": "SERVIZI & GESTIONI ITALIA S.R.L.", "Bandiera": "Q8", "Tipo impianto": "Altro", "Indirizzo": "VIALE CADORNA 58 20025", "Nome impianto": "LEGNANO-VIALE CADORNA 58", "Comune": "LEGNANO", "idImpianto": 11673, "points": [{"type": "Feature", "properties": {}, "geometry": {"type": "Point", "coordinates": [8.93926352262497, 45.59818863369359]}}], "price": 1.999, "ultima_rilevazione": "11/07/2022 00:35:00"}, {"Gestore": "SERVIZI & GESTIONI ITALIA S.R.L.", "Bandiera": "Q8", "Tipo impianto": "Altro", "Indirizzo": "VIA TOSELLI ANG. REPUBBLICA S/N 20025", "Nome impianto": "LEGNANO-VIA TOSELLI ANG. REPUBBLICA", "Comune": "LEGNANO", "idImpianto": 11690, "points": [{"type": "Feature", "properties": {}, "geometry": {"type": "Point", "coordinates": [8.926532944774635, 45.58783190986353]}}], "price": 1.979, "ultima_rilevazione": "11/07/2022 00:35:00"}, {"Gestore": "SERVIZI & GESTIONI ITALIA srl", "Bandiera": "Q8", "Tipo impianto": "Altro", "Indirizzo": "VIA C. NOE' 79 21013", "Nome impianto": "GALLARATE VIA C. NOE' 79", "Comune": "GALLARATE", "idImpianto": 6458, "points": [{"type": "Feature", "properties": {}, "geometry": {"type": "Point", "coordinates": [8.782875680950951, 45.655528206039214]}}], "price": 1.999, "ultima_rilevazione": "11/07/2022 00:35:18"}, {"Gestore": "SERVIZI & GESTIONI ITALIA S.R.L.", "Bandiera": "Q8", "Tipo impianto": "Altro", "Indirizzo": "VIA ERCOLE FERRARIO 37 SS. 33 21013", "Nome impianto": "GALLARATE - VIA ERCOLE FERRARIO 37 SS.", "Comune": "GALLARATE", "idImpianto": 31851, "points": [{"type": "Feature", "properties": {}, "geometry": {"type": "Point", "coordinates": [8.785941079258919, 45.65343803154252]}}], "price": 1.999, "ultima_rilevazione": "11/07/2022 00:35:22"}, {"Gestore": "SERVIZI & GESTIONI ITALIA S.R.L.", "Bandiera": "Q8", "Tipo impianto": "Altro", "Indirizzo": "VIA MILANO SN 21050", "Nome impianto": "MARNATE-VIA MILANO SN", "Comune": "MARNATE", "idImpianto": 11928, "points": [{"type": "Feature", "properties": {}, "geometry": {"type": "Point", "coordinates": [8.910799999999995, 45.63074126354187]}}], "price": 1.984, "ultima_rilevazione": "11/07/2022 00:35:23"}, {"Gestore": "SOMMESE CARBURANTE S.R.L.", "Bandiera": "Sommese Petroli", "Tipo impianto": "Strada Statale", "Indirizzo": "33 del Sempione, Km. 40+252, nord 21013", "Nome impianto": "SOMMESE - SEMPIONE", "Comune": "GALLARATE", "idImpianto": 43823, "points": [{"type": "Feature", "properties": {}, "geometry": {"type": "Point", "coordinates": [8.778295516967773, 45.66498502191534]}}], "price": 1.979, "ultima_rilevazione": "11/07/2022 06:06:13"}, {"Gestore": "SPOIL S.P.A.", "Bandiera": "Pompe Bianche", "Tipo impianto": "Altro", "Indirizzo": "Via al Fornasone  85 20028", "Nome impianto": "SPOIL", "Comune": "SAN VITTORE OLONA", "idImpianto": 44123, "points": [{"type": "Feature", "properties": {}, "geometry": {"type": "Point", "coordinates": [8.930426444431873, 45.58443790821156]}}], "price": 1.949, "ultima_rilevazione": "11/07/2022 07:00:12"}, {"Gestore": "CAR-TEL S.N.C. DI TELESCA R.  &  CARTINI M. L.", "Bandiera": "Sommese Petroli", "Tipo impianto": "Altro", "Indirizzo": "Via Venegoni 14/16, 21012  21012", "Nome impianto": "Sommese Petroli ", "Comune": "CASSANO MAGNAGO", "idImpianto": 21271, "points": [{"type": "Feature", "properties": {}, "geometry": {"type": "Point", "coordinates": [8.816861055819686, 45.66864118622309]}}], "price": 1.999, "ultima_rilevazione": "11/07/2022 06:56:06"}, {"Gestore": "GAVAZZI MARCO", "Bandiera": "Sommese Petroli", "Tipo impianto": "Altro", "Indirizzo": "VIA CAPPUCCINI 20 21013", "Nome impianto": "SOMMESE gallarate", "Comune": "GALLARATE", "idImpianto": 34446, "points": [{"type": "Feature", "properties": {}, "geometry": {"type": "Point", "coordinates": [8.78462332431286, 45.64854362799238]}}], "price": 1.999, "ultima_rilevazione": "11/07/2022 07:04:12"}, {"Gestore": "SOMMESE CARBURANTE S.R.L.", "Bandiera": "Sommese Petroli", "Tipo impianto": "Altro", "Indirizzo": "Via Luigi Riva 21 21013", "Nome impianto": "SOMMESE CARBURANTE VIA RIVA", "Comune": "GALLARATE", "idImpianto": 42778, "points": [{"type": "Feature", "properties": {}, "geometry": {"type": "Point", "coordinates": [8.79571833372961, 45.66626589283417]}}], "price": 1.999, "ultima_rilevazione": "11/07/2022 07:18:06"}, {"Gestore": "COBIDO CAR SERVICE DI DOLCE ANTONINO & C. S.N.C.", "Bandiera": "Agip Eni", "Tipo impianto": "Altro", "Indirizzo": "S.S.SEMPIONE 22 20028", "Nome impianto": "ENI 2261 DI COBIDO CAR   SERVICE", "Comune": "SAN VITTORE OLONA", "idImpianto": 7399, "points": [{"type": "Feature", "properties": {}, "geometry": {"type": "Point", "coordinates": [8.935790061950684, 45.591472259122135]}}], "price": 2.024, "ultima_rilevazione": "11/07/2022 07:43:06"}, {"Gestore": "COBIDO CAR SERVICE DI DOLCE ANTONINO & C. S.N.C.", "Bandiera": "Agip Eni", "Tipo impianto": "Altro", "Indirizzo": "VIA LUIGI CADORNA 60 20025", "Nome impianto": "ENI 02308 LEGNANO CO.BI.DO. ", "Comune": "LEGNANO", "idImpianto": 24513, "points": [{"type": "Feature", "properties": {}, "geometry": {"type": "Point", "coordinates": [8.939912617206573, 45.59869121272512]}}], "price": 2.024, "ultima_rilevazione": "11/07/2022 07:43:32"}]}, "null": {}, "GPL": {"1": [{"Gestore": "KEROPETROL S.P.A.", "Bandiera": "KEROPETROL", "Tipo impianto": "Altro", "Indirizzo": "VIALE TOSCANA 140 21052", "Nome impianto": "KEROPETROL SPA BUSTO ARSIZIO", "Comune": "BUSTO ARSIZIO", "idImpianto": 47231, "points": [{"type": "Feature", "properties": {}, "geometry": {"type": "Point", "coordinates": [8.865001201629639, 45.58010593089396]}}], "price": 0.789, "ultima_rilevazione": "08/07/2022 17:52:24"}, {"Gestore": "IP SERVICES S.R.L.", "Bandiera": "Api-Ip", "Tipo impianto": "Strada Statale", "Indirizzo": "Statale 336 dell'Aeroporto della Malpensa, Km. KM. 1,850, dir. BUSTO ARSIZIO 21052", "Nome impianto": "BUSTO ARSIZIO", "Comune": "BUSTO ARSIZIO", "idImpianto": 24961, "points": [{"type": "Feature", "properties": {}, "geometry": {"type": "Point", "coordinates": [8.8329019239427, 45.63975625942259]}}], "price": 0.799, "ultima_rilevazione": "10/07/2022 09:02:12"}], "3": [{"Gestore": "VARGAS SRL", "Bandiera": "Pompe Bianche", "Tipo impianto": "Altro", "Indirizzo": "VIA OLONA 181 21013", "Nome impianto": "vargas s.r.l.", "Comune": "GALLARATE", "idImpianto": 4135, "points": [{"type": "Feature", "properties": {}, "geometry": {"type": "Point", "coordinates": [8.816686804893493, 45.64914025334275]}}], "price": 0.799, "ultima_rilevazione": "11/07/2022 00:16:04"}, {"Gestore": "GREEN FUEL COMPANY S.P.A.", "Bandiera": "Pompe Bianche", "Tipo impianto": "Altro", "Indirizzo": "VIA PER BUSTO 33/A 20025", "Nome impianto": "Green Fuel Company", "Comune": "LEGNANO", "idImpianto": 40979, "points": [{"type": "Feature", "properties": {}, "geometry": {"type": "Point", "coordinates": [8.901100646627128, 45.60498186476998]}}], "price": 0.879, "ultima_rilevazione": "11/07/2022 07:38:32"}], "5": [{"Gestore": "ARPI S.A.S. DI ARRU MELISSA & C.", "Bandiera": "Api-Ip", "Tipo impianto": "Altro", "Indirizzo": "SP19 Km11 direzione Gorla Minore  21055", "Nome impianto": "Totalerg", "Comune": "GORLA MINORE", "idImpianto": 37667, "points": [{"type": "Feature", "properties": {}, "geometry": {"type": "Point", "coordinates": [8.90462078154087, 45.652237173918735]}}], "price": 0.85, "ultima_rilevazione": "04/07/2022 19:40:53"}, {"Gestore": "AUTOGAS S.R.L.", "Bandiera": "Pompe Bianche", "Tipo impianto": "Altro", "Indirizzo": "VIA PER VANZAGHELLO  20022", "Nome impianto": "AUTOGAS S.R.L.", "Comune": "CASTANO PRIMO", "idImpianto": 13995, "points": [{"type": "Feature", "properties": {}, "geometry": {"type": "Point", "coordinates": [8.782466247958899, 45.56519425919456]}}], "price": 0.799, "ultima_rilevazione": "11/07/2022 07:52:08"}, {"Gestore": "ELDAGAS - S.R.L.", "Bandiera": "Pompe Bianche", "Tipo impianto": "Altro", "Indirizzo": "VIA MONTE ROSA 85 21050", "Nome impianto": "ELDA GAS 1", "Comune": "CAIRATE", "idImpianto": 47651, "points": [{"type": "Feature", "properties": {}, "geometry": {"type": "Point", "coordinates": [8.85530563558198, 45.68314771128692]}}], "price": 0.809, "ultima_rilevazione": "07/07/2022 15:35:17"}, {"Gestore": "COOP LOMBARDIA SOCIETA' COOPERATIVA", "Bandiera": "Enercoop", "Tipo impianto": "Altro", "Indirizzo": "VIA ARCONATE 120 20020", "Nome impianto": "enercoop", "Comune": "BUSTO GAROLFO", "idImpianto": 48469, "points": [{"type": "Feature", "properties": {}, "geometry": {"type": "Point", "coordinates": [8.86991526391933, 45.54726255274761]}}], "price": 0.789, "ultima_rilevazione": "09/07/2022 13:08:12"}, {"Gestore": "SPOIL S.P.A.", "Bandiera": "Pompe Bianche", "Tipo impianto": "Altro", "Indirizzo": "Via al Fornasone  85 20028", "Nome impianto": "SPOIL", "Comune": "SAN VITTORE OLONA", "idImpianto": 44123, "points": [{"type": "Feature", "properties": {}, "geometry": {"type": "Point", "coordinates": [8.930426444431873, 45.58443790821156]}}], "price": 0.799, "ultima_rilevazione": "11/07/2022 07:00:12"}]}, "Gasolio": {"1": [{"Gestore": "COVA TIZIANO", "Bandiera": "Api-Ip", "Tipo impianto": "Altro", "Indirizzo": "s.p.128 via Damiano Chiesa 39 20020", "Nome impianto": "Tiziano Cova", "Comune": "DAIRAGO", "idImpianto": 9933, "points": [{"type": "Feature", "properties": {}, "geometry": {"type": "Point", "coordinates": [8.862136602401733, 45.57415304515296]}}], "price": 2.369, "ultima_rilevazione": "10/03/2022 16:46:53"}, {"Gestore": "SOMMESE CARBURANTE S.R.L.", "Bandiera": "Sommese Petroli", "Tipo impianto": "Altro", "Indirizzo": "Via Per Cassano 80 21052", "Nome impianto": "SOMMESE CARBURANTE BUSTO ", "Comune": "BUSTO ARSIZIO", "idImpianto": 39853, "points": [{"type": "Feature", "properties": {}, "geometry": {"type": "Point", "coordinates": [8.846336471163909, 45.636349970305154]}}], "price": 1.979, "ultima_rilevazione": "04/07/2022 07:28:07"}, {"Gestore": "DEDA ASTRIT", "Bandiera": "Agip Eni", "Tipo impianto": "Altro", "Indirizzo": "VIA PER FAGNANO 32 21052", "Nome impianto": "eni 52359", "Comune": "BUSTO ARSIZIO", "idImpianto": 46044, "points": [{"type": "Feature", "properties": {}, "geometry": {"type": "Point", "coordinates": [8.857783000123, 45.626435000123]}}], "price": 2.004, "ultima_rilevazione": "05/07/2022 13:23:26"}, {"Gestore": "F.LLI GADDA S.N.C. DI GIUSEPPE E ANGELO GADDA", "Bandiera": "Sommese Petroli", "Tipo impianto": "Altro", "Indirizzo": "VIA DON MINZONI 32 21053", "Nome impianto": "FLLI GADDA SNC", "Comune": "CASTELLANZA", "idImpianto": 10479, "points": [{"type": "Feature", "properties": {}, "geometry": {"type": "Point", "coordinates": [8.889191312828075, 45.609014872721055]}}], "price": 1.999, "ultima_rilevazione": "06/07/2022 10:20:38"}, {"Gestore": "2-ELLE SNC DI TESCARO LUCA E PAPANDREA LUCA", "Bandiera": "Total Erg", "Tipo impianto": "Altro", "Indirizzo": "VIALE TOSCANA 103 21052", "Nome impianto": "Total erg  2-elle snc", "Comune": "BUSTO ARSIZIO", "idImpianto": 12887, "points": [{"type": "Feature", "properties": {}, "geometry": {"type": "Point", "coordinates": [8.859471538577509, 45.58097631145069]}}], "price": 1.987, "ultima_rilevazione": "06/07/2022 19:00:13"}, {"Gestore": "MA-BO S.N.C. DI BLOISE ANTONIETTA E MAZZUCCHELLI GUIDO", "Bandiera": "Sommese Petroli", "Tipo impianto": "Strada Statale", "Indirizzo": "Statale 527 Bustese, Km. 20, dir. MILANO 21053", "Nome impianto": "MA.BO", "Comune": "CASTELLANZA", "idImpianto": 15625, "points": [{"type": "Feature", "properties": {}, "geometry": {"type": "Point", "coordinates": [8.875574233729594, 45.60463645835393]}}], "price": 1.999, "ultima_rilevazione": "08/07/2022 07:47:17"}, {"Gestore": "GS SPA", "Bandiera": "Tamoil", "Tipo impianto": "Altro", "Indirizzo": "Corso XX settembre 91 21052", "Nome impianto": "Carrefour Tamoil Busto Arsizio", "Comune": "BUSTO ARSIZIO", "idImpianto": 48733, "points": [{"type": "Feature", "properties": {}, "geometry": {"type": "Point", "coordinates": [8.876524726736776, 45.61425777724803]}}], "price": 1.959, "ultima_rilevazione": "08/07/2022 16:15:03"}, {"Gestore": "TOTALERG DI GIUDICE LORENA", "Bandiera": "Api-Ip", "Tipo impianto": "Altro", "Indirizzo": "VIA XX SETTEMBRE 54 21052", "Nome impianto": "TotalErg ", "Comune": "BUSTO ARSIZIO", "idImpianto": 38454, "points": [{"type": "Feature", "properties": {}, "geometry": {"type": "Point", "coordinates": [8.866095088954921, 45.61281552864417]}}], "price": 1.969, "ultima_rilevazione": "08/07/2022 16:48:07"}, {"Gestore": "KEROPETROL S.P.A.", "Bandiera": "KEROPETROL", "Tipo impianto": "Altro", "Indirizzo": "VIALE TOSCANA 140 21052", "Nome impianto": "KEROPETROL SPA BUSTO ARSIZIO", "Comune": "BUSTO ARSIZIO", "idImpianto": 47231, "points": [{"type": "Feature", "properties": {}, "geometry": {"type": "Point", "coordinates": [8.865001201629639, 45.58010593089396]}}], "price": 1.989, "ultima_rilevazione": "08/07/2022 17:52:24"}, {"Gestore": "ESPOSTO FILIPPONE FRANCESCO", "Bandiera": "Pompe Bianche", "Tipo impianto": "Altro", "Indirizzo": "VIALE BOCCACCIO 101 21052", "Nome impianto": "ESPOSTO FILIPPONE FRANCESCO", "Comune": "BUSTO ARSIZIO", "idImpianto": 22654, "points": [{"type": "Feature", "properties": {}, "geometry": {"type": "Point", "coordinates": [8.858603230094104, 45.58908169614077]}}], "price": 1.999, "ultima_rilevazione": "08/07/2022 18:02:01"}, {"Gestore": "LEPRI MARCO", "Bandiera": "Esso", "Tipo impianto": "Strada Statale", "Indirizzo": "Statale 33 del Sempione, Km. 144, dir. NORD 21052", "Nome impianto": "ESSO SEMPIONE", "Comune": "BUSTO ARSIZIO", "idImpianto": 9058, "points": [{"type": "Feature", "properties": {}, "geometry": {"type": "Point", "coordinates": [8.841612339019775, 45.62873718186091]}}], "price": 1.999, "ultima_rilevazione": "08/07/2022 18:19:22"}, {"Gestore": "LEPRI MARCO", "Bandiera": "Esso", "Tipo impianto": "Altro", "Indirizzo": "CORSO ITALIA  21052", "Nome impianto": "ESSO ITALIA", "Comune": "BUSTO ARSIZIO", "idImpianto": 9059, "points": [{"type": "Feature", "properties": {}, "geometry": {"type": "Point", "coordinates": [8.83901059627533, 45.615347715796815]}}], "price": 1.999, "ultima_rilevazione": "08/07/2022 18:20:33"}, {"Gestore": "BOSATELLI BRUNO & C. - S.A.S.", "Bandiera": "Esso", "Tipo impianto": "Altro", "Indirizzo": "VIA PER FAGNANO 24 21052", "Nome impianto": "ESSO", "Comune": "BUSTO ARSIZIO", "idImpianto": 10021, "points": [{"type": "Feature", "properties": {}, "geometry": {"type": "Point", "coordinates": [8.857867866754532, 45.62548446746924]}}], "price": 1.999, "ultima_rilevazione": "08/07/2022 18:32:04"}, {"Gestore": "VINCI S.A.S. DI VINCI SALVATORE & C.", "Bandiera": "Agip Eni", "Tipo impianto": "Altro", "Indirizzo": "via busto fagnano 36 21057", "Nome impianto": "02874 OLGIATE OLONA", "Comune": "OLGIATE OLONA", "idImpianto": 7166, "points": [{"type": "Feature", "properties": {}, "geometry": {"type": "Point", "coordinates": [8.858649730682373, 45.631588145862736]}}], "price": 1.954, "ultima_rilevazione": "09/07/2022 08:32:53"}, {"Gestore": "CEPPI ROBERTO", "Bandiera": "Agip Eni", "Tipo impianto": "Altro", "Indirizzo": "VIALE ARMANDO DIAZ 28 21052", "Nome impianto": "ENI PV 02805", "Comune": "BUSTO ARSIZIO", "idImpianto": 38949, "points": [{"type": "Feature", "properties": {}, "geometry": {"type": "Point", "coordinates": [8.852900235581956, 45.62159883144696]}}], "price": 1.959, "ultima_rilevazione": "09/07/2022 11:23:32"}, {"Gestore": "MARINO ROCCO", "Bandiera": "Api-Ip", "Tipo impianto": "Altro", "Indirizzo": "VIALE BOCCACCIO 42 21052", "Nome impianto": "IP", "Comune": "BUSTO ARSIZIO", "idImpianto": 22418, "points": [{"type": "Feature", "properties": {}, "geometry": {"type": "Point", "coordinates": [8.860757946968079, 45.59867244590827]}}], "price": 2.029, "ultima_rilevazione": "09/07/2022 12:50:01"}, {"Gestore": "IP SERVICES S.R.L.", "Bandiera": "Api-Ip", "Tipo impianto": "Altro", "Indirizzo": "VIA PER FAGNANO 46 21057", "Nome impianto": "OLGIATE OLONA", "Comune": "OLGIATE OLONA", "idImpianto": 27295, "points": [{"type": "Feature", "properties": {}, "geometry": {"type": "Point", "coordinates": [8.85911206994058, 45.63571781676173]}}], "price": 1.949, "ultima_rilevazione": "10/07/2022 09:01:11"}, {"Gestore": "IP SERVICES S.R.L.", "Bandiera": "Api-Ip", "Tipo impianto": "Strada Statale", "Indirizzo": "Statale 336 dell'Aeroporto della Malpensa, Km. KM. 1,850, dir. BUSTO ARSIZIO 21052", "Nome impianto": "BUSTO ARSIZIO", "Comune": "BUSTO ARSIZIO", "idImpianto": 24961, "points": [{"type": "Feature", "properties": {}, "geometry": {"type": "Point", "coordinates": [8.8329019239427, 45.63975625942259]}}], "price": 1.959, "ultima_rilevazione": "10/07/2022 09:02:12"}, {"Gestore": "IP SERVICES S.R.L.", "Bandiera": "Api-Ip", "Tipo impianto": "Altro", "Indirizzo": "VIALE BORRI 14 21052", "Nome impianto": "BUSTO ARSIZIO - BORRI 14", "Comune": "BUSTO ARSIZIO", "idImpianto": 29759, "points": [{"type": "Feature", "properties": {}, "geometry": {"type": "Point", "coordinates": [8.862762449073784, 45.606515011405214]}}], "price": 1.989, "ultima_rilevazione": "10/07/2022 09:02:43"}, {"Gestore": "T.D.M. S.R.L.", "Bandiera": "Tamoil", "Tipo impianto": "Altro", "Indirizzo": "VIA SARDEGNA 51 20020", "Nome impianto": "4047", "Comune": "MAGNAGO", "idImpianto": 43386, "points": [{"type": "Feature", "properties": {}, "geometry": {"type": "Point", "coordinates": [8.826061101079858, 45.57846679322805]}}], "price": 1.979, "ultima_rilevazione": "10/07/2022 11:52:07"}, {"Gestore": "SERVIZI & GESTIONI ITALIA S.R.L.", "Bandiera": "Q8", "Tipo impianto": "Altro", "Indirizzo": "VIALE BOCCACCIO 24 21052", "Nome impianto": "BUSTO ARSIZIO-VIALE BOCCACCIO 24", "Comune": "BUSTO ARSIZIO", "idImpianto": 11920, "points": [{"type": "Feature", "properties": {}, "geometry": {"type": "Point", "coordinates": [8.861526822090127, 45.60159704228577]}}], "price": 1.959, "ultima_rilevazione": "11/07/2022 00:35:19"}, {"Gestore": "SERVIZI & GESTIONI ITALIA S.R.L.", "Bandiera": "Q8", "Tipo impianto": "Altro", "Indirizzo": "CORSO ITALIA 23 21052", "Nome impianto": "BUSTO ARSIZIO-CORSO ITALIA 23", "Comune": "BUSTO ARSIZIO", "idImpianto": 11922, "points": [{"type": "Feature", "properties": {}, "geometry": {"type": "Point", "coordinates": [8.846762449073822, 45.62081875947187]}}], "price": 1.979, "ultima_rilevazione": "11/07/2022 00:35:19"}, {"Gestore": "SERVIZI & GESTIONI ITALIA srl", "Bandiera": "Q8", "Tipo impianto": "Altro", "Indirizzo": "V.LE RIMEMBRANZE 53 21052", "Nome impianto": "BUSTO ARSIZIO V.LE RIMEMBRANZE  53", "Comune": "BUSTO ARSIZIO", "idImpianto": 6459, "points": [{"type": "Feature", "properties": {}, "geometry": {"type": "Point", "coordinates": [8.833518582942133, 45.60909492679454]}}], "price": 1.979, "ultima_rilevazione": "11/07/2022 00:35:20"}, {"Gestore": "SERVIZI & GESTIONI ITALIA S.R.L.", "Bandiera": "Q8", "Tipo impianto": "Altro", "Indirizzo": "VIALE MALPENSA 19 21052", "Nome impianto": "BUSTO ARSIZIO VIALE MALPENSA 19", "Comune": "BUSTO ARSIZIO", "idImpianto": 23156, "points": [{"type": "Feature", "properties": {}, "geometry": {"type": "Point", "coordinates": [8.849781362951717, 45.63720059681254]}}], "price": 1.959, "ultima_rilevazione": "11/07/2022 00:35:22"}, {"Gestore": "SOMMESE CARBURANTE S.R.L.", "Bandiera": "Sommese Petroli", "Tipo impianto": "Altro", "Indirizzo": "Via Giovanni Amendola 160 21052", "Nome impianto": "BUSTO VIA AMENDOLA", "Comune": "BUSTO ARSIZIO", "idImpianto": 50978, "points": [{"type": "Feature", "properties": {}, "geometry": {"type": "Point", "coordinates": [8.819097709966561, 45.60333064015385]}}], "price": 1.969, "ultima_rilevazione": "11/07/2022 06:08:04"}, {"Gestore": "ENI FUEL S.P.A.", "Bandiera": "Agip Eni", "Tipo impianto": "Altro", "Indirizzo": "VIA XX SETTEMBRE, 60  21052", "Nome impianto": "2807 \u2013 Busto Arsizio", "Comune": "BUSTO ARSIZIO", "idImpianto": 49792, "points": [{"type": "Feature", "properties": {}, "geometry": {"type": "Point", "coordinates": [8.867198119656962, 45.61297865138692]}}], "price": 1.964, "ultima_rilevazione": "11/07/2022 07:14:03"}, {"Gestore": "IAMETTI S.A.S. DI IAMETTI DANILO E MARCO", "Bandiera": "Agip Eni", "Tipo impianto": "Altro", "Indirizzo": "VIALE PIRANDELLO 2 21052", "Nome impianto": "IAMETTI SAS", "Comune": "BUSTO ARSIZIO", "idImpianto": 14390, "points": [{"type": "Feature", "properties": {}, "geometry": {"type": "Point", "coordinates": [8.847196151520507, 45.60283165537623]}}], "price": 1.964, "ultima_rilevazione": "11/07/2022 07:15:11"}, {"Gestore": "KANT S.A.S. DI MASATO CHRISTIAN & C.", "Bandiera": "Tamoil", "Tipo impianto": "Altro", "Indirizzo": "VIA CASSANO MAGNAGO 60BIS 21052", "Nome impianto": "KANT SAS di Masato Christian", "Comune": "BUSTO ARSIZIO", "idImpianto": 14992, "points": [{"type": "Feature", "properties": {}, "geometry": {"type": "Point", "coordinates": [8.847899436950684, 45.63089004819352]}}], "price": 1.989, "ultima_rilevazione": "11/07/2022 07:18:06"}], "3": [{"Gestore": "PARIANI MARIA CLOTILDE", "Bandiera": "Pompe Bianche", "Tipo impianto": "Altro", "Indirizzo": "VIA ARMANDO DIAZ 73 20020", "Nome impianto": "MI367", "Comune": "MAGNAGO", "idImpianto": 44655, "points": [{"type": "Feature", "properties": {}, "geometry": {"type": "Point", "coordinates": [8.810134627447951, 45.57763022869528]}}], "price": 1.759, "ultima_rilevazione": "02/11/2021 16:56:04"}, {"Gestore": "BROMAR S.N.C. DI BROCCOLO SONIA E C.", "Bandiera": "Q8", "Tipo impianto": "Altro", "Indirizzo": "VIA TORINO, ANGOLO VIA CHECCHI 82 21013", "Nome impianto": "BROMAR S.N.C.", "Comune": "GALLARATE", "idImpianto": 10555, "points": [{"type": "Feature", "properties": {}, "geometry": {"type": "Point", "coordinates": [8.792936000123, 45.644901000123]}}], "price": 1.984, "ultima_rilevazione": "08/07/2022 08:57:03"}, {"Gestore": "PREALPINA DISTRIBUZIONE CARBURANTI S.R.L.", "Bandiera": "Pompe Bianche", "Tipo impianto": "Altro", "Indirizzo": "VIA DIAZ 71 21050", "Nome impianto": "PREALPINA DISTRIBUZIONE CARBURANTI SRL", "Comune": "MARNATE", "idImpianto": 41798, "points": [{"type": "Feature", "properties": {}, "geometry": {"type": "Point", "coordinates": [8.89830759814754, 45.631638269104215]}}], "price": 1.959, "ultima_rilevazione": "08/07/2022 10:51:33"}, {"Gestore": "AMBROGIO MORO S.P.A.", "Bandiera": "Moro", "Tipo impianto": "Altro", "Indirizzo": "VIA DE GASPERI 15 21057", "Nome impianto": "Moro_Olgiate Olona", "Comune": "OLGIATE OLONA", "idImpianto": 29418, "points": [{"type": "Feature", "properties": {}, "geometry": {"type": "Point", "coordinates": [8.886073544774604, 45.62942081847766]}}], "price": 1.955, "ultima_rilevazione": "08/07/2022 12:34:49"}, {"Gestore": "RIALTO S.P.A.", "Bandiera": "Pompe Bianche", "Tipo impianto": "Altro", "Indirizzo": "VIA PER BUSTO ARSIZIO 33 20025", "Nome impianto": "IL GIGANTE SELF 24H", "Comune": "LEGNANO", "idImpianto": 43583, "points": [{"type": "Feature", "properties": {}, "geometry": {"type": "Point", "coordinates": [8.901840000123, 45.605103000123]}}], "price": 1.929, "ultima_rilevazione": "08/07/2022 13:04:33"}, {"Gestore": "BEMA SAS DI ANDREA BERTOLASO & C.", "Bandiera": "Agip Eni", "Tipo impianto": "Altro", "Indirizzo": "VIA BONICALZA 127 21012", "Nome impianto": "Eni 02862 Cassano Magnago", "Comune": "CASSANO MAGNAGO", "idImpianto": 45389, "points": [{"type": "Feature", "properties": {}, "geometry": {"type": "Point", "coordinates": [8.843454000123, 45.660386000123]}}], "price": 1.959, "ultima_rilevazione": "08/07/2022 15:33:52"}, {"Gestore": "VINCI S.A.S. DI VINCI SALVATORE & C.", "Bandiera": "Agip Eni", "Tipo impianto": "Altro", "Indirizzo": "VIA NOVARA ANG. VIA SABOTINO  20025", "Nome impianto": "IMP. ENI LEGNANO VINCI SAS", "Comune": "LEGNANO", "idImpianto": 7946, "points": [{"type": "Feature", "properties": {}, "geometry": {"type": "Point", "coordinates": [8.899647295475006, 45.5907244858852]}}], "price": 2.049, "ultima_rilevazione": "09/07/2022 08:33:42"}, {"Gestore": "DE NIGRIS ANTONIO", "Bandiera": "Pompe Bianche", "Tipo impianto": "Altro", "Indirizzo": "VIA PIETRO MICCA 13 20020", "Nome impianto": "Occhio al prezzo", "Comune": "VILLA CORTESE", "idImpianto": 10058, "points": [{"type": "Feature", "properties": {}, "geometry": {"type": "Point", "coordinates": [8.889665101852415, 45.56317248850171]}}], "price": 2.009, "ultima_rilevazione": "09/07/2022 09:53:26"}, {"Gestore": "BRUSAMOLIN CATIA", "Bandiera": "Esso", "Tipo impianto": "Altro", "Indirizzo": "via giuseppe verdi 49 21017", "Nome impianto": "stazione di servizio Esso", "Comune": "SAMARATE", "idImpianto": 16269, "points": [{"type": "Feature", "properties": {}, "geometry": {"type": "Point", "coordinates": [8.780278166570952, 45.62814871832988]}}], "price": 1.989, "ultima_rilevazione": "09/07/2022 10:38:51"}, {"Gestore": "RAIMONDI MAURO", "Bandiera": "Agip Eni", "Tipo impianto": "Altro", "Indirizzo": "VIA ARMANDO DIAZ 1 21057", "Nome impianto": "RAIMONDI MAURO", "Comune": "OLGIATE OLONA", "idImpianto": 14944, "points": [{"type": "Feature", "properties": {}, "geometry": {"type": "Point", "coordinates": [8.888167440891266, 45.63324351402306]}}], "price": 1.954, "ultima_rilevazione": "09/07/2022 14:19:29"}, {"Gestore": "BUSELLATO MASSIMO", "Bandiera": "Agip Eni", "Tipo impianto": "Altro", "Indirizzo": "VIA AMBROSOLI ANG. VIA MILANO 15 21013", "Nome impianto": "ENI BUSELLATO", "Comune": "GALLARATE", "idImpianto": 40509, "points": [{"type": "Feature", "properties": {}, "geometry": {"type": "Point", "coordinates": [8.807483911514282, 45.65049049417369]}}], "price": 1.964, "ultima_rilevazione": "09/07/2022 19:34:52"}, {"Gestore": "IP SERVICES S.R.L.", "Bandiera": "Api-Ip", "Tipo impianto": "Altro", "Indirizzo": "Via Milano KM 27+576  21053", "Nome impianto": "CASTELLANZA", "Comune": "CASTELLANZA", "idImpianto": 5552, "points": [{"type": "Feature", "properties": {}, "geometry": {"type": "Point", "coordinates": [8.910448635581929, 45.60705975281448]}}], "price": 1.969, "ultima_rilevazione": "10/07/2022 09:03:40"}, {"Gestore": "ENI FUEL S.P.A.", "Bandiera": "Agip Eni", "Tipo impianto": "Altro", "Indirizzo": "Via Don Minzoni 52 21053", "Nome impianto": "PV 2906 Castellanza", "Comune": "CASTELLANZA", "idImpianto": 39454, "points": [{"type": "Feature", "properties": {}, "geometry": {"type": "Point", "coordinates": [8.892793580889702, 45.60381865060999]}}], "price": 1.954, "ultima_rilevazione": "10/07/2022 09:04:09"}, {"Gestore": "IP SERVICES S.R.L.", "Bandiera": "Api-Ip", "Tipo impianto": "Altro", "Indirizzo": "Via per Busto   21058", "Nome impianto": "SOLBIATE OLONA", "Comune": "SOLBIATE OLONA", "idImpianto": 10096, "points": [{"type": "Feature", "properties": {}, "geometry": {"type": "Point", "coordinates": [8.865092396736145, 45.64576541117171]}}], "price": 1.949, "ultima_rilevazione": "10/07/2022 09:04:13"}, {"Gestore": "IP SERVICES S.R.L.", "Bandiera": "Api-Ip", "Tipo impianto": "Altro", "Indirizzo": "Via Torino   21013", "Nome impianto": "Gallarate via Torino", "Comune": "GALLARATE", "idImpianto": 10130, "points": [{"type": "Feature", "properties": {},