{"area_comune": "[{\"type\": \"Feature\", \"properties\": {}, \"geometry\": {\"type\": \"Polygon\", \"coordinates\": [[[8.939166362374923, 45.57867127780949], [8.947837248512208, 45.571888850926676], [8.942764420487995, 45.569627174879855], [8.939152729483126, 45.56754608534947], [8.919285765692049, 45.55231312080135], [8.916356490807482, 45.5492326786546], [8.906559296102733, 45.55837690331669], [8.903952445394681, 45.56238019702015], [8.905251944716651, 45.5644136467464], [8.91451926224594, 45.56885176481491], [8.919678429265279, 45.5698727696632], [8.921946604158077, 45.570885647533416], [8.922576087211443, 45.5728822136604], [8.921083638381198, 45.57446732591581], [8.925106463136604, 45.57741629333813], [8.926159891281236, 45.57617034582527], [8.92863369005337, 45.576054899438944], [8.930350712828634, 45.57641599259726], [8.936050923999183, 45.579353639615924], [8.939166362374923, 45.57867127780949]]]}}]", "comune": "canegrate", "buffer_1": "[{\"type\": \"Feature\", \"properties\": {}, \"geometry\": {\"type\": \"Polygon\", \"coordinates\": [[[8.932584691763864, 45.586395196100995], [8.933697792754435, 45.58681208081657], [8.934863877019728, 45.587150115856545], [8.936071647485425, 45.58740602608751], [8.937309402641015, 45.58757733202231], [8.938565150050854, 45.587662373876086], [8.93982672270356, 45.58766032767039], [8.941081897064821, 45.587571213228074], [8.94231851168183, 45.587395893981075], [8.943524585181912, 45.58713606859298], [8.944688432514106, 45.58679425447788], [8.94579877829985, 45.586373763376635], [8.946844866187831, 45.5858786692285], [8.94781656314782, 45.58531376865162], [8.94870445768865, 45.58468453441747], [8.95737512220177, 45.577901390663584], [8.958184701420313, 45.57720015479013], [8.958890166716614, 45.57644549233038], [8.959484424297209, 45.57564499637023], [8.95996150008153, 45.574806720823474], [8.960316599653037, 45.573939099347264], [8.960546156306538, 45.57305086044886], [8.96064786671565, 45.57215093964033], [8.960620713870002, 45.57124838952628], [8.960464977060846, 45.57035228873056], [8.960182228824369, 45.5694716505783], [8.95977531888343, 45.568615332452104], [8.959248345258866, 45.56779194673277], [8.958606612849911, 45.56700977421952], [8.957856579908308, 45.56627668089798], [8.957005792951072, 45.56560003889107], [8.925524856421706, 45.54294636810655], [8.924589061085419, 45.54233652786302], [8.923571567246453, 45.54179514335507], [8.922482474385832, 45.541327587125], [8.921332591661551, 45.5409384989412], [8.920133330710238, 45.540631739810955], [8.918896592507677, 45.54041035371565], [8.917634649405452, 45.540276537445294], [8.916360023507597, 45.540231618829935], [8.915085362586323, 45.54027604358233], [8.913823314759659, 45.54040937088173], [8.912586403165745, 45.540630277741926], [8.911386901868513, 45.54093657212096], [8.910236714217678, 45.54132521464291], [8.90914725486232, 45.54179234871801], [8.908129336582057, 45.54233333876386], [8.907193063053422, 45.542942816151125], [8.90634772861162, 45.54361473242045], [8.90560172600019, 45.544342419245204], [8.904962463023635, 45.54511865454847], [8.89385566294912, 45.56029852400322], [8.893325808471218, 45.56112157970674], [8.892916043918754, 45.56197779476623], [8.892630501042817, 45.56285854733952], [8.892472061175631, 45.56375496809471], [8.892442325988581, 45.564658029497636], [8.892541601120927, 45.56555863670889], [8.892768892853761, 45.56644771917585], [8.893121917872627, 45.56731632199738], [8.893597126030409, 45.5681556961404], [8.89418973589055, 45.56895738659893], [8.89489378270114, 45.56971331760544], [8.895702178324036, 45.57041587403429], [8.896606782521193, 45.57105797817453], [8.897598484884314, 45.57163316109554], [8.898667296584813, 45.57213562788355], [8.932584691763864, 45.586395196100995]]]}}]", "buffer_3": "[{\"type\": \"Feature\", \"properties\": {}, \"geometry\": {\"type\": \"Polygon\", \"coordinates\": [[[8.919415930825064, 45.601841859945964], [8.922755906049487, 45.60309286343982], [8.926255014740606, 45.60410726548561], [8.929879332578967, 45.60487522918963], [8.93359371610497, 45.60538930707011], [8.937362144759451, 45.605644513575214], [8.94114807160725, 45.605638373635784], [8.944914779274042, 45.60537094677159], [8.948625737571769, 45.60484482651283], [8.952244959270176, 45.604065115141985], [8.955737350491482, 45.60303937400669], [8.959069052261926, 45.60177754989515], [8.962207769847096, 45.60029187820259], [8.965123086626216, 45.598596763846395], [8.967786759422555, 45.596708641105714], [8.976456978295696, 45.589924063265705], [8.978885461567986, 45.5878199368908], [8.981001368050844, 45.58555555678613], [8.982783436063096, 45.58315371797808], [8.98421377170456, 45.58063859629343], [8.98527802756676, 45.57803550454043], [8.98596554543173, 45.575370637354986], [8.986269461588922, 45.57267080729989], [8.986186773787242, 45.56996317488774], [8.985718369232835, 45.56727497525441], [8.984869013439464, 45.56463324423669], [8.983647300132914, 45.562064546608156], [8.982065562799832, 45.55959470919917], [8.980139748851016, 45.557248561571974], [8.977889257735765, 45.555049686840704], [8.975336744694282, 45.5530201851194], [8.943855457996067, 45.530371515739], [8.9410481630552, 45.528542418304895], [8.937996011637424, 45.526918673482164], [8.934729289089498, 45.52551638272946], [8.931280400856007, 45.52434945040297], [8.927683551757312, 45.52342944638571], [8.923974407761847, 45.5227654918115], [8.920189743557577, 45.52236416899551], [8.916367079356435, 45.52222945644621], [8.912544310463089, 45.5223626895901], [8.90875933320472, 45.52276254759022], [8.905049670851321, 45.523425066386686], [8.90145210315607, 45.52434367783215], [8.89800230311266, 45.525509274542564], [8.894734484461313, 45.526910299833254], [8.891681063377742, 45.52853286186622], [8.888872337650508, 45.530360870898285], [8.886336186492624, 45.53237619829383], [8.88409779394388, 45.53455885575156], [8.882179398602743, 45.53688719299561], [8.871068096009443, 45.55206486433158], [8.869477721709456, 45.55453370930303], [8.868247448905208, 45.557102094935374], [8.867389712147572, 45.55974416613907], [8.86691319992563, 45.56243332242504], [8.866822765156133, 45.56514248546413], [8.867119374146652, 45.567844371604835], [8.867800094633152, 45.57051176661276], [8.868858123102042, 45.5731177998664], [8.870282851210435, 45.57563621524343], [8.872059970720283, 45.57804163595887], [8.874171615966464, 45.580309820671545], [8.876596542490068, 45.58241790825826], [8.879310340090354, 45.58434464876509], [8.882285678186571, 45.58607061818127], [8.885492581038195, 45.58757841484194], [8.919415930825064, 45.601841859945964]]]}}]", "buffer_5": "[{\"type\": \"Feature\", \"properties\": {}, \"geometry\": {\"type\": \"Polygon\", \"coordinates\": [[[8.906239937132746, 45.61728695810801], [8.911807683117571, 45.619372546729885], [8.91764095816173, 45.621063712208205], [8.923683166508432, 45.62234404051226], [8.929875670739701, 45.62320110409494], [8.936158364365424, 45.62362658334331], [8.942470259166937, 45.623616347902924], [8.948750081402755, 45.62317049705924], [8.954936870885657, 45.62229335876984], [8.960970576908228, 45.6209934473571], [8.966792645029107, 45.61928338028667], [8.97234658883369, 45.617179754867266], [8.977578540949596, 45.6147029861095], [8.982437777826416, 45.611877107368734], [8.986877213077449, 45.60872953576682], [8.995546983118015, 45.60194352338274], [8.999594029538873, 45.598435948035544], [9.003119722755672, 45.594661326725486], [9.006088659637202, 45.59065767745289], [9.00847106442534, 45.586465316728], [9.010243084666309, 45.5821264522653], [9.011387026622403, 45.57768475693873], [9.011891527979522, 45.57318492834295], [9.01175166632651, 45.56867223843588], [9.01096900254953, 45.56419207782195], [9.00955155895109, 45.55978949927251], [9.007513732561716, 45.555508765070286], [9.004876144755944, 45.55139290270922], [9.001665428907403, 45.54748327338084], [8.997913958414385, 45.5438191575353], [8.993659517993018, 45.54043736162092], [8.96217789108667, 45.51779369154818], [8.957499219160853, 45.51474590094816], [8.952412850996616, 45.512040340258736], [8.946969240282804, 45.50970381835081], [8.941222359365502, 45.50775948429446], [8.935229166167368, 45.506226599386494], [8.929049042456036, 45.50512034755011], [8.92274320889145, 45.50445168592547], [8.91637412247976, 45.504227237082624], [8.910004862210302, 45.50444922388795], [8.90369850875176, 45.50511544764704], [8.897517524133502, 45.50621930973258], [8.891523137338128, 45.507749876490315], [8.885774741681567, 45.509691986802544], [8.880329309757627, 45.51202640127925], [8.875240831575205, 45.51472999164775], [8.870559781318706, 45.51777596852355], [8.866332617916655, 45.52113414537326], [8.86260132431046, 45.52477123612706], [8.859402989976717, 45.52865118356736], [8.8482871921271, 45.54382665566074], [8.845635218703059, 45.54794085998065], [8.843583133720944, 45.55222106953317], [8.842151726783852, 45.556624209933446], [8.84135555275196, 45.56110595959368], [8.841202779593802, 45.565621195146186], [8.841695100125628, 45.5701244453457], [8.842827708768093, 45.574570348901894], [8.84458934380301, 45.57891411163675], [8.846962394951982, 45.58311195835074], [8.849923075429146, 45.58712157481855], [8.853441656950059, 45.590902535417456], [8.857482765514822, 45.59441671202344], [8.862005735134087, 45.597628659986114], [8.8669650160394, 45.60050597721551], [8.87231063332284, 45.603019632679064], [8.906239937132746, 45.61728695810801]]]}}]", "centroid": "[{\"type\": \"Feature\", \"properties\": {}, \"geometry\": {\"type\": \"Point\", \"coordinates\": [8.92608325997021, 45.564843244051104]}}]", "Diesel High Quality": {"1": [{"Gestore": "ACEZ SAS DI ZUCCALA' CLEMENTE & C.", "Bandiera": "Esso", "Tipo impianto": "Altro", "Indirizzo": "Via Magenta  29 20010", "Nome impianto": "ESSO", "Comune": "SAN GIORGIO SU LEGNANO", "idImpianto": 49616, "points": [{"type": "Feature", "properties": {}, "geometry": {"type": "Point", "coordinates": [8.901193176236326, 45.5710689638264]}}], "price": 1.959, "ultima_rilevazione": "16/04/2022 08:11:50"}, {"Gestore": "IP SERVICES S.R.L.", "Bandiera": "Api-Ip", "Tipo impianto": "Altro", "Indirizzo": "Via fratelli Bandiera  ", "Nome impianto": "Canegrate", "Comune": "CANEGRATE", "idImpianto": 10086, "points": [{"type": "Feature", "properties": {}, "geometry": {"type": "Point", "coordinates": [8.933268785476685, 45.56434859566271]}}], "price": 1.709, "ultima_rilevazione": "16/04/2022 12:04:39"}], "3": [{"Gestore": "SERVIZI & GESTIONI ITALIA S.R.L.", "Bandiera": "Q8", "Tipo impianto": "Altro", "Indirizzo": "CORSO SEMPIONE  ANG.VIA VOLTA 160 20025", "Nome impianto": "LEGNANO-CORSO SEMPIONE 160 ANG.VIA VOLTA", "Comune": "LEGNANO", "idImpianto": 11657, "points": [{"type": "Feature", "properties": {}, "geometry": {"type": "Point", "coordinates": [8.918259766864821, 45.60017318891127]}}], "price": 2.079, "ultima_rilevazione": "14/04/2022 07:08:45"}, {"Gestore": "SERVIZI & GESTIONI ITALIA S.R.L.", "Bandiera": "Q8", "Tipo impianto": "Altro", "Indirizzo": "CORSO SEMPIONE  ANG.VIA VOLTA 160 20025", "Nome impianto": "LEGNANO-CORSO SEMPIONE 160 ANG.VIA VOLTA", "Comune": "LEGNANO", "idImpianto": 11657, "points": [{"type": "Feature", "properties": {}, "geometry": {"type": "Point", "coordinates": [8.918259766864821, 45.60017318891127]}}], "price": 2.079, "ultima_rilevazione": "14/04/2022 07:08:45"}, {"Gestore": "SERVIZI & GESTIONI ITALIA S.R.L.", "Bandiera": "Q8", "Tipo impianto": "Altro", "Indirizzo": "VIALE CADORNA 58 20025", "Nome impianto": "LEGNANO-VIALE CADORNA 58", "Comune": "LEGNANO", "idImpianto": 11673, "points": [{"type": "Feature", "properties": {}, "geometry": {"type": "Point", "coordinates": [8.93926352262497, 45.59818863369359]}}], "price": 2.059, "ultima_rilevazione": "14/04/2022 07:08:45"}, {"Gestore": "SERVIZI & GESTIONI ITALIA S.R.L.", "Bandiera": "Q8", "Tipo impianto": "Altro", "Indirizzo": "VIALE CADORNA 58 20025", "Nome impianto": "LEGNANO-VIALE CADORNA 58", "Comune": "LEGNANO", "idImpianto": 11673, "points": [{"type": "Feature", "properties": {}, "geometry": {"type": "Point", "coordinates": [8.93926352262497, 45.59818863369359]}}], "price": 2.069, "ultima_rilevazione": "14/04/2022 07:08:45"}, {"Gestore": "SERVIZI & GESTIONI ITALIA S.R.L.", "Bandiera": "Q8", "Tipo impianto": "Altro", "Indirizzo": "VIA SABOTINO 75 20025", "Nome impianto": "LEGNANO-VIA SABOTINO 75", "Comune": "LEGNANO", "idImpianto": 11683, "points": [{"type": "Feature", "properties": {}, "geometry": {"type": "Point", "coordinates": [8.90271335449222, 45.58602158677832]}}], "price": 2.079, "ultima_rilevazione": "14/04/2022 07:08:45"}, {"Gestore": "SERVIZI & GESTIONI ITALIA S.R.L.", "Bandiera": "Q8", "Tipo impianto": "Altro", "Indirizzo": "VIA SABOTINO 75 20025", "Nome impianto": "LEGNANO-VIA SABOTINO 75", "Comune": "LEGNANO", "idImpianto": 11683, "points": [{"type": "Feature", "properties": {}, "geometry": {"type": "Point", "coordinates": [8.90271335449222, 45.58602158677832]}}], "price": 2.079, "ultima_rilevazione": "14/04/2022 07:08:45"}, {"Gestore": "SERVIZI & GESTIONI ITALIA S.R.L.", "Bandiera": "Q8", "Tipo impianto": "Altro", "Indirizzo": "VIA XX SETTEMBRE 84 20025", "Nome impianto": "LEGNANO-VIA XX SETTEMBRE 84", "Comune": "LEGNANO", "idImpianto": 11691, "points": [{"type": "Feature", "properties": {}, "geometry": {"type": "Point", "coordinates": [8.910728746032646, 45.58447337466343]}}], "price": 2.079, "ultima_rilevazione": "14/04/2022 07:08:45"}, {"Gestore": "SERVIZI & GESTIONI ITALIA S.R.L.", "Bandiera": "Q8", "Tipo impianto": "Altro", "Indirizzo": "VIA XX SETTEMBRE 84 20025", "Nome impianto": "LEGNANO-VIA XX SETTEMBRE 84", "Comune": "LEGNANO", "idImpianto": 11691, "points": [{"type": "Feature", "properties": {}, "geometry": {"type": "Point", "coordinates": [8.910728746032646, 45.58447337466343]}}], "price": 2.079, "ultima_rilevazione": "14/04/2022 07:08:45"}, {"Gestore": "SUSANI MARCO", "Bandiera": "Esso", "Tipo impianto": "Altro", "Indirizzo": "VIALE GUGLIELMO MARCONI 66, 20015", "Nome impianto": "STAZIONE DI SERVIZIO CARBURANTI ESSO", "Comune": "PARABIAGO", "idImpianto": 17785, "points": [{"type": "Feature", "properties": {}, "geometry": {"type": "Point", "coordinates": [8.953870765698184, 45.56241016951922]}}], "price": 1.909, "ultima_rilevazione": "15/04/2022 09:14:26"}, {"Gestore": "IP SERVICES S.R.L.", "Bandiera": "Api-Ip", "Tipo impianto": "Altro", "Indirizzo": "Viale Lombardia  sp 109   ", "Nome impianto": "Parabiago", "Comune": "PARABIAGO", "idImpianto": 10095, "points": [{"type": "Feature", "properties": {}, "geometry": {"type": "Point", "coordinates": [8.932908028364182, 45.54657545332266]}}], "price": 1.719, "ultima_rilevazione": "16/04/2022 12:04:40"}], "5": [{"Gestore": "SERVIZI & GESTIONI ITALIA srl", "Bandiera": "Q8", "Tipo impianto": "Altro", "Indirizzo": "VIALE LOMBARDIA 27 21053", "Nome impianto": "CASTELLANZA VIALE LOMBARDIA 27", "Comune": "CASTELLANZA", "idImpianto": 6460, "points": [{"type": "Feature", "properties": {}, "geometry": {"type": "Point", "coordinates": [8.904368128241686, 45.61509008291705]}}], "price": 1.705, "ultima_rilevazione": "16/04/2022 01:34:28"}, {"Gestore": "NUOVA SIDAP  S.R.L.", "Bandiera": "Esso", "Tipo impianto": "Strada Statale", "Indirizzo": "33 del Sempione, Km. 18+92, Nord 20014", "Nome impianto": "Nerviano", "Comune": "NERVIANO", "idImpianto": 43734, "points": [{"type": "Feature", "properties": {}, "geometry": {"type": "Point", "coordinates": [8.993886113166809, 45.548350551694746]}}], "price": 1.942, "ultima_rilevazione": "16/04/2022 07:46:15"}]}, "Blue Diesel": {"1": [], "3": [{"Gestore": "VINCI S.A.S. DI VINCI SALVATORE & C.", "Bandiera": "Agip Eni", "Tipo impianto": "Altro", "Indirizzo": "VIA NOVARA ANG. VIA SABOTINO  20025", "Nome impianto": "IMP. ENI LEGNANO VINCI SAS", "Comune": "LEGNANO", "idImpianto": 7946, "points": [{"type": "Feature", "properties": {}, "geometry": {"type": "Point", "coordinates": [8.899647295475006, 45.5907244858852]}}], "price": 2.284, "ultima_rilevazione": "15/04/2022 12:02:30"}, {"Gestore": "COBIDO CAR SERVICE DI DOLCE ANTONINO & C. S.N.C.", "Bandiera": "Agip Eni", "Tipo impianto": "Altro", "Indirizzo": "VIA LUIGI CADORNA 60 20025", "Nome impianto": "ENI 02308 LEGNANO CO.BI.DO. ", "Comune": "LEGNANO", "idImpianto": 24513, "points": [{"type": "Feature", "properties": {}, "geometry": {"type": "Point", "coordinates": [8.939912617206573, 45.59869121272512]}}], "price": 1.854, "ultima_rilevazione": "14/04/2022 09:57:24"}, {"Gestore": "COBIDO CAR SERVICE DI DOLCE ANTONINO & C. S.N.C.", "Bandiera": "Agip Eni", "Tipo impianto": "Altro", "Indirizzo": "S.S.SEMPIONE 22 20028", "Nome impianto": "ENI 2261 DI COBIDO CAR   SERVICE", "Comune": "SAN VITTORE OLONA", "idImpianto": 7399, "points": [{"type": "Feature", "properties": {}, "geometry": {"type": "Point", "coordinates": [8.935790061950684, 45.591472259122135]}}], "price": 1.949, "ultima_rilevazione": "15/04/2022 14:51:00"}, {"Gestore": "COBIDO CAR SERVICE DI DOLCE ANTONINO & C. S.N.C.", "Bandiera": "Agip Eni", "Tipo impianto": "Altro", "Indirizzo": "S.S.SEMPIONE 22 20028", "Nome impianto": "ENI 2261 DI COBIDO CAR   SERVICE", "Comune": "SAN VITTORE OLONA", "idImpianto": 7399, "points": [{"type": "Feature", "properties": {}, "geometry": {"type": "Point", "coordinates": [8.935790061950684, 45.591472259122135]}}], "price": 1.869, "ultima_rilevazione": "15/04/2022 14:51:00"}, {"Gestore": "GUERRA SAVERIO", "Bandiera": "Agip Eni", "Tipo impianto": "Altro", "Indirizzo": "VIA LOMBARDIA  20015", "Nome impianto": "GUERRA SAVERIO IMPIANTO ENI", "Comune": "PARABIAGO", "idImpianto": 10476, "points": [{"type": "Feature", "properties": {}, "geometry": {"type": "Point", "coordinates": [8.956485986709595, 45.54327570741985]}}], "price": 1.909, "ultima_rilevazione": "15/04/2022 16:16:43"}, {"Gestore": "GUERRA SAVERIO", "Bandiera": "Agip Eni", "Tipo impianto": "Altro", "Indirizzo": "VIA LOMBARDIA  20015", "Nome impianto": "GUERRA SAVERIO IMPIANTO ENI", "Comune": "PARABIAGO", "idImpianto": 10476, "points": [{"type": "Feature", "properties": {}, "geometry": {"type": "Point", "coordinates": [8.956485986709595, 45.54327570741985]}}], "price": 1.909, "ultima_rilevazione": "15/04/2022 16:16:43"}, {"Gestore": "ENI FUEL S.P.A.", "Bandiera": "Agip Eni", "Tipo impianto": "Altro", "Indirizzo": "Via Marconi 64 20015", "Nome impianto": "2531 PARABIAGO", "Comune": "PARABIAGO", "idImpianto": 5416, "points": [{"type": "Feature", "properties": {}, "geometry": {"type": "Point", "coordinates": [8.953312818784866, 45.5619190150919]}}], "price": 1.849, "ultima_rilevazione": "16/04/2022 09:04:01"}], "5": [{"Gestore": "VELE S.A.S. DI VERDUCI ANTONINO & CC", "Bandiera": "Agip Eni", "Tipo impianto": "Altro", "Indirizzo": "VIA SARONNESE 51 20027", "Nome impianto": "Vele sas di Verduci Antonino & c", "Comune": "RESCALDINA", "idImpianto": 11118, "points": [{"type": "Feature", "properties": {}, "geometry": {"type": "Point", "coordinates": [8.940021041264345, 45.61118996647434]}}], "price": 1.864, "ultima_rilevazione": "15/04/2022 14:50:12"}, {"Gestore": "A.M.G. S.N.C. DI ANDREA DUO',  MAURO TURCONI E GIORGIO MARINI", "Bandiera": "Agip Eni", "Tipo impianto": "Strada Statale", "Indirizzo": "Statale 527 Bustese, Km. 47, dir. Rescaldina 20027", "Nome impianto": "AGIP", "Comune": "RESCALDINA", "idImpianto": 6182, "points": [{"type": "Feature", "properties": {}, "geometry": {"type": "Point", "coordinates": [8.959066271781921, 45.61236684136928]}}], "price": 1.864, "ultima_rilevazione": "15/04/2022 17:59:52"}, {"Gestore": "ENI FUEL S.P.A.", "Bandiera": "Agip Eni", "Tipo impianto": "Altro", "Indirizzo": "PAPA GIOVANNI XXIII  20014", "Nome impianto": "2514 \u2013 Nerviano", "Comune": "NERVIANO", "idImpianto": 49790, "points": [{"type": "Feature", "properties": {}, "geometry": {"type": "Point", "coordinates": [8.980694983699001, 45.549712309697576]}}], "price": 1.909, "ultima_rilevazione": "16/04/2022 07:06:10"}, {"Gestore": "ENI FUEL S.P.A.", "Bandiera": "Agip Eni", "Tipo impianto": "Altro", "Indirizzo": "Via Don Minzoni 52 21053", "Nome impianto": "PV 2906 Castellanza", "Comune": "CASTELLANZA", "idImpianto": 39454, "points": [{"type": "Feature", "properties": {}, "geometry": {"type": "Point", "coordinates": [8.892793580889702, 45.60381865060999]}}], "price": 1.869, "ultima_rilevazione": "16/04/2022 09:06:03"}, {"Gestore": "GESTIONI INNOVATIVE ITALIA S.R.L.", "Bandiera": "Agip Eni", "Tipo impianto": "Altro", "Indirizzo": "VIALE LOMBARDIA 72 21053", "Nome impianto": "PV 2857", "Comune": "CASTELLANZA", "idImpianto": 25132, "points": [{"type": "Feature", "properties": {}, "geometry": {"type": "Point", "coordinates": [8.910047560930252, 45.61004458384013]}}], "price": 1.869, "ultima_rilevazione": "17/04/2022 00:12:07"}]}, "Benzina": {"1": [{"Gestore": "CORNAREDO CARBURANTI S.R.L.", "Bandiera": "Repsol", "Tipo impianto": "Altro", "Indirizzo": "STRADA PROVINCIALE 109 KM. 3,044  20020", "Nome impianto": "CORNAREDO CARBURANTI S.R.L. - BUSTO G.", "Comune": "BUSTO GAROLFO", "idImpianto": 31151, "points": [{"type": "Feature", "properties": {}, "geometry": {"type": "Point", "coordinates": [8.909874558448792, 45.54602244098786]}}], "price": 1.799, "ultima_rilevazione": "14/04/2022 11:05:06"}, {"Gestore": "KEROPETROL S.P.A.", "Bandiera": "KEROPETROL", "Tipo impianto": "Altro", "Indirizzo": "Via Resegone snc 20015", "Nome impianto": "KEROPETROL SPA PARABIAGO", "Comune": "PARABIAGO", "idImpianto": 48490, "points": [{"type": "Feature", "properties": {}, "geometry": {"type": "Point", "coordinates": [8.943785056471825, 45.569222869311744]}}], "price": 1.704, "ultima_rilevazione": "15/04/2022 17:54:31"}, {"Gestore": "ACEZ SAS DI ZUCCALA' CLEMENTE & C.", "Bandiera": "Esso", "Tipo impianto": "Altro", "Indirizzo": "Via Magenta  29 20010", "Nome impianto": "ESSO", "Comune": "SAN GIORGIO SU LEGNANO", "idImpianto": 49616, "points": [{"type": "Feature", "properties": {}, "geometry": {"type": "Point", "coordinates": [8.901193176236326, 45.5710689638264]}}], "price": 1.779, "ultima_rilevazione": "16/04/2022 08:11:50"}, {"Gestore": "IP SERVICES S.R.L.", "Bandiera": "Api-Ip", "Tipo impianto": "Altro", "Indirizzo": "Via fratelli Bandiera  ", "Nome impianto": "Canegrate", "Comune": "CANEGRATE", "idImpianto": 10086, "points": [{"type": "Feature", "properties": {}, "geometry": {"type": "Point", "coordinates": [8.933268785476685, 45.56434859566271]}}], "price": 1.699, "ultima_rilevazione": "16/04/2022 12:04:39"}, {"Gestore": "SPOIL S.P.A.", "Bandiera": "Pompe Bianche", "Tipo impianto": "Altro", "Indirizzo": "Via al Fornasone  85 20028", "Nome impianto": "SPOIL", "Comune": "SAN VITTORE OLONA", "idImpianto": 44123, "points": [{"type": "Feature", "properties": {}, "geometry": {"type": "Point", "coordinates": [8.930426444431873, 45.58443790821156]}}], "price": 1.709, "ultima_rilevazione": "17/04/2022 00:08:12"}], "3": [{"Gestore": "VINCI S.A.S. DI VINCI SALVATORE & C.", "Bandiera": "Agip Eni", "Tipo impianto": "Altro", "Indirizzo": "VIA NOVARA ANG. VIA SABOTINO  20025", "Nome impianto": "IMP. ENI LEGNANO VINCI SAS", "Comune": "LEGNANO", "idImpianto": 7946, "points": [{"type": "Feature", "properties": {}, "geometry": {"type": "Point", "coordinates": [8.899647295475006, 45.5907244858852]}}], "price": 2.214, "ultima_rilevazione": "15/04/2022 12:02:30"}, {"Gestore": "SERVIZI & GESTIONI ITALIA S.R.L.", "Bandiera": "Q8", "Tipo impianto": "Altro", "Indirizzo": "CORSO SEMPIONE  ANG.VIA VOLTA 160 20025", "Nome impianto": "LEGNANO-CORSO SEMPIONE 160 ANG.VIA VOLTA", "Comune": "LEGNANO", "idImpianto": 11657, "points": [{"type": "Feature", "properties": {}, "geometry": {"type": "Point", "coordinates": [8.918259766864821, 45.60017318891127]}}], "price": 1.779, "ultima_rilevazione": "14/04/2022 07:08:45"}, {"Gestore": "SERVIZI & GESTIONI ITALIA S.R.L.", "Bandiera": "Q8", "Tipo impianto": "Altro", "Indirizzo": "VIALE CADORNA 58 20025", "Nome impianto": "LEGNANO-VIALE CADORNA 58", "Comune": "LEGNANO", "idImpianto": 11673, "points": [{"type": "Feature", "properties": {}, "geometry": {"type": "Point", "coordinates": [8.93926352262497, 45.59818863369359]}}], "price": 1.769, "ultima_rilevazione": "14/04/2022 07:08:45"}, {"Gestore": "SERVIZI & GESTIONI ITALIA S.R.L.", "Bandiera": "Q8", "Tipo impianto": "Altro", "Indirizzo": "VIA SABOTINO 75 20025", "Nome impianto": "LEGNANO-VIA SABOTINO 75", "Comune": "LEGNANO", "idImpianto": 11683, "points": [{"type": "Feature", "properties": {}, "geometry": {"type": "Point", "coordinates": [8.90271335449222, 45.58602158677832]}}], "price": 1.779, "ultima_rilevazione": "14/04/2022 07:08:45"}, {"Gestore": "SERVIZI & GESTIONI ITALIA S.R.L.", "Bandiera": "Q8", "Tipo impianto": "Altro", "Indirizzo": "VIA XX SETTEMBRE 84 20025", "Nome impianto": "LEGNANO-VIA XX SETTEMBRE 84", "Comune": "LEGNANO", "idImpianto": 11691, "points": [{"type": "Feature", "properties": {}, "geometry": {"type": "Point", "coordinates": [8.910728746032646, 45.58447337466343]}}], "price": 1.779, "ultima_rilevazione": "14/04/2022 07:08:45"}, {"Gestore": "COBIDO CAR SERVICE DI DOLCE ANTONINO & C. S.N.C.", "Bandiera": "Agip Eni", "Tipo impianto": "Altro", "Indirizzo": "VIA LUIGI CADORNA 60 20025", "Nome impianto": "ENI 02308 LEGNANO CO.BI.DO. ", "Comune": "LEGNANO", "idImpianto": 24513, "points": [{"type": "Feature", "properties": {}, "geometry": {"type": "Point", "coordinates": [8.939912617206573, 45.59869121272512]}}], "price": 1.784, "ultima_rilevazione": "14/04/2022 09:57:24"}, {"Gestore": "CORNAREDO CARBURANTI S.R.L.", "Bandiera": "Repsol", "Tipo impianto": "Altro", "Indirizzo": "VIA SAN SEBASTIANO - FRAZ. VILLASTANZA 56 20015", "Nome impianto": "CORNAREDO CARBURANTI S.R.L. - PARABIAGO", "Comune": "PARABIAGO", "idImpianto": 32343, "points": [{"type": "Feature", "properties": {}, "geometry": {"type": "Point", "coordinates": [8.951702686979843, 45.54109760028135]}}], "price": 1.799, "ultima_rilevazione": "14/04/2022 16:29:19"}, {"Gestore": "SUSANI MARCO", "Bandiera": "Esso", "Tipo impianto": "Altro", "Indirizzo": "VIALE GUGLIELMO MARCONI 66, 20015", "Nome impianto": "STAZIONE DI SERVIZIO CARBURANTI ESSO", "Comune": "PARABIAGO", "idImpianto": 17785, "points": [{"type": "Feature", "properties": {}, "geometry": {"type": "Point", "coordinates": [8.953870765698184, 45.56241016951922]}}], "price": 1.749, "ultima_rilevazione": "15/04/2022 09:14:26"}, {"Gestore": "DE NIGRIS ANTONIO", "Bandiera": "Pompe Bianche", "Tipo impianto": "Altro", "Indirizzo": "VIA PIETRO MICCA 13 20020", "Nome impianto": "Occhio al prezzo", "Comune": "VILLA CORTESE", "idImpianto": 10058, "points": [{"type": "Feature", "properties": {}, "geometry": {"type": "Point", "coordinates": [8.889665101852415, 45.56317248850171]}}], "price": 1.739, "ultima_rilevazione": "15/04/2022 10:09:29"}, {"Gestore": "AMBROGIO MORO S.P.A.", "Bandiera": "Moro", "Tipo impianto": "Altro", "Indirizzo": "VIALE PIETRO TOSELLI 36 20025", "Nome impianto": "Moro_Legnano Pietro Toselli 36", "Comune": "LEGNANO", "idImpianto": 12752, "points": [{"type": "Feature", "properties": {}, "geometry": {"type": "Point", "coordinates": [8.928309175393679, 45.588954267111305]}}], "price": 1.697, "ultima_rilevazione": "15/04/2022 10:13:23"}, {"Gestore": "CASTELLUCCIO SERVICE S.A.S. DI NESCI ERNESTO & C.", "Bandiera": "Retitalia", "Tipo impianto": "Altro", "Indirizzo": "Viale Trento e Trieste 31 20023", "Nome impianto": "Retitalia PV 49313", "Comune": "CERRO MAGGIORE", "idImpianto": 49813, "points": [{"type": "Feature", "properties": {}, "geometry": {"type": "Point", "coordinates": [8.941980594418046, 45.59344750000002]}}], "price": 1.769, "ultima_rilevazione": "15/04/2022 13:03:36"}, {"Gestore": "COBIDO CAR SERVICE DI DOLCE ANTONINO & C. S.N.C.", "Bandiera": "Agip Eni", "Tipo impianto": "Altro", "Indirizzo": "S.S.SEMPIONE 22 20028", "Nome impianto": "ENI 2261 DI COBIDO CAR   SERVICE", "Comune": "SAN VITTORE OLONA", "idImpianto": 7399, "points": [{"type": "Feature", "properties": {}, "geometry": {"type": "Point", "coordinates": [8.935790061950684, 45.591472259122135]}}], "price": 1.799, "ultima_rilevazione": "15/04/2022 14:51:00"}, {"Gestore": "GUERRA SAVERIO", "Bandiera": "Agip Eni", "Tipo impianto": "Altro", "Indirizzo": "VIA LOMBARDIA  20015", "Nome impianto": "GUERRA SAVERIO IMPIANTO ENI", "Comune": "PARABIAGO", "idImpianto": 10476, "points": [{"type": "Feature", "properties": {}, "geometry": {"type": "Point", "coordinates": [8.956485986709595, 45.54327570741985]}}], "price": 1.759, "ultima_rilevazione": "15/04/2022 16:16:43"}, {"Gestore": "SERVIZI E GESTIONI ZENIT S.R.L. IN SIGLA - ZENIT S.R.L.", "Bandiera": "Esso", "Tipo impianto": "Altro", "Indirizzo": "VIA LEGNANO  20020", "Nome impianto": "VIA LEGNANO - BUSTO GAROLFO", "Comune": "BUSTO GAROLFO", "idImpianto": 35052, "points": [{"type": "Feature", "properties": {}, "geometry": {"type": "Point", "coordinates": [8.886666744947433, 45.55319164356803]}}], "price": 1.749, "ultima_rilevazione": "15/04/2022 17:33:55"}, {"Gestore": "SERVIZI & GESTIONI ITALIA S.R.L.", "Bandiera": "Q8", "Tipo impianto": "Altro", "Indirizzo": "VIA TOSELLI ANG. REPUBBLICA S/N 20025", "Nome impianto": "LEGNANO-VIA TOSELLI ANG. REPUBBLICA", "Comune": "LEGNANO", "idImpianto": 11690, "points": [{"type": "Feature", "properties": {}, "geometry": {"type": "Point", "coordinates": [8.926532944774635, 45.58783190986353]}}], "price": 1.729, "ultima_rilevazione": "16/04/2022 01:34:21"}, {"Gestore": "ENI FUEL S.P.A.", "Bandiera": "Agip Eni", "Tipo impianto": "Altro", "Indirizzo": "Via Marconi 64 20015", "Nome impianto": "2531 PARABIAGO", "Comune": "PARABIAGO", "idImpianto": 5416, "points": [{"type": "Feature", "properties": {}, "geometry": {"type": "Point", "coordinates": [8.953312818784866, 45.5619190150919]}}], "price": 1.759, "ultima_rilevazione": "16/04/2022 09:04:01"}, {"Gestore": "IP SERVICES S.R.L.", "Bandiera": "Api-Ip", "Tipo impianto": "Altro", "Indirizzo": "S.S. 33 SEMPIONE KM. 20,532  20014", "Nome impianto": "NERVIANO - S.S. 33 SEMPIONE", "Comune": "NERVIANO", "idImpianto": 32345, "points": [{"type": "Feature", "properties": {}, "geometry": {"type": "Point", "coordinates": [8.97055842576026, 45.56112159635151]}}], "price": 1.729, "ultima_rilevazione": "16/04/2022 12:01:10"}, {"Gestore": "IP SERVICES S.R.L.", "Bandiera": "Api-Ip", "Tipo impianto": "Altro", "Indirizzo": "VIA MARCONI 110 20015", "Nome impianto": "PARABIAGO - MARCONI", "Comune": "PARABIAGO", "idImpianto": 32281, "points": [{"type": "Feature", "properties": {}, "geometry": {"type": "Point", "coordinates": [8.955680100641871, 45.56402185134493]}}], "price": 1.709, "ultima_rilevazione": "16/04/2022 12:03:28"}, {"Gestore": "IP SERVICES S.R.L.", "Bandiera": "Api-Ip", "Tipo impianto": "Altro", "Indirizzo": "via Cadorna 34/A 20125", "Nome impianto": "LEGNANO", "Comune": "LEGNANO", "idImpianto": 5530, "points": [{"type": "Feature", "properties": {}, "geometry": {"type": "Point", "coordinates": [8.9372739370084, 45.59658459985469]}}], "price": 1.709, "ultima_rilevazione": "16/04/2022 12:04:25"}, {"Gestore": "IP SERVICES S.R.L.", "Bandiera": "Api-Ip", "Tipo impianto": "Altro", "Indirizzo": "Viale Lombardia  sp 109   ", "Nome impianto": "Parabiago", "Comune": "PARABIAGO", "idImpianto": 10095, "points": [{"type": "Feature", "properties": {}, "geometry": {"type": "Point", "coordinates": [8.932908028364182, 45.54657545332266]}}], "price": 1.699, "ultima_rilevazione": "16/04/2022 12:04:40"}, {"Gestore": "T.D.M. S.R.L.", "Bandiera": "Tamoil", "Tipo impianto": "Altro", "Indirizzo": "VIALE SABOTINO 156 20025", "Nome impianto": "8047", "Comune": "LEGNANO", "idImpianto": 48141, "points": [{"type": "Feature", "properties": {}, "geometry": {"type": "Point", "coordinates": [8.899011605522528, 45.59298829308605]}}], "price": 1.779, "ultima_rilevazione": "16/04/2022 13:04:09"}, {"Gestore": "T.D.M. S.R.L.", "Bandiera": "Tamoil", "Tipo impianto": "Altro", "Indirizzo": "Via Turati   20023", "Nome impianto": "8044", "Comune": "CERRO MAGGIORE", "idImpianto": 37689, "points": [{"type": "Feature", "properties": {}, "geometry": {"type": "Point", "coordinates": [8.943384736776352, 45.60082941459733]}}], "price": 1.779, "ultima_rilevazione": "16/04/2022 13:06:12"}, {"Gestore": "T.D.M. S.R.L.", "Bandiera": "Tamoil", "Tipo impianto": "Altro", "Indirizzo": "CORSO SEMPIONE 85 20025", "Nome impianto": "8048", "Comune": "LEGNANO", "idImpianto": 41667, "points": [{"type": "Feature", "properties": {}, "geometry": {"type": "Point", "coordinates": [8.926056991163932, 45.59534201762624]}}], "price": 1.779, "ultima_rilevazione": "16/04/2022 13:06:14"}], "5": [{"Gestore": "COVA TIZIANO", "Bandiera": "Api-Ip", "Tipo impianto": "Altro", "Indirizzo": "s.p.128 via Damiano Chiesa 39 20020", "Nome impianto": "Tiziano Cova", "Comune": "DAIRAGO", "idImpianto": 9933, "points": [{"type": "Feature", "properties": {}, "geometry": {"type": "Point", "coordinates": [8.862136602401733, 45.57415304515296]}}], "price": 2.359, "ultima_rilevazione": "10/03/2022 16:46:53"}, {"Gestore": "ESPOSTO FILIPPONE FRANCESCO", "Bandiera": "Pompe Bianche", "Tipo impianto": "Altro", "Indirizzo": "VIALE BOCCACCIO 101 21052", "Nome impianto": "ESPOSTO FILIPPONE FRANCESCO", "Comune": "BUSTO ARSIZIO", "idImpianto": 22654, "points": [{"type": "Feature", "properties": {}, "geometry": {"type": "Point", "coordinates": [8.858603230094104, 45.58908169614077]}}], "price": 1.768, "ultima_rilevazione": "14/04/2022 08:03:58"}, {"Gestore": "RIALTO S.P.A.", "Bandiera": "Pompe Bianche", "Tipo impianto": "Altro", "Indirizzo": "VIA PER BUSTO ARSIZIO 33 20025", "Nome impianto": "IL GIGANTE SELF 24H", "Comune": "LEGNANO", "idImpianto": 43583, "points": [{"type": "Feature", "properties": {}, "geometry": {"type": "Point", "coordinates": [8.901840000123, 45.605103000123]}}], "price": 1.689, "ultima_rilevazione": "14/04/2022 16:00:25"}, {"Gestore": "F.LLI GADDA S.N.C. DI GIUSEPPE E ANGELO GADDA", "Bandiera": "Sommese Petroli", "Tipo impianto": "Altro", "Indirizzo": "VIA DON MINZONI 32 21053", "Nome impianto": "FLLI GADDA SNC", "Comune": "CASTELLANZA", "idImpianto": 10479, "points": [{"type": "Feature", "properties": {}, "geometry": {"type": "Point", "coordinates": [8.889191312828075, 45.609014872721055]}}], "price": 1.749, "ultima_rilevazione": "15/04/2022 08:53:53"}, {"Gestore": "VELE S.A.S. DI VERDUCI ANTONINO & CC", "Bandiera": "Agip Eni", "Tipo impianto": "Altro", "Indirizzo": "VIA SARONNESE 51 20027", "Nome impianto": "Vele sas di Verduci Antonino & c", "Comune": "RESCALDINA", "idImpianto": 11118, "points": [{"type": "Feature", "properties": {}, "geometry": {"type": "Point", "coordinates": [8.940021041264345, 45.61118996647434]}}], "price": 1.794, "ultima_rilevazione": "15/04/2022 14:50:12"}, {"Gestore": "COOP LOMBARDIA SOCIETA' COOPERATIVA", "Bandiera": "Enercoop", "Tipo impianto": "Altro", "Indirizzo": "VIA ARCONATE 120 20020", "Nome impianto": "enercoop", "Comune": "BUSTO GAROLFO", "idImpianto": 48469, "points": [{"type": "Feature", "properties": {}, "geometry": {"type": "Point", "coordinates": [8.86991526391933, 45.54726255274761]}}], "price": 1.689, "ultima_rilevazione": "15/04/2022 15:09:30"}, {"Gestore": "KEROPETROL S.P.A.", "Bandiera": "KEROPETROL", "Tipo impianto": "Altro", "Indirizzo": "via 4 novembre  21040", "Nome impianto": "KEROPETROL SPA UBOLDO", "Comune": "UBOLDO", "idImpianto": 23842, "points": [{"type": "Feature", "properties": {}, "geometry": {"type": "Point", "coordinates": [8.979483246803284, 45.61317586572184]}}], "price": 1.699, "ultima_rilevazione": "15/04/2022 16:35:08"}, {"Gestore": "SERVIZI E GESTIONI ZENIT S.R.L. IN SIGLA - ZENIT S.R.L.", "Bandiera": "Giap", "Tipo impianto": "Altro", "Indirizzo": "S.P. PER LEGNANO ANG. VIA ZERBI  20027", "Nome impianto": "SP PER LEGNANO RESCALDINA", "Comune": "RESCALDINA", "idImpianto": 28622, "points": [{"type": "Feature", "properties": {}, "geometry": {"type": "Point", "coordinates": [8.949243351817131, 45.61403065711356]}}], "price": 1.719, "ultima_rilevazione": "15/04/2022 17:33:52"}, {"Gestore": "KEROPETROL S.P.A.", "Bandiera": "KEROPETROL", "Tipo impianto": "Altro", "Indirizzo": "VIALE TOSCANA 140 21052", "Nome impianto": "KEROPETROL SPA BUSTO ARSIZIO", "Comune": "BUSTO ARSIZIO", "idImpianto": 47231, "points": [{"type": "Feature", "properties": {}, "geometry": {"type": "Point", "coordinates": [8.865001201629639, 45.58010593089396]}}], "price": 1.739, "ultima_rilevazione": "15/04/2022 17:57:19"}, {"Gestore": "A.M.G. S.N.C. DI ANDREA DUO',  MAURO TURCONI E GIORGIO MARINI", "Bandiera": "Agip Eni", "Tipo impianto": "Strada Statale", "Indirizzo": "Statale 527 Bustese, Km. 47, dir. Rescaldina 20027", "Nome impianto": "AGIP", "Comune": "RESCALDINA", "idImpianto": 6182, "points": [{"type": "Feature", "properties": {}, "geometry": {"type": "Point", "coordinates": [8.959066271781921, 45.61236684136928]}}], "price": 1.794, "ultima_rilevazione": "15/04/2022 17:59:52"}, {"Gestore": "2-ELLE SNC DI TESCARO LUCA E PAPANDREA LUCA", "Bandiera": "Total Erg", "Tipo impianto": "Altro", "Indirizzo": "VIALE TOSCANA 103 21052", "Nome impianto": "Total erg  2-elle snc", "Comune": "BUSTO ARSIZIO", "idImpianto": 12887, "points": [{"type": "Feature", "properties": {}, "geometry": {"type": "Point", "coordinates": [8.859471538577509, 45.58097631145069]}}], "price": 1.757, "ultima_rilevazione": "15/04/2022 18:50:12"}, {"Gestore": "SERVIZI & GESTIONI ITALIA S.R.L.", "Bandiera": "Q8", "Tipo impianto": "Altro", "Indirizzo": "SS. 33 SEMPIONE KM.18+600 S/N 20014", "Nome impianto": "NERVIANO-SS. 33 SEMPIONE KM.18+600", "Comune": "NERVIANO", "idImpianto": 11658, "points": [{"type": "Feature", "properties": {}, "geometry": {"type": "Point", "coordinates": [8.989460932540851, 45.55000751325928]}}], "price": 1.759, "ultima_rilevazione": "16/04/2022 01:34:23"}, {"Gestore": "SERVIZI & GESTIONI ITALIA srl", "Bandiera": "Q8", "Tipo impianto": "Altro", "Indirizzo": "VIALE LOMBARDIA 27 21053", "Nome impianto": "CASTELLANZA VIALE LOMBARDIA 27", "Comune": "CASTELLANZA", "idImpianto": 6460, "points": [{"type": "Feature", "properties": {}, "geometry": {"type": "Point", "coordinates": [8.904368128241686, 45.61509008291705]}}], "price": 1.809, "ultima_rilevazione": "16/04/2022 01:34:28"}, {"Gestore": "ENI FUEL S.P.A.", "Bandiera": "Agip Eni", "Tipo impianto": "Altro", "Indirizzo": "PAPA GIOVANNI XXIII  20014", "Nome impianto": "2514 \u2013 Nerviano", "Comune": "NERVIANO", "idImpianto": 49790, "points": [{"type": "Feature", "properties": {}, "geometry": {"type": "Point", "coordinates": [8.980694983699001, 45.549712309697576]}}], "price": 1.759, "ultima_rilevazione": "16/04/2022 07:06:10"}, {"Gestore": "NUOVA SIDAP  S.R.L.", "Bandiera": "Esso", "Tipo impianto": "Strada Statale", "Indirizzo": "33 del Sempione, Km. 18+92, Nord 20014", "Nome impianto": "Nerviano", "Comune": "NERVIANO", "idImpianto": 43734, "points": [{"type": "Feature", "properties": {}, "geometry": {"type": "Point", "coordinates": [8.993886113166809, 45.548350551694746]}}], "price": 1.762, "ultima_rilevazione": "16/04/2022 07:46:15"}, {"Gestore": "IPERSTAROIL S.R.L.", "Bandiera": "Tamoil", "Tipo impianto": "Altro", "Indirizzo": "Via Alcide De Gasperi S/P 109  109 20014", "Nome impianto": "TAMOIL NERVIANO", "Comune": "NERVIANO", "idImpianto": 50914, "points": [{"type": "Feature", "properties": {}, "geometry": {"type": "Point", "coordinates": [8.987627501852401, 45.55416161629161]}}], "price": 1.739, "ultima_rilevazione": "16/04/2022 08:02:08"}, {"Gestore": "ENI FUEL S.P.A.", "Bandiera": "Agip Eni", "Tipo impianto": "Altro", "Indirizzo": "Via Don Minzoni 52 21053", "Nome impianto": "PV 2906 Castellanza", "Comune": "CASTELLANZA", "idImpianto": 39454, "points": [{"type": "Feature", "properties": {}, "geometry": {"type": "Point", "coordinates": [8.892793580889702, 45.60381865060999]}}], "price": 1.799, "ultima_rilevazione": "16/04/2022 09:06:03"}, {"Gestore": "IP SERVICES S.R.L.", "Bandiera": "Api-Ip", "Tipo impianto": "Altro", "Indirizzo": "Via Milano KM 27+576  21053", "Nome impianto": "CASTELLANZA", "Comune": "CASTELLANZA", "idImpianto": 5552, "points": [{"type": "Feature", "properties": {}, "geometry": {"type": "Point", "coordinates": [8.910448635581929, 45.60705975281448]}}], "price": 1.759, "ultima_rilevazione": "16/04/2022 12:04:03"}, {"Gestore": "IPERSTAROIL S.R.L.", "Bandiera": "Auchan", "Tipo impianto": "Altro", "Indirizzo": "VIA BERGAMO 19 20027", "Nome impianto": "Rescaldina", "Comune": "RESCALDINA", "idImpianto": 50294, "points": [{"type": "Feature", "properties": {}, "geometry": {"type": "Point", "coordinates": [8.96036037672642, 45.60983880462123]}}], "price": 1.689, "ultima_rilevazione": "16/04/2022 12:40:14"}, {"Gestore": "GESTIONI INNOVATIVE ITALIA S.R.L.", "Bandiera": "Agip Eni", "Tipo impianto": "Altro", "Indirizzo": "VIALE LOMBARDIA 72 21053", "Nome impianto": "PV 2857", "Comune": "CASTELLANZA", "idImpianto": 25132, "points": [{"type": "Feature", "properties": {}, "geometry": {"type": "Point", "coordinates": [8.910047560930252, 45.61004458384013]}}], "price": 1.799, "ultima_rilevazione": "17/04/2022 00:12:07"}]}, "Gasolio High Quality": {"1": [], "3": [], "5": []}, "null": {}, "GPL": {"1": [{"Gestore": "KEROPETROL S.P.A.", "Bandiera": "KEROPETROL", "Tipo impianto": "Altro", "Indirizzo": "Via Resegone snc 20015", "Nome impianto": "KEROPETROL SPA PARABIAGO", "Comune": "PARABIAGO", "idImpianto": 48490, "points": [{"type": "Feature", "properties": {}, "geometry": {"type": "Point", "coordinates": [8.943785056471825, 45.569222869311744]}}], "price": 0.859, "ultima_rilevazione": "15/04/2022 17:54:31"}, {"Gestore": "SPOIL S.P.A.", "Bandiera": "Pompe Bianche", "Tipo impianto": "Altro", "Indirizzo": "Via al Fornasone  85 20028", "Nome impianto": "SPOIL", "Comune": "SAN VITTORE OLONA", "idImpianto": 44123, "points": [{"type": "Feature", "properties": {}, "geometry": {"type": "Point", "coordinates": [8.930426444431873, 45.58443790821156]}}], "price": 0.859, "ultima_rilevazione": "17/04/2022 00:08:12"}], "3": [], "5": [{"Gestore": "GREEN FUEL COMPANY S.P.A.", "Bandiera": "Pompe Bianche", "Tipo impianto": "Altro", "Indirizzo": "VIA PER BUSTO 33/A 20025", "Nome impianto": "Green Fuel Company", "Comune": "LEGNANO", "idImpianto": 40979, "points": [{"type": "Feature", "properties": {}, "geometry": {"type": "Point", "coordinates": [8.901100646627128, 45.60498186476998]}}], "price": 0.899, "ultima_rilevazione": "14/04/2022 16:35:45"}, {"Gestore": "COOP LOMBARDIA SOCIETA' COOPERATIVA", "Bandiera": "Enercoop", "Tipo impianto": "Altro", "Indirizzo": "VIA ARCONATE 120 20020", "Nome impianto": "enercoop", "Comune": "BUSTO GAROLFO", "idImpianto": 48469, "points": [{"type": "Feature", "properties": {}, "geometry": {"type": "Point", "coordinates": [8.86991526391933, 45.54726255274761]}}], "price": 0.879, "ultima_rilevazione": "15/04/2022 15:09:30"}, {"Gestore": "KEROPETROL S.P.A.", "Bandiera": "KEROPETROL", "Tipo impianto": "Altro", "Indirizzo": "via 4 novembre  21040", "Nome impianto": "KEROPETROL SPA UBOLDO", "Comune": "UBOLDO", "idImpianto": 23842, "points": [{"type": "Feature", "properties": {}, "geometry": {"type": "Point", "coordinates": [8.979483246803284, 45.61317586572184]}}], "price": 0.869, "ultima_rilevazione": "15/04/2022 16:35:08"}, {"Gestore": "KEROPETROL S.P.A.", "Bandiera": "KEROPETROL", "Tipo impianto": "Altro", "Indirizzo": "VIALE TOSCANA 140 21052", "Nome impianto": "KEROPETROL SPA BUSTO ARSIZIO", "Comune": "BUSTO ARSIZIO", "idImpianto": 47231, "points": [{"type": "Feature", "properties": {}, "geometry": {"type": "Point", "coordinates": [8.865001201629639, 45.58010593089396]}}], "price": 0.929, "ultima_rilevazione": "15/04/2022 17:57:19"}]}, "Gasolio": {"1": [{"Gestore": "CORNAREDO CARBURANTI S.R.L.", "Bandiera": "Repsol", "Tipo impianto": "Altro", "Indirizzo": "STRADA PROVINCIALE 109 KM. 3,044  20020", "Nome impianto": "CORNAREDO CARBURANTI S.R.L. - BUSTO G.", "Comune": "BUSTO GAROLFO", "idImpianto": 31151, "points": [{"type": "Feature", "properties": {}, "geometry": {"type": "Point", "coordinates": [8.909874558448792, 45.54602244098786]}}], "price": 1.799, "ultima_rilevazione": "14/04/2022 11:05:06"}, {"Gestore": "KEROPETROL S.P.A.", "Bandiera": "KEROPETROL", "Tipo impianto": "Altro", "Indirizzo": "Via Resegone snc 20015", "Nome impianto": "KEROPETROL SPA PARABIAGO", "Comune": "PARABIAGO", "idImpianto": 48490, "points": [{"type": "Feature", "properties": {}, "geometry": {"type": "Point", "coordinates": [8.943785056471825, 45.569222869311744]}}], "price": 1.729, "ultima_rilevazione": "15/04/2022 17:54:31"}, {"Gestore": "IP SERVICES S.R.L.", "Bandiera": "Api-Ip", "Tipo impianto": "Altro", "Indirizzo": "Via fratelli Bandiera  ", "Nome impianto": "Canegrate", "Comune": "CANEGRATE", "idImpianto": 10086, "points": [{"type": "Feature", "properties": {}, "geometry": {"type": "Point", "coordinates": [8.933268785476685, 45.56434859566271]}}], "price": 1.709, "ultima_rilevazione": "16/04/2022 12:04:39"}, {"Gestore": "SPOIL S.P.A.", "Bandiera": "Pompe Bianche", "Tipo impianto": "Altro", "Indirizzo": "Via al Fornasone  85 20028", "Nome impianto": "SPOIL", "Comune": "SAN VITTORE OLONA", "idImpianto": 44123, "points": [{"type": "Feature", "properties": {}, "geometry": {"type": "Point", "coordinates": [8.930426444431873, 45.58443790821156]}}], "price": 1.719, "ultima_rilevazione": "17/04/2022 00:08:12"}], "3": [{"Gestore": "VINCI S.A.S. DI VINCI SALVATORE & C.", "Bandiera": "Agip Eni", "Tipo impianto": "Altro", "Indirizzo": "VIA NOVARA ANG. VIA SABOTINO  20025", "Nome impianto": "IMP. ENI LEGNANO VINCI SAS", "Comune": "LEGNANO", "idImpianto": 7946, "points": [{"type": "Feature", "properties": {}, "geometry": {"type": "Point", "coordinates": [8.899647295475006, 45.5907244858852]}}], "price": 2.184, "ultima_rilevazione": "15/04/2022 12:02:30"}, {"Gestore": "SERVIZI & GESTIONI ITALIA S.R.L.", "Bandiera": "Q8", "Tipo impianto": "Altro", "Indirizzo": "CORSO SEMPIONE  ANG.VIA VOLTA 160 20025", "Nome impianto": "LEGNANO-CORSO SEMPIONE 160 ANG.VIA VOLTA", "Comune": "LEGNANO", "idImpianto": 11657, "points": [{"type": "Feature", "properties": {}, "geometry": {"type": "Point", "coordinates": [8.918259766864821, 45.60017318891127]}}], "price": 1.779, "ultima_rilevazione": "14/04/2022 07:08:45"}, {"Gestore": "SERVIZI & GESTIONI ITALIA S.R.L.", "Bandiera": "Q8", "Tipo impianto": "Altro", "Indirizzo": "VIALE CADORNA 58 20025", "Nome impianto": "LEGNANO-VIALE CADORNA 58", "Comune": "LEGNANO", "idImpianto": 11673, "points": [{"type": "Feature", "properties": {}, "geometry": {"type": "Point", "coordinates": [8.93926352262497, 45.59818863369359]}}], "price": 1.759, "ultima_rilevazione": "14/04/2022 07:08:45"}, {"Gestore": "SERVIZI & GESTIONI ITALIA S.R.L.", "Bandiera": "Q8", "Tipo impianto": "Altro", "Indirizzo": "VIA SABOTINO 75 20025", "Nome impianto": "LEGNANO-VIA SABOTINO 75", "Comune": "LEGNANO", "idImpianto": 11683, "points": [{"type": "Feature", "properties": {}, "geometry": {"type": "Point", "coordinates": [8.90271335449222, 45.58602158677832]}}], "price": 1.779, "ultima_rilevazione": "14/04/2022 07:08:45"}, {"Gestore": "SERVIZI & GESTIONI ITALIA S.R.L.", "Bandiera": "Q8", "Tipo impianto": "Altro", "Indirizzo": "VIA XX SETTEMBRE 84 20025", "Nome impianto": "LEGNANO-VIA XX SETTEMBRE 84", "Comune": "LEGNANO", "idImpianto": 11691, "points": [{"type": "Feature", "properties": {}, "geometry": {"type": "Point", "coordinates": [8.910728746032646, 45.58447337466343]}}], "price": 1.779, "ultima_rilevazione": "14/04/2022 07:08:45"}, {"Gestore": "COBIDO CAR SERVICE DI DOLCE ANTONINO & C. S.N.C.", "Bandiera": "Agip Eni", "Tipo impianto": "Altro", "Indirizzo": "VIA LUIGI CADORNA 60 20025", "Nome impianto": "ENI 02308 LEGNANO CO.BI.DO. ", "Comune": "LEGNANO", "idImpianto": 24513, "points": [{"type": "Feature", "properties": {}, "geometry": {"type": "Point", "coordinates": [8.939912617206573, 45.59869121272512]}}], "price": 1.754, "ultima_rilevazione": "14/04/2022 09:57:24"}, {"Gestore": "CORNAREDO CARBURANTI S.R.L.", "Bandiera": "Repsol", "Tipo impianto": "Altro", "Indirizzo": "VIA SAN SEBASTIANO - FRAZ. VILLASTANZA 56 20015", "Nome impianto": "CORNAREDO CARBURANTI S.R.L. - PARABIAGO", "Comune": "PARABIAGO", "idImpianto": 32343, "points": [{"type": "Feature", "properties": {}, "geometry": {"type": "Point", "coordinates": [8.951702686979843, 45.54109760028135]}}], "price": 1.799, "ultima_rilevazione": "14/04/2022 16:29:19"}, {"Gestore": "SUSANI MARCO", "Bandiera": "Esso", "Tipo impianto": "Altro", "Indirizzo": "VIALE GUGLIELMO MARCONI 66, 20015", "Nome impianto": "STAZIONE DI SERVIZIO CARBURANTI ESSO", "Comune": "PARABIAGO", "idImpianto": 17785, "points": [{"type": "Feature", "properties": {}, "geometry": {"type": "Point", "coordinates": [8.953870765698184, 45.56241016951922]}}], "price": 1.759, "ultima_rilevazione": "15/04/2022 09:14:26"}, {"Gestore": "DE NIGRIS ANTONIO", "Bandiera": "Pompe Bianche", "Tipo impianto": "Altro", "Indirizzo": "VIA PIETRO MICCA 13 20020", "Nome impianto": "Occhio al prezzo", "Comune": "VILLA CORTESE", "idImpianto": 10058, "points": [{"type": "Feature", "properties": {}, "geometry": {"type": "Point", "coordinates": [8.889665101852415, 45.56317248850171]}}], "price": 1.759, "ultima_rilevazione": "15/04/2022 10:09:29"}, {"Gestore": "AMBROGIO MORO S.P.A.", "Bandiera": "Moro", "Tipo impianto": "Altro", "Indirizzo": "VIALE PIETRO TOSELLI 36 20025", "Nome impianto": "Moro_Legnano Pietro Toselli 36", "Comune": "LEGNANO", "idImpianto": 12752, "points": [{"type": "Feature", "properties": {}, "geometry": {"type": "Point", "coordinates": [8.928309175393679, 45.588954267111305]}}], "price": 1.717, "ultima_rilevazione": "15/04/2022 10:13:23"}, {"Gestore": "CASTELLUCCIO SERVICE S.A.S. DI NESCI ERNESTO & C.", "Bandiera": "Retitalia", "Tipo impianto": "Altro", "Indirizzo": "Viale Trento e Trieste 31 20023", "Nome impianto": "Retitalia PV 49313", "Comune": "CERRO MAGGIORE", "idImpianto": 49813, "points": [{"type": "Feature", "properties": {}, "geometry": {"type": "Point", "coordinates": [8.941980594418046, 45.59344750000002]}}], "price": 1.799, "ultima_rilevazione": "15/04/2022 13:03:36"}, {"Gestore": "COBIDO CAR SERVICE DI DOLCE ANTONINO & C. S.N.C.", "Bandiera": "Agip Eni", "Tipo impianto": "Altro", "Indirizzo": "S.S.SEMPIONE 22 20028", "Nome impianto": "ENI 2261 DI COBIDO CAR   SERVICE", "Comune": "SAN VITTORE OLONA", "idImpianto": 7399, "points": [{"type": "Feature", "properties": {}, "geometry": {"type": "Point", "coordinates": [8.935790061950684, 45.591472259122135]}}], "price": 1.769, "ultima_rilevazione": "15/04/2022 14:51:00"}, {"Gestore": "GUERRA SAVERIO", "Bandiera": "Agip Eni", "Tipo impianto": "Altro", "Indirizzo": "VIA LOMBARDIA  20015", "Nome impianto": "GUERRA SAVERIO IMPIANTO ENI", "Comune": "PARABIAGO", "idImpianto": 10476, "points": [{"type": "Feature", "properties": {}, "geometry": {"type": "Point", "coordinates": [8.956485986709595, 45.54327570741985]}}], "price": 1.809, "ultima_rilevazione": "15/04/2022 16:16:43"}, {"Gestore": "SERVIZI E GESTIONI ZENIT S.R.L. IN SIGLA - ZENIT S.R.L.", "Bandiera": "Esso", "Tipo impianto": "Altro", "Indirizzo": "VIA LEGNANO  20020", "Nome impianto": "VIA LEGNANO - BUSTO GAROLFO", "Comune": "BUSTO GAROLFO", "idImpianto": 35052, "points": [{"type": "Feature", "properties": {}, "geometry": {"type": "Point", "coordinates": [8.886666744947433, 45.55319164356803]}}], "price": 1.769, "ultima_rilevazione": "15/04/2022 17:33:55"}, {"Gestore": "SERVIZI & GESTIONI ITALIA S.R.L.", "Bandiera": "Q8", "Tipo impianto": "Altro", "Indirizzo": "VIA TOSELLI ANG. REPUBBLICA S/N 20025", "Nome impianto": "LEGNANO-VIA TOSELLI ANG. REPUBBLICA", "Comune": "LEGNANO", "idImpianto": 11690, "points": [{"type": "Feature", "properties": {}, "geometry": {"type": "Point", "coordinates": [8.926532944774635, 45.58783190986353]}}], "price": 1.739, "ultima_rilevazione": "16/04/2022 01:34:21"}, {"Gestore": "ENI FUEL S.P.A.", "Bandiera": "Agip Eni", "Tipo impianto": "Altro", "Indirizzo": "Via Marconi 64 20015", "Nome impianto": "2531 PARABIAGO", "Comune": "PARABIAGO", "idImpianto": 5416, "points": [{"type": "Feature", "properties": {}, "geometry": {"type": "Point", "coordinates": [8.953312818784866, 45.5619190150919]}}], "price": 1.749, "ultima_rilevazione": "16/04/2022 09:04:01"}, {"Gestore": "IP SERVICES S.R.L.", "Bandiera": "Api-Ip", "Tipo impianto": "Altro", "Indirizzo": "S.S. 33 SEMPIONE KM. 20,532  20014", "Nome impianto": "NERVIANO - S.S. 33 SEMPIONE", "Comune": "NERVIANO", "idImpianto": 32345, "points": [{"type": "Feature", "properties": {}, "geometry": {"type": "Point", "coordinates": [8.97055842576026, 45.56112159635151]}}], "price": 1.749, "ultima_rilevazione": "16/04/2022 12:01:10"}, {"Gestore": "IP SERVICES S.R.L.", "Bandiera": "Api-Ip", "Tipo impianto": "Altro", "Indirizzo": "VIA MARCONI 110 20015", "Nome impianto": "PARABIAGO - MARCONI", "Comune": "PARABIAGO", "idImpianto": 32281, "points": [{"type": "Feature", "properties": {}, "geometry": {"type": "Point", "coordinates": [8.955680100641871, 45.56402185134493]}}], "price": 1.709, "ultima_rilevazione": "16/04/2022 12:03:28"}, {"Gestore": "IP SERVICES S.R.L.", "Bandiera": "Api-Ip", "Tipo impianto": "Altro", "Indirizzo": "via Cadorna 34/A 20125", "Nome impianto": "LEGNANO", "Comune": "LEGNANO", "idImpianto": 5530, "points": [{"type": "Feature", "properties": {}, "geometry": {"type": "Point", "coordinates": [8.9372739370084, 45.59658459985469]}}], "price": 1.719, "ultima_rilevazione": "16/04/2022 12:04:25"}, {"Gestore": "IP SERVICES S.R.L.", "Bandiera": "Api-Ip", "Tipo impianto": "Altro", "Indirizzo": "Viale Lombardia  sp 109   ", "Nome impianto": "Parabiago", "Comune": "PARABIAGO", "idImpianto": 10095, "points": [{"type": "Feature", "properties": {}, "geometry": {"type": "Point", "coordinates": [8.932908028364182, 45.54657545332266]}}], "price": 1.719, "ultima_rilevazione": "16/04/2022 12:04:40"}, {"Gestore": "T.D.M. S.R.L.", "Bandiera": "Tamoil", "Tipo impianto": "Altro", "Indirizzo": "VIALE SABOTINO 156 20025", "Nome impianto": "8047", "Comune": "LEGNANO", "idImpianto": 48141, "points": [{"type": "Feature", "properties": {}, "geometry": {"type": "Point", "coordinates": [8.899011605522528, 45.59298829308605]}}], "price": 1.789, "ultima_rilevazione": "16/04/2022 13:04:09"}, {"Gestore": "T.D.M. S.R.L.", "Bandiera": "Tamoil", "Tipo impianto": "Altro", "Indirizzo": "Via Turati   20023", "Nome impianto": "8044", "Comune": "CERRO MAGGIORE", "idImpianto": 37689, "points": [{"type": "Feature", "properties": {}, "geometry": {"type": "Point", "coordinates": [8.943384736776352, 45.60082941459733]}}], "price": 1.789, "ultima_rilevazione": "16/04/2022 13:06:12"}, {"Gestore": "T.D.M. S.R.L.", "Bandiera": "Tamoil", "Tipo impianto": "Altro", "Indirizzo": "CORSO SEMPIONE 85 20025", "Nome impianto": "8048", "Comune": "LEGNANO", "idImpianto": 41667, "points": [{"type": "Feature", "properties": {}, "geometry": {"type": "Point", "coordinates": [8.926056991163932, 45.59534201762624]}}], "price": 1.789, "ultima_rilevazione": "16/04/2022 13:06:14"}], "5": [{"Gestore": "COVA TIZIANO", "Bandiera": "Api-Ip", "Tipo impianto": "Altro", "Indirizzo": "s.p.128 via Damiano Chiesa 39 20020", "Nome impianto": "Tiziano Cova", "Comune": "DAIRAGO", "idImpianto": 9933, "points": [{"type": "Feature", "properties": {}, "geometry": {"type": "Point", "coordinates": [8.862136602401733, 45.57415304515296]}}], "price": 2.369, "ultima_rilevazione": "10/03/2022 16:46:53"}, {"Gestore": "ESPOSTO FILIPPONE FRANCESCO", "Bandiera": "Pompe Bianche", "Tipo impianto": "Altro", "Indirizzo": "VIALE BOCCACCIO 101 21052", "Nome impianto": "ESPOSTO FILIPPONE FRANCESCO", "Comune": "BUSTO ARSIZIO", "idImpianto": 22654, "points": [{"type": "Feature", "properties": {}, "geometry": {"type": "Point", "coordinates": [8.858603230094104, 45.58908169614077]}}], "price": 1.758, "ultima_rilevazione": "14/04/2022 08:03:58"}, {"Gestore": "RIALTO S.P.A.", "Bandiera": "Pompe Bianche", "Tipo impianto": "Altro", "Indirizzo": "VIA PER BUSTO ARSIZIO 33 20025", "Nome impianto": "IL GIGANTE SELF 24H", "Comune": "LEGNANO", "idImpianto": 43583, "points": [{"type": "Feature", "properties": {}, "geometry": {"type": "Point", "coordinates": [8.901840000123, 45.605103000123]}}], "price": 1.719, "ultima_rilevazione": "14/04/2022 16:00:25"}, {"Gestore": "F.LLI GADDA S.N.C. DI GIUSEPPE E ANGELO GADDA", "Bandiera": "Sommese Petroli", "Tipo impianto": "Altro", "Indirizzo": "VIA DON MINZONI 32 21053", "Nome impianto": "FLLI GADDA SNC", "Comune": "CASTELLANZA", "idImpianto": 10479, "points": [{"type": "Feature", "properties": {}, "geometry": {"type": "Point", "coordinates": [8.889191312828075, 45.609014872721055]}}], "price": 1.769, "ultima_rilevazione": "15/04/2022 08:53:53"}, {"Gestore": "VELE S.A.S. DI VERDUCI ANTONINO & CC", "Bandiera": "Agip Eni", "Tipo impianto": "Altro", "Indirizzo": "VIA SARONNESE 51 20027", "Nome impianto": "Vele sas di Verduci Antonino & c", "Comune": "RESCALDINA", "idImpianto": 11118, "points": [{"type": "Feature", "properties": {}, "geometry": {"type": "Point", "coordinates": [8.940021041264345, 45.61118996647434]}}], "price": 1.764, "ultima_rilevazione": "15/04/2022 14:50:12"}, {"Gestore": "COOP LOMBARDIA SOCIETA' COOPERATIVA", "Bandiera": "Enercoop", "Tipo impianto": "Altro", "Indirizzo": "VIA ARCONATE 120 20020", "Nome impianto": "enercoop", "Comune": "BUSTO GAROLFO", "idImpianto": 48469, "points": [{"type": "Feature", "properties": {}, "geometry": {"type": "Point", "coordinates": [8.86991526391933, 45.54726255274761]}}], "price": 1.719, "ultima_rilevazione": "15/04/2022 15:09:30"}, {"Gestore": "KEROPETROL S.P.A.", "Bandiera": "KEROPETROL", "Tipo impianto": "Altro", "Indirizzo": "via 4 novembre  21040", "Nome impianto": "KEROPETROL SPA UBOLDO", "Comune": "UBOLDO", "idImpianto": 23842, "points": [{"type": "Feature", "properties": {}, "geometry": {"type": "Point", "coordinates": [8.979483246803284, 45.61317586572184]}}], "price": 1.749, "ultima_rilevazione": "15/04/2022 16:35:08"}, {"Gestore": "SERVIZI E GESTIONI ZENIT S.R.L. IN SIGLA - ZENIT S.R.L.", "Bandiera": "Giap", "Tipo impianto": "Altro", "Indirizzo": "S.P. PER LEGNANO ANG. VIA ZERBI  20027", "Nome impianto": "SP PER LEGNANO RESCALDINA", "Comune": "RESCALDINA", "idImpianto": 28622, "points": [{"type": "Feature", "properties": {}, "geometry": {"type": "Point", "coordinates": [8.949243351817131, 45.61403065711356]}}], "price": 1.749, "ultima_rilevazione": "15/04/2022 17:33:52"}, {"Gestore": "KEROPETROL S.P.A.", "Bandiera": "KEROPETROL", "Tipo impianto": "Altro", "Indirizzo": "VIALE TOSCANA 140 21052", "Nome impianto": "KEROPETROL SPA BUSTO ARSIZIO", "Comune": "BUSTO ARSIZIO", "idImpianto": 47231, "points": [{"type": "Feature", "properties": {}, "geometry": {"type": "Point", "coordinates": [8.865001201629639, 45.58010593089396]}}], "price": 1.744, "ultima_rilevazione": "15/04/2022 17:57:19"}, {"Gestore": "A.M.G. S.N.C. DI ANDREA DUO',  MAURO TURCONI E GIORGIO MARINI", "Bandiera": "Agip Eni", "Tipo impianto": "Strada Statale", "Indirizzo": "Statale 527 Bustese, Km. 47, dir. Rescaldina 20027", "Nome impianto": "AGIP", "Comune": "RESCALDINA", "idImpianto": 6182, "points": [{"type": "Feature", "properties": {}, "geometry": {"type": "Point", "coordinates": [8.959066271781921, 45.61236684136928]}}], "price": 1.764, "ultima_rilevazione": "15/04/2022 17:59:52"}, {"Gestore": "2-ELLE SNC DI TESCARO LUCA E PAPANDREA LUCA", "Bandiera": "Total Erg", "Tipo impianto": "Altro", "Indirizzo": "VIALE TOSCANA 103 21052", "Nome impianto": "Total erg  2-elle snc", "Comune": "BUSTO ARSIZIO", "idImpianto": 12887, "points": [{"type": "Feature", "properties": {}, "geometry": {"type": "Point", "coordinates": [8.859471538577509, 45.58097631145069]}}], "price": 1.747, "ultima_rilevazione": "15/04/2022 18:50:12"}, {"Gestore": "SERVIZI & GESTIONI ITALIA S.R.L.", "Bandiera": "Q8", "Tipo impianto": "Altro", "Indirizzo": "SS. 33 SEMPIONE KM.18+600 S/N 20014", "Nome impianto": "NERVIANO-SS. 33 SEMPIONE KM.18+600", "Comune": "NERVIANO", "idImpianto": 11658, "points": [{"type": "Feature", "properties": {}, "geometry": {"type": "Point", "coordinates": [8.989460932540851, 45.55000751325928]}}], "price": 1.769, "ultima_rilevazione": "16/04/2022 01:34:23"}, {"Gestore": "SERVIZI & GESTIONI ITALIA srl", "Bandiera": "Q8", "Tipo impianto": "Altro", "Indirizzo": "VIALE LOMBARDIA 27 21053", "Nome impianto": "CASTELLANZA VIALE LOMBARDIA 27", "Comune": "CASTELLANZA", "idImpianto": 6460, "points": [{"type": "Feature", "properties": {}, "geometry": {"type": "Point", "coordinates": [8.904368128241686, 45.61509008291705]}}], "price": 1.779, "ultima_rilevazione": "16/04/2022 01:34:28"}, {"Gestore": "ENI FUEL S.P.A.", "Bandiera": "Agip Eni", "Tipo impianto": "Altro", "Indirizzo": "PAPA GIOVANNI XXIII  20014", "Nome impianto": "2514 \u2013 Nerviano", "Comune": "NERVIANO", "idImpianto": 49790, "points": [{"type": "Feature", "properties": {}, "geometry": {"type": "Point", "coordinates": [8.980694983699001, 45.549712309697576]}}], "price": 1.809, "ultima_rilevazione": "16/04/2022 07:06:10"}, {"Gestore": "NUOVA SIDAP  S.R.L.", "Bandiera": "Esso", "Tipo impianto": "Strada Statale", "Indirizzo": "33 del Sempione, Km. 18+92, Nord 20014", "Nome impianto": "Nerviano", "Comune": "NERVIANO", "idImpianto": 43734, "points": [{"type": "Feature", "properties": {}, "geometry": {"type": "Point", "coordinates": [8.993886113166809, 45.548350551694746]}}], "price": 1.792, "ultima_rilevazione": "16/04/2022 07:46:15"}, {"Gestore": "IPERSTAROIL S.R.L.", "Bandiera": "Tamoil", "Tipo impianto": "Altro", "Indirizzo": "Via Alcide De Gasperi S/P 109  109 20014", "Nome impianto": "TAMOIL NERVIANO", "Comune": "NERVIANO", "idImpianto": 50914, "points": [{"type": "Feature", "properties": {}, "geometry": {"type": "Point", "coordinates": [8.987627501852401, 45.55416161629161]}}], "price": 1.759, "ultima_rilevazione": "16/04/2022 08:02:08"}, {"Gestore": "ENI FUEL S.P.A.", "Bandiera": "Agip Eni", "Tipo impianto": "Altro", "Indirizzo": "Via Don Minzoni 52 21053", "Nome impianto": "PV 2906 Castellanza", "Comune": "CASTELLANZA", "idImpianto": 39454, "points": [{"type": "Feature", "properties": {}, "geometry": {"type": "Point", "coordinates": [8.892793580889702, 45.60381865060999]}}], "price": 1.769, "ultima_rilevazione": "16/04/2022 09:06:03"}, {"Gestore": "IP SERVICES S.R.L.", "Bandiera": "Api-Ip", "Tipo impianto": "Altro", "Indirizzo": "Via Milano KM 27+576  21053", "Nome impianto": "CASTELLANZA", "Comune": "CASTELLANZA", "idImpianto": 5552, "points": [{"type": "Feature", "properties": {}, "geometry": {"type": "Point", "coordinates": [8.910448635581929, 45.60705975281448]}}], "price": 1.749, "ultima_rilevazione": "16/04/2022 12:04:03"}, {"Gestore": "IPERSTAROIL S.R.L.", "Bandiera": "Auchan", "Tipo impianto": "Altro", "Indirizzo": "VIA BERGAMO 19 20027", "Nome impianto": "Rescaldina", "Comune": "RESCALDINA", "idImpianto": 50294, "points": [{"type": "Feature", "properties": {}, "geometry": {"type": "Point", "coordinates": [8.96036037672642, 45.60983880462123]}}], "price": 1.719, "ultima_rilevazione": "16/04/2022 12:40:14"}, {"Gestore": "GESTIONI INNOVATIVE ITALIA S.R.L.", "Bandiera": "Agip Eni", "Tipo impianto": "Altro", "Indirizzo": "VIALE LOMBARDIA 72 21053", "Nome impianto": "PV 2857", "Comune": "CASTELLANZA", "idImpianto": 25132, "points": [{"type": "Feature", "properties": {}, "geometry": {"type": "Point", "coordinates": [8.910047560930252, 45.61004458384013]}}], "price": 1.769, "ultima_rilevazione": "17/04/2022 00:12:07"}]}, "Metano": {"1": [], "3": [], "5": [{"Gestore": "GREEN FUEL COMPANY S.P.A.", "Bandiera": "Pompe Bianche", "Tipo impianto": "Altro", "Indirizzo": "VIA PER BUSTO 33/A 20025", "Nome impianto": "Green Fuel Company", "Comune": "LEGNANO", "idImpianto": 40979, "points": [{"type": "Feature", "properties": {}, "geometry": {"type": "Point", "coordinates": [8.901100646627128, 45.60498186476998]}}], "price": 1.54, "ultima_rilevazione": "14/04/2022 16:35:45"}, {"Gestore": "METANO LEGNANO SNC DI CIRIGNANO CLAUDIO & C.", "Bandiera": "Agip Eni", "Tipo impianto": "Altro", "Indirizzo": "VIA PERGOLESI 11 20010", "Nome impianto": "metano legnano", "Comune": "LEGNANO", "idImpianto": 31779, "points": [{"type": "Feature", "properties": {}, "geometry": {"type": "Point", "coordinates": [8.918963058860754, 45.61015286221418]}}], "price": 2.8, "ultima_rilevazione": "15/04/2022 09:11:26"}, {"Gestore": "VELE S.A.S. DI VERDUCI ANTONINO & CC", "Bandiera": "Agip Eni", "Tipo impianto": "Altro", "Indirizzo": "VIA SARONNESE 51 20027", "Nome impianto": "Vele sas di Verduci Antonino & c", "Comune": "RESCALDINA", "idImpianto": 11118, "points": [{"type": "Feature", "properties": {}, "geometry": {"type": "Point", "coordinates": [8.940021041264345, 45.61118996647434]}}], "price": 1.899, "ultima_rilevazione": "15/04/2022 14:50:12"}, {"Gestore": "KEROPETROL S.P.A.", "Bandiera": "KEROPETROL", "Tipo impianto": "Altro", "Indirizzo": "via 4 novembre  21040", "Nome impianto": "KEROPETROL SPA UBOLDO", "Comune": "UBOLDO", "idImpianto": 23842, "points": [{"type": "Feature", "properties": {}, "geometry": {"type": "Point", "coordinates": [8.979483246803284, 45.61317586572184]}}], "price": 2.229, "ultima_rilevazione": "15/04/2022 16:35:08"}]}}