{"area_comune": "[{\"type\": \"Feature\", \"properties\": {}, \"geometry\": {\"type\": \"Polygon\", \"coordinates\": [[[9.038066530364697, 45.61090892376333], [9.042964491776615, 45.610493142516845], [9.050567035140023, 45.60903187717915], [9.051926327317753, 45.60892326396203], [9.057580944511994, 45.60881704901879], [9.058112835709563, 45.60951667477142], [9.06132363097168, 45.60768997261804], [9.06065277662515, 45.60435100403787], [9.06037860170687, 45.60016572159386], [9.06320873118209, 45.59765294633426], [9.063835384162104, 45.58786837614684], [9.06413150044609, 45.5867719373947], [9.06443251332127, 45.58200864825763], [9.062986989156173, 45.58033942732141], [9.057706360447233, 45.58139566868524], [9.050828960133218, 45.58059388381189], [9.050134751491036, 45.58015218705779], [9.049547074973674, 45.57746923757111], [9.046001292095301, 45.57733392841922], [9.034804888811985, 45.582396555462026], [9.0269335706002, 45.586155071635616], [9.026665881615386, 45.5885223787682], [9.025666151704195, 45.58846859727886], [9.028001641013482, 45.59273899793749], [9.0306064438058, 45.59607766417828], [9.030786368475148, 45.59685169227266], [9.02850650635985, 45.59994860123126], [9.02763482653557, 45.60047987756736], [9.026802914087797, 45.602883315342936], [9.026739933822142, 45.6044224845543], [9.027612598041435, 45.60580841003625], [9.028946972143075, 45.607158211292756], [9.030601959108862, 45.60845391712707], [9.038066530364697, 45.61090892376333]]]}}]", "comune": "caronno-pertusella", "buffer_1": "[{\"type\": \"Feature\", \"properties\": {}, \"geometry\": {\"type\": \"Polygon\", \"coordinates\": [[[9.02995848796834, 45.617883119850724], [9.030966038437784, 45.61840469201516], [9.03204127064259, 45.6188548357316], [9.033173936864358, 45.61922926020603], [9.034353241220524, 45.61952439632729], [9.035567942667628, 45.61973743073215], [9.036806462276061, 45.61986633265937], [9.038056993747695, 45.61990987333451], [9.039307616116096, 45.61986763769971], [9.040546407547607, 45.619740028375915], [9.063807015715483, 45.616520575478724], [9.064992305389154, 45.61631481245618], [9.06614433227814, 45.61603087508146], [9.067252651963539, 45.61567133770087], [9.06830721682661, 45.61523946003947], [9.069298467229622, 45.6147391576089], [9.07021741824444, 45.614174966164946], [9.071055741139478, 45.61355200053889], [9.071805838884368, 45.61287590821824], [9.072460914987149, 45.61215281809974], [9.073015035040553, 45.61138928488154], [9.073463180421385, 45.61059222960082], [9.073801293659214, 45.60976887685794], [9.074026315067428, 45.60892668929789], [9.074136210309634, 45.608073299944515], [9.075793357010202, 45.580722573916816], [9.075785462290611, 45.57984423001365], [9.075655693549948, 45.57897060839007], [9.075405292110435, 45.57811002795563], [9.07503664772023, 45.57727068306412], [9.074553275597829, 45.576460565510125], [9.073959782779161, 45.57568738846723], [9.073261824094574, 45.57495851309063], [9.072466048200667, 45.57428087848119], [9.07158003418542, 45.57366093567531], [9.070612219353324, 45.573104586286824], [9.069571818879778, 45.572617126382], [9.068468738099812, 45.57220319611984], [9.067313478264715, 45.57186673563385], [9.066117036660936, 45.5716109475733], [9.04913380455748, 45.56860590844327], [9.047830640636201, 45.56842507369668], [9.04650783114263, 45.56833994238013], [9.045179581882588, 45.56835142873222], [9.043860156997292, 45.568459409402436], [9.04256372599823, 45.56866272477386], [9.04130421181101, 45.568959191398875], [9.04009514144868, 45.56934562541539], [9.038949500907668, 45.569817876693634], [9.019883218093968, 45.57863785429777], [9.01886870428843, 45.57915880583511], [9.017931701031861, 45.57974701708124], [9.01708121646289, 45.580396834693644], [9.016325428018616, 45.581102013023134], [9.01567160379445, 45.58185577408571], [9.015126032604197, 45.58265087265548], [9.014693963415153, 45.58347966585525], [9.014379554744398, 45.58433418657853], [9.01418583450805, 45.585206220039254], [9.014114670716014, 45.58608738271533], [9.013916874388443, 45.60435477460217], [9.013970391724353, 45.605247509359465], [9.014149752017442, 45.60613212065133], [9.01445319351568, 45.606999890495146], [9.014877731266258, 45.60784226648923], [9.01541918632183, 45.6086509461303], [9.016072226738576, 45.609417958681995], [9.016830419969287, 45.61013574378554], [9.017686296141067, 45.6107972260354], [9.018631421598554, 45.61139588478224], [9.02995848796834, 45.617883119850724]]]}}]", "buffer_3": "[{\"type\": \"Feature\", \"properties\": {}, \"geometry\": {\"type\": \"Polygon\", \"coordinates\": [[[9.013736371434081, 45.631829760695425], [9.016759377444659, 45.633394875709634], [9.019985644697481, 45.6347456738707], [9.023384408342896, 45.63586926882171], [9.0269232516339, 45.63675494098434], [9.030568416043565, 45.63739424022173], [9.03428512443741, 45.637781066783525], [9.038037914163732, 45.637911729745575], [9.041790976822154, 45.63778498237497], [9.045508501401379, 45.637402034075976], [9.068776129187464, 45.63418157676424], [9.072333033924151, 45.63356409739926], [9.075790027935996, 45.63271203030698], [9.079115744906114, 45.63163310776385], [9.082280014552707, 45.630337120189736], [9.085254137164625, 45.62883582696345], [9.088011144539276, 45.627142849329246], [9.090526044927625, 45.62527354638438], [9.092776049746819, 45.6232448752916], [9.094740779997943, 45.62107523700577], [9.096402450522294, 45.618784308933776], [9.097746030442133, 45.6163928660658], [9.098759378358972, 45.613922592218174], [9.099433351121323, 45.61139588311625], [9.099761885222243, 45.60883564311611], [9.101406607835504, 45.58148455969882], [9.101381726040534, 45.57884953427294], [9.10099124829882, 45.576228756330636], [9.100238943078912, 45.57364717928322], [9.099132021429678, 45.57112937993877], [9.097681066527528, 45.568699324730396], [9.09589993129542, 45.56638014187202], [9.093805605129052, 45.564193901596475], [9.09141805105054, 45.562161406550594], [9.088760014880181, 45.56030199432146], [9.085856808270721, 45.558633353950896], [9.082736067683648, 45.55717135816014], [9.079427491601896, 45.55592991285704], [9.075962558466511, 45.55492082533388], [9.072374227994727, 45.55415369238733], [9.055395922872052, 45.55114957198304], [9.05148760664352, 45.55060723526006], [9.047520427808472, 45.55035192109142], [9.043536950284372, 45.55038636877982], [9.039579912113831, 45.55071020876005], [9.035691768893937, 45.55131996654644], [9.031914240170998, 45.55220909985361], [9.02828786356581, 45.55336806850095], [9.024851561318934, 45.5547844363662], [9.005788156778639, 45.56360208418689], [9.002744980130927, 45.56516454022539], [8.999934104777445, 45.56692875831373], [8.99738254994582, 45.56887779435308], [8.99511485178427, 45.570992927372075], [8.993152827297578, 45.57325383883083], [8.99151536404374, 45.57563880730862], [8.99021823763375, 45.578124916728946], [8.98927395882355, 45.58068827614353], [8.988691651715245, 45.58330424898305], [8.988476964296334, 45.58594768958746], [8.988270849004989, 45.6042150366763], [8.98843018530929, 45.60689327643745], [8.988967094429318, 45.60954722847005], [8.98987633720672, 45.6121507341941], [8.99114900135431, 45.61467812870091], [8.992772587397612, 45.6171044940072], [8.994731130195502, 45.61940590507155], [8.997005354907849, 45.62155966613057], [8.999572865927142, 45.62354453500352], [9.002408366952489, 45.625340933129564], [9.013736371434081, 45.631829760695425]]]}}]", "buffer_5": "[{\"type\": \"Feature\", \"properties\": {}, \"geometry\": {\"type\": \"Polygon\", \"coordinates\": [[[8.997506206833657, 45.645774063647885], [9.002545140563319, 45.64838325336245], [9.007923203633448, 45.650635195860694], [9.013589085144273, 45.65250839053458], [9.019488708645447, 45.65398495095899], [9.025565750847695, 45.65505077677967], [9.031762182497587, 45.6556956892648], [9.038018826100672, 45.65591352918248], [9.044275924994635, 45.655702216037255], [9.050473718150183, 45.65506376808], [9.073748371554682, 45.65184230513847], [9.079678273687234, 45.65081285532673], [9.08544145359105, 45.64939231808691], [9.090985578891832, 45.64759359598581], [9.096260320037283, 45.645433025180274], [9.101217809514576, 45.64293022609231], [9.1058130780003, 45.64010792413924], [9.110004463405327, 45.636991742197274], [9.113753989053507, 45.63360996673679], [9.117027707545585, 45.629993289809484], [9.119796007204096, 45.626174529285834], [9.122033878367061, 45.62218832993713], [9.123721137193316, 45.61807084812529], [9.124842605055639, 45.61385942300663], [9.12538824202475, 45.60959223726957], [9.127020539069404, 45.58224080189341], [9.126977073389854, 45.57784910419698], [9.126324325202663, 45.5734812866814], [9.125068649408812, 45.569178932781746], [9.123222134005369, 45.564982993374585], [9.120802480028743, 45.5609333975608], [9.117832828559969, 45.557068673496346], [9.11434153660646, 45.553425582841484], [9.110361904135273, 45.55003877225764], [9.105931854966832, 45.54694044521147], [9.101093574642045, 45.54416005714494], [9.095893108747473, 45.54172403684532], [9.090379925520498, 45.53965553659744], [9.084606446857519, 45.537974213428924], [9.078627552111804, 45.536696043466385], [9.061654170060672, 45.53369284069718], [9.055142267237791, 45.53278922501481], [9.048532383330429, 45.5323638342019], [9.041895369218944, 45.53242122809219], [9.035302364530839, 45.53296079155189], [9.028824040545828, 45.53397674102418], [9.02252984794187, 45.535458186088874], [9.016487277164781, 45.53738924540041], [9.010761139089189, 45.539749215803724], [8.991700614031814, 45.548564535762004], [8.986629261501282, 45.551167965364435], [8.98194469436833, 45.55410763648495], [8.977691935937923, 45.55735533546202], [8.973911886056811, 45.560879887270794], [8.970640927445288, 45.564647453346176], [8.967910574398612, 45.56862185507962], [8.965747167291417, 45.572764919949854], [8.964171615916454, 45.577036847025134], [8.963199194254463, 45.58139658838081], [8.962839388807607, 45.58580224281332], [8.962624954740475, 45.604069541458486], [8.96288848883539, 45.60853333265798], [8.963781383647378, 45.612956782144984], [8.965294984144759, 45.617296284621794], [8.96741450757935, 45.62150905244746], [8.970119183917227, 45.62555353822699], [8.973382455904474, 45.62938984552099], [8.977172236979532, 45.632980123578015], [8.98145122464172, 45.63628894213872], [8.986177266301095, 45.63928364254677], [8.997506206833657, 45.645774063647885]]]}}]", "centroid": "[{\"type\": \"Feature\", \"properties\": {}, \"geometry\": {\"type\": \"Point\", \"coordinates\": [9.045890519790705, 45.59436908241557]}}]", "Benzina": {"1": [{"Gestore": "G.PETROLI S.A.S. DI GABANELLI LIVIO & C.", "Bandiera": "Pompe Bianche", "Tipo impianto": "Altro", "Indirizzo": "VIA Lampedusa 49 21042", "Nome impianto": "G.  Gabanelli", "Comune": "CARONNO PERTUSELLA", "idImpianto": 39660, "points": [{"type": "Feature", "properties": {}, "geometry": {"type": "Point", "coordinates": [9.05009038746357, 45.59071153491578]}}], "price": 1.879, "ultima_rilevazione": "25/05/2022 08:25:59"}, {"Gestore": "ARBOLINO DI ARBOLINO TIZIANA E C. SAS", "Bandiera": "Esso", "Tipo impianto": "Altro", "Indirizzo": "VIA PELORITANA 0056 20024", "Nome impianto": "Esso", "Comune": "GARBAGNATE MILANESE", "idImpianto": 27947, "points": [{"type": "Feature", "properties": {}, "geometry": {"type": "Point", "coordinates": [9.06746388085014, 45.57460538609306]}}], "price": 1.899, "ultima_rilevazione": "29/05/2022 10:56:21"}, {"Gestore": "FREBAR DI AGNANI CRISTIAN", "Bandiera": "Pompe Bianche", "Tipo impianto": "Altro", "Indirizzo": "via Parma  2H 21047", "Nome impianto": "Frebar di  Agnani Cristian", "Comune": "SARONNO", "idImpianto": 43853, "points": [{"type": "Feature", "properties": {}, "geometry": {"type": "Point", "coordinates": [9.029931209821711, 45.6118111237518]}}], "price": 1.924, "ultima_rilevazione": "30/05/2022 07:05:26"}, {"Gestore": "MORGANTI ALESSANDRO", "Bandiera": "Esso", "Tipo impianto": "Altro", "Indirizzo": "VIA VARESE 2 21047", "Nome impianto": "ESSO Morganti", "Comune": "SARONNO", "idImpianto": 17547, "points": [{"type": "Feature", "properties": {}, "geometry": {"type": "Point", "coordinates": [9.035031798147545, 45.61231131468677]}}], "price": 1.916, "ultima_rilevazione": "31/05/2022 06:53:55"}, {"Gestore": "MCR S.N.C. DI MARTELLA FRANCESCO E C.", "Bandiera": "Q8", "Tipo impianto": "Altro", "Indirizzo": "VIA ANTONIO PARMA 3-5 21047", "Nome impianto": "area servizio q8", "Comune": "SARONNO", "idImpianto": 20637, "points": [{"type": "Feature", "properties": {}, "geometry": {"type": "Point", "coordinates": [9.031153321266174, 45.61241187080537]}}], "price": 1.899, "ultima_rilevazione": "31/05/2022 06:58:40"}, {"Gestore": "PETROL STORE S.A.S. DI RE FRASCHINI MARCO E C.", "Bandiera": "Agip Eni", "Tipo impianto": "Strada Statale", "Indirizzo": "233 Varesina, Km. 20+110, Milano 21040", "Nome impianto": "Petrol Store", "Comune": "ORIGGIO", "idImpianto": 44094, "points": [{"type": "Feature", "properties": {}, "geometry": {"type": "Point", "coordinates": [9.027523822090188, 45.60036151957927]}}], "price": 1.934, "ultima_rilevazione": "31/05/2022 07:15:43"}, {"Gestore": "SERVIZI & GESTIONI ITALIA S.R.L.", "Bandiera": "Q8", "Tipo impianto": "Altro", "Indirizzo": "VIA GARBAGNATE 58/60 20020", "Nome impianto": "LAINATE-VIA GARBAGNATE 58/60", "Comune": "LAINATE", "idImpianto": 11685, "points": [{"type": "Feature", "properties": {}, "geometry": {"type": "Point", "coordinates": [9.042500000000018, 45.57374541847877]}}], "price": 1.959, "ultima_rilevazione": "31/05/2022 07:35:25"}, {"Gestore": "UBO.VAS. SNC DI MAURO UBOLDI & C.", "Bandiera": "Pompe Bianche", "Tipo impianto": "Altro", "Indirizzo": "corso della vittoria 919 21042", "Nome impianto": "Stazione Carburanti MORO", "Comune": "CARONNO PERTUSELLA", "idImpianto": 45857, "points": [{"type": "Feature", "properties": {}, "geometry": {"type": "Point", "coordinates": [9.040553000123, 45.604790000123]}}], "price": 1.879, "ultima_rilevazione": "31/05/2022 09:03:28"}, {"Gestore": "T.D.M. S.R.L.", "Bandiera": "Tamoil", "Tipo impianto": "Altro", "Indirizzo": "VIA VINCI  21040", "Nome impianto": "2196", "Comune": "ORIGGIO", "idImpianto": 45568, "points": [{"type": "Feature", "properties": {}, "geometry": {"type": "Point", "coordinates": [9.022863246508225, 45.5960927503526]}}], "price": 1.929, "ultima_rilevazione": "31/05/2022 11:50:11"}, {"Gestore": "AUTOSERVICE SARONNO SNC DI ABDELAZIZ E C.", "Bandiera": "Api-Ip", "Tipo impianto": "Altro", "Indirizzo": "VIALE LOMBARDIA 20 21047", "Nome impianto": "IP", "Comune": "SARONNO", "idImpianto": 48575, "points": [{"type": "Feature", "properties": {}, "geometry": {"type": "Point", "coordinates": [9.038802629753595, 45.61398057974159]}}], "price": 2.064, "ultima_rilevazione": "31/05/2022 12:34:58"}, {"Gestore": "SOMMESE CARBURANTE S.R.L.", "Bandiera": "Sommese Petroli", "Tipo impianto": "Altro", "Indirizzo": "VIALE LOMBARDIA 91 21047", "Nome impianto": "SOMMESE - SARONNO", "Comune": "SARONNO", "idImpianto": 45765, "points": [{"type": "Feature", "properties": {}, "geometry": {"type": "Point", "coordinates": [9.052836298942566, 45.61677197919744]}}], "price": 1.899, "ultima_rilevazione": "01/06/2022 00:08:11"}, {"Gestore": "SERVIZI & GESTIONI ITALIA S.R.L.", "Bandiera": "Q8", "Tipo impianto": "Altro", "Indirizzo": "VIALE 5 GIORNATE  21042", "Nome impianto": "CARONNO PERTUSELLA - VIALE 5 GIORNATE", "Comune": "CARONNO PERTUSELLA", "idImpianto": 30797, "points": [{"type": "Feature", "properties": {}, "geometry": {"type": "Point", "coordinates": [9.060047826983691, 45.58166503439931]}}], "price": 1.939, "ultima_rilevazione": "01/06/2022 07:09:17"}, {"Gestore": "SERVIZI & GESTIONI ITALIA S.R.L.", "Bandiera": "Q8", "Tipo impianto": "Altro", "Indirizzo": "VIA VARESE ANGOLO VIA AMENDOLA S/N 21047", "Nome impianto": "SARONNO-VIA VARESE ANGOLO VIA AMENDOLA", "Comune": "SARONNO", "idImpianto": 11921, "points": [{"type": "Feature", "properties": {}, "geometry": {"type": "Point", "coordinates": [9.031083906745948, 45.61766623106788]}}], "price": 1.975, "ultima_rilevazione": "01/06/2022 07:09:18"}], "3": [{"Gestore": "G.M. AUTO DI MORANDI ROBERTO", "Bandiera": "Api-Ip", "Tipo impianto": "Altro", "Indirizzo": "VIA VARESE 71 21047", "Nome impianto": "TOTALERG", "Comune": "SARONNO", "idImpianto": 46217, "points": [{"type": "Feature", "properties": {}, "geometry": {"type": "Point", "coordinates": [9.017851000123, 45.631449000123]}}], "price": 1.899, "ultima_rilevazione": "26/05/2022 09:50:14"}, {"Gestore": "F.LLI PANDOLFO S.N.C. DI PANDOLFO LEOPOLDO E GIANNI", "Bandiera": "Agip Eni", "Tipo impianto": "Altro", "Indirizzo": "via roma 50 ", "Nome impianto": "ENI F.LLI PANDOLFO snc", "Comune": "SOLARO", "idImpianto": 18067, "points": [{"type": "Feature", "properties": {}, "geometry": {"type": "Point", "coordinates": [9.092313051223757, 45.61864135275116]}}], "price": 1.929, "ultima_rilevazione": "27/05/2022 11:37:13"}, {"Gestore": "WANG LIZHEN DISTRIBUTORE", "Bandiera": "Api-Ip", "Tipo impianto": "Altro", "Indirizzo": "CORSO EUROPA 9 20020", "Nome impianto": "Distributore IP", "Comune": "SOLARO", "idImpianto": 50233, "points": [{"type": "Feature", "properties": {}, "geometry": {"type": "Point", "coordinates": [9.090636670589449, 45.61698480286472]}}], "price": 2.07, "ultima_rilevazione": "29/05/2022 08:19:27"}, {"Gestore": "MIKKA SAS DI CAVALLO STEFANO & C.", "Bandiera": "Api-Ip", "Tipo impianto": "Altro", "Indirizzo": "VIA VARESE 56 20024", "Nome impianto": "TOTALERG", "Comune": "GARBAGNATE MILANESE", "idImpianto": 28768, "points": [{"type": "Feature", "properties": {}, "geometry": {"type": "Point", "coordinates": [9.076316356658936, 45.57581724330161]}}], "price": 2.084, "ultima_rilevazione": "30/05/2022 09:01:19"}, {"Gestore": "MC SERVIZI S.A.S. DI FERTONANI CHIARA E C.", "Bandiera": "Api-Ip", "Tipo impianto": "Altro", "Indirizzo": "VIA PER PASSIRANA   20020", "Nome impianto": "MC SERVIZI SAS", "Comune": "ARESE", "idImpianto": 37165, "points": [{"type": "Feature", "properties": {}, "geometry": {"type": "Point", "coordinates": [9.052507728338242, 45.55435987700847]}}], "price": 2.052, "ultima_rilevazione": "30/05/2022 21:17:35"}, {"Gestore": "D. & V. S.N.C. DI VALENTI MORGAN E CURRO' STEFANO", "Bandiera": "Agip Eni", "Tipo impianto": "Altro", "Indirizzo": "VIA CRISTOFORO COLOMBO 19 21047", "Nome impianto": "ENI ", "Comune": "SARONNO", "idImpianto": 13898, "points": [{"type": "Feature", "properties": {}, "geometry": {"type": "Point", "coordinates": [9.037899439950593, 45.63058096614678]}}], "price": 1.939, "ultima_rilevazione": "31/05/2022 07:24:09"}, {"Gestore": "SPROCATI STEFANO", "Bandiera": "KEROPETROL", "Tipo impianto": "Altro", "Indirizzo": "via colombo 40 21047", "Nome impianto": "sprocati stefano area di servizio", "Comune": "SARONNO", "idImpianto": 23188, "points": [{"type": "Feature", "properties": {}, "geometry": {"type": "Point", "coordinates": [9.039119076057432, 45.63144806693576]}}], "price": 1.959, "ultima_rilevazione": "31/05/2022 07:41:54"}, {"Gestore": "ESSO SERVICE S.A.S. DI STELLUTI DANIELE & C.", "Bandiera": "Esso", "Tipo impianto": "Altro", "Indirizzo": "Via Giuseppe Garibaldi 132 20024", "Nome impianto": "Esso", "Comune": "GARBAGNATE MILANESE", "idImpianto": 42136, "points": [{"type": "Feature", "properties": {}, "geometry": {"type": "Point", "coordinates": [9.076157453967426, 45.56543979927998]}}], "price": 1.899, "ultima_rilevazione": "31/05/2022 08:10:49"}, {"Gestore": "AUTOSERVICE LOTTO SRL", "Bandiera": "Agip Eni", "Tipo impianto": "Altro", "Indirizzo": "strada provinciale 101 km. 3+500  20020", "Nome impianto": "Autoservice Lotto srl", "Comune": "LAINATE", "idImpianto": 8061, "points": [{"type": "Feature", "properties": {}, "geometry": {"type": "Point", "coordinates": [9.014978259801865, 45.56237402569371]}}], "price": 1.939, "ultima_rilevazione": "31/05/2022 08:16:55"}, {"Gestore": "MOPE S.N.C. DI FUSCALDO G. E PATICELLA F.", "Bandiera": "Agip Eni", "Tipo impianto": "Altro", "Indirizzo": "VIA ROMA ANGOLO VIA MIOLA  21047", "Nome impianto": "ENI 56817 Mope S.n.c.", "Comune": "SARONNO", "idImpianto": 19040, "points": [{"type": "Feature", "properties": {}, "geometry": {"type": "Point", "coordinates": [9.046116239300543, 45.62424442587159]}}], "price": 1.939, "ultima_rilevazione": "31/05/2022 08:54:39"}, {"Gestore": "*PREZIOSA MAURIZIO", "Bandiera": "Esso", "Tipo impianto": "Altro", "Indirizzo": "VIA MARCONI ANGOLO VIA SONCINO SNC 21047", "Nome impianto": "Stazione Esso Preziosa Maurizio", "Comune": "SARONNO", "idImpianto": 43372, "points": [{"type": "Feature", "properties": {}, "geometry": {"type": "Point", "coordinates": [9.038958012067724, 45.62395234624892]}}], "price": 1.919, "ultima_rilevazione": "31/05/2022 09:31:33"}, {"Gestore": "LABRUNA RUBEN", "Bandiera": "Agip Eni", "Tipo impianto": "Altro", "Indirizzo": "VIALE PREALPI SNC 21047", "Nome impianto": "eni Labruna Ruben", "Comune": "SARONNO", "idImpianto": 18496, "points": [{"type": "Feature", "properties": {}, "geometry": {"type": "Point", "coordinates": [9.033567309379578, 45.63661374214532]}}], "price": 1.939, "ultima_rilevazione": "31/05/2022 09:37:47"}, {"Gestore": "IPER MONTEBELLO S.P.A.", "Bandiera": "Iper Station", "Tipo impianto": "Altro", "Indirizzo": "Via Luraghi sn 20020", "Nome impianto": "Iper Station Arese", "Comune": "ARESE", "idImpianto": 30892, "points": [{"type": "Feature", "properties": {}, "geometry": {"type": "Point", "coordinates": [9.053292274475098, 45.56176087890731]}}], "price": 1.848, "ultima_rilevazione": "31/05/2022 10:01:04"}, {"Gestore": "villoresi di vitale gaetano &c. snc", "Bandiera": "Esso", "Tipo impianto": "Autostradale", "Indirizzo": "Autostrada A8-A9 MILANO-LAGHI, Km. 7+600, dir. Sud 20020", "Nome impianto": "VILLORESI OVEST", "Comune": "LAINATE", "idImpianto": 3927, "points": [{"type": "Feature", "properties": {}, "geometry": {"type": "Point", "coordinates": [9.04014393386842, 45.55834880837939]}}], "price": 2.232, "ultima_rilevazione": "31/05/2022 10:28:34"}, {"Gestore": "T.D.M. S.R.L.", "Bandiera": "Tamoil", "Tipo impianto": "Altro", "Indirizzo": "VIA IV NOVEMBRE 10 21040", "Nome impianto": "8490", "Comune": "UBOLDO", "idImpianto": 44438, "points": [{"type": "Feature", "properties": {}, "geometry": {"type": "Point", "coordinates": [9.0138290000123, 45.619769000123]}}], "price": 1.909, "ultima_rilevazione": "31/05/2022 11:52:12"}, {"Gestore": "IP SERVICES S.R.L.", "Bandiera": "Api-Ip", "Tipo impianto": "Altro", "Indirizzo": "Ex Strada Statale 233  ", "Nome impianto": "Saronno", "Comune": "SARONNO", "idImpianto": 23529, "points": [{"type": "Feature", "properties": {}, "geometry": {"type": "Point", "coordinates": [9.019711017608644, 45.61628089502815]}}], "price": 1.899, "ultima_rilevazione": "31/05/2022 12:07:59"}, {"Gestore": "Nuova Sidap SRL", "Bandiera": "Q8", "Tipo impianto": "Autostradale", "Indirizzo": "Autostrada A8-A9 MILANO-LAGHI, Km. 7+600, dir. Nord 20020", "Nome impianto": "VILLORESI EST", "Comune": "LAINATE", "idImpianto": 3555, "points": [{"type": "Feature", "properties": {}, "geometry": {"type": "Point", "coordinates": [9.039123033065836, 45.55996995230018]}}], "price": 1.989, "ultima_rilevazione": "31/05/2022 14:30:21"}, {"Gestore": "CLERICI LUCA", "Bandiera": "Api-Ip", "Tipo impianto": "Strada Statale", "Indirizzo": "527 Bustese, Km. 54,344, castellanza 21040", "Nome impianto": "ip", "Comune": "UBOLDO", "idImpianto": 47558, "points": [{"type": "Feature", "properties": {}, "geometry": {"type": "Point", "coordinates": [8.999279403993663, 45.6137107376401]}}], "price": 1.919, "ultima_rilevazione": "31/05/2022 16:21:28"}, {"Gestore": "ARTICO & PALAZZI S.N.C. DI ARTICO NICHOLAS", "Bandiera": "Tamoil", "Tipo impianto": "Altro", "Indirizzo": "CORSO EUROPA 72 20020", "Nome impianto": "STAZIONE DI SERVIZIO TAMOIL", "Comune": "SOLARO", "idImpianto": 25413, "points": [{"type": "Feature", "properties": {}, "geometry": {"type": "Point", "coordinates": [9.093176202945417, 45.6092497143197]}}], "price": 1.929, "ultima_rilevazione": "31/05/2022 17:18:03"}, {"Gestore": "SERVIZI E GESTIONI ZENIT S.R.L. IN SIGLA - ZENIT S.R.L.", "Bandiera": "Esso", "Tipo impianto": "Altro", "Indirizzo": "VIA GAVINANA 18 20024", "Nome impianto": "V.GAVINANA GARBA", "Comune": "GARBAGNATE MILANESE", "idImpianto": 12063, "points": [{"type": "Feature", "properties": {}, "geometry": {"type": "Point", "coordinates": [9.07853596808809, 45.57874058957802]}}], "price": 1.918, "ultima_rilevazione": "31/05/2022 18:14:22"}, {"Gestore": "CIRAOLO S.A.S. DI CIRAOLO GIANMATTEO & C.", "Bandiera": "Agip Eni", "Tipo impianto": "Altro", "Indirizzo": "VIA VARESE  35 21047", "Nome impianto": "ENI", "Comune": "SARONNO", "idImpianto": 47221, "points": [{"type": "Feature", "properties": {}, "geometry": {"type": "Point", "coordinates": [9.026269221096436, 45.62484664921547]}}], "price": 1.939, "ultima_rilevazione": "01/06/2022 00:20:09"}, {"Gestore": "SERVIZI & GESTIONI ITALIA S.R.L.", "Bandiera": "Q8", "Tipo impianto": "Altro", "Indirizzo": "S.S. BUSTESE VIA VARESE 216 20020", "Nome impianto": "SOLARO-S.S. BUSTESE VIA VARESE 216", "Comune": "SOLARO", "idImpianto": 11665, "points": [{"type": "Feature", "properties": {}, "geometry": {"type": "Point", "coordinates": [9.064423789024318, 45.61763752107878]}}], "price": 1.979, "ultima_rilevazione": "01/06/2022 01:40:26"}, {"Gestore": "SERVIZI & GESTIONI ITALIA S.R.L.", "Bandiera": "Q8", "Tipo impianto": "Altro", "Indirizzo": "VIA ROMA 43 20020", "Nome impianto": "CESATE-VIA ROMA 43", "Comune": "CESATE", "idImpianto": 11703, "points": [{"type": "Feature", "properties": {}, "geometry": {"type": "Point", "coordinates": [9.078240991401684, 45.59066381652534]}}], "price": 1.939, "ultima_rilevazione": "01/06/2022 07:09:03"}, {"Gestore": "SERVIZI & GESTIONI ITALIA S.R.L.", "Bandiera": "Q8", "Tipo impianto": "Altro", "Indirizzo": "VIA GARIBALDI FZ. S MARIA ROSSA 89 20024", "Nome impianto": "GARBAGNATE-VIA GARIBALDI 89 FZ. S MARIA ROSSA", "Comune": "GARBAGNATE MILANESE", "idImpianto": 11689, "points": [{"type": "Feature", "properties": {}, "geometry": {"type": "Point", "coordinates": [9.07466973743442, 45.5674187773307]}}], "price": 1.939, "ultima_rilevazione": "01/06/2022 07:09:04"}, {"Gestore": "GALLUCCI SABRINA", "Bandiera": "Tamoil", "Tipo impianto": "Altro", "Indirizzo": "VIA XIV STRADA 10 20020", "Nome impianto": "Tamoil ", "Comune": "CESATE", "idImpianto": 35748, "points": [{"type": "Feature", "properties": {}, "geometry": {"type": "Point", "coordinates": [9.095667153596878, 45.59531739094676]}}], "price": 1.929, "ultima_rilevazione": "01/06/2022 07:24:13"}, {"Gestore": "GALLUCCI SABRINA", "Bandiera": "Tamoil", "Tipo impianto": "Altro", "Indirizzo": "VIA XIV STRADA 10 20020", "Nome impianto": "Tamoil ", "Comune": "CESATE", "idImpianto": 35748, "points": [{"type": "Feature", "properties": {}, "geometry": {"type": "Point", "coordinates": [9.095667153596878, 45.59531739094676]}}], "price": 1.699, "ultima_rilevazione": "01/06/2022 07:24:13"}], "5": [{"Gestore": "PETROL CRI DI REPARATO CRISTIAN", "Bandiera": "Api-Ip", "Tipo impianto": "Altro", "Indirizzo": "VIA XXV APRILE   20812", "Nome impianto": "ITALIANA PETROLI ", "Comune": "LIMBIATE", "idImpianto": 45380, "points": [{"type": "Feature", "properties": {}, "geometry": {"type": "Point", "coordinates": [9.119485169649124, 45.58977655922272]}}], "price": 1.839, "ultima_rilevazione": "23/05/2022 12:41:00"}, {"Gestore": "METANGAS S.R.L.", "Bandiera": "Pompe Bianche", "Tipo impianto": "Altro", "Indirizzo": "via carducci 25 21040", "Nome impianto": "METANGAS", "Comune": "GERENZANO", "idImpianto": 45447, "points": [{"type": "Feature", "properties": {}, "geometry": {"type": "Point", "coordinates": [9.012491567736788, 45.63447167121218]}}], "price": 1.939, "ultima_rilevazione": "25/05/2022 21:23:20"}, {"Gestore": "RE.PA. S.A.S. DI REPARATO VINCENZO & C.", "Bandiera": "Retitalia", "Tipo impianto": "Strada Statale", "Indirizzo": "527 Bustese, Km. 10+488, Nord 20812", "Nome impianto": "RETITALIA ", "Comune": "LIMBIATE", "idImpianto": 44911, "points": [{"type": "Feature", "properties": {}, "geometry": {"type": "Point", "coordinates": [9.125187234533996, 45.60680536884407]}}], "price": 1.959, "ultima_rilevazione": "28/05/2022 08:31:39"}, {"Gestore": "ALBERTI LUIGI E C. S.R.L.", "Bandiera": "Api-Ip", "Tipo impianto": "Altro", "Indirizzo": "Via Risorgimento 26 21040", "Nome impianto": "ITALIANA PETROLI", "Comune": "GERENZANO", "idImpianto": 38725, "points": [{"type": "Feature", "properties": {}, "geometry": {"type": "Point", "coordinates": [8.995601311326027, 45.643181634759976]}}], "price": 1.899, "ultima_rilevazione": "30/05/2022 09:43:56"}, {"Gestore": "MAZHAR SHAHZAIB", "Bandiera": "Api-Ip", "Tipo impianto": "Altro", "Indirizzo": "VIA  A.VOLTA 211 21047", "Nome impianto": "IP", "Comune": "SARONNO", "idImpianto": 45804, "points": [{"type": "Feature", "properties": {}, "geometry": {"type": "Point", "coordinates": [9.036012020732985, 45.64166936061599]}}], "price": 1.898, "ultima_rilevazione": "30/05/2022 10:18:50"}, {"Gestore": "KEROPETROL S.P.A.", "Bandiera": "KEROPETROL", "Tipo impianto": "Altro", "Indirizzo": "via 4 novembre  21040", "Nome impianto": "KEROPETROL SPA UBOLDO", "Comune": "UBOLDO", "idImpianto": 23842, "points": [{"type": "Feature", "properties": {}, "geometry": {"type": "Point", "coordinates": [8.979483246803284, 45.61317586572184]}}], "price": 1.889, "ultima_rilevazione": "30/05/2022 16:48:01"}, {"Gestore": "GHULAM PAK DI ANWAR SAEED & C. S.A.S.", "Bandiera": "Esso", "Tipo impianto": "Altro", "Indirizzo": "S.S.33 DEL SEMPIONE, KM.16+030  20017", "Nome impianto": "GHULAM PAK", "Comune": "RHO", "idImpianto": 24279, "points": [{"type": "Feature", "properties": {}, "geometry": {"type": "Point", "coordinates": [9.019233584403992, 45.54109280194033]}}], "price": 1.879, "ultima_rilevazione": "30/05/2022 19:52:49"}, {"Gestore": "NUOVA SIDAP  S.R.L.", "Bandiera": "Esso", "Tipo impianto": "Strada Statale", "Indirizzo": "33 del Sempione, Km. 18+92, Nord 20014", "Nome impianto": "Nerviano", "Comune": "NERVIANO", "idImpianto": 43734, "points": [{"type": "Feature", "properties": {}, "geometry": {"type": "Point", "coordinates": [8.993886113166809, 45.548350551694746]}}], "price": 1.932, "ultima_rilevazione": "31/05/2022 05:25:12"}, {"Gestore": "T.D.M. S.R.L.", "Bandiera": "Tamoil", "Tipo impianto": "Altro", "Indirizzo": "Via Rho  20020", "Nome impianto": "3537", "Comune": "LAINATE", "idImpianto": 35445, "points": [{"type": "Feature", "properties": {}, "geometry": {"type": "Point", "coordinates": [9.029793441295624, 45.55220869339715]}}], "price": 1.899, "ultima_rilevazione": "31/05/2022 11:52:07"}, {"Gestore": "IP SERVICES S.R.L.", "Bandiera": "Api-Ip", "Tipo impianto": "Altro", "Indirizzo": "VIA LAINATE  20017", "Nome impianto": "RHO - LAINATE", "Comune": "RHO", "idImpianto": 27031, "points": [{"type": "Feature", "properties": {}, "geometry": {"type": "Point", "coordinates": [9.03128583068849, 45.547463865626085]}}], "price": 1.859, "ultima_rilevazione": "31/05/2022 12:03:19"}, {"Gestore": "IP SERVICES S.R.L.", "Bandiera": "Api-Ip", "Tipo impianto": "Strada Statale", "Indirizzo": "Statale 33 del Sempione, Km. 15+580, dir. Nerviano 20017", "Nome impianto": "RHO - SS 33 KM 15+580", "Comune": "RHO", "idImpianto": 23101, "points": [{"type": "Feature", "properties": {}, "geometry": {"type": "Point", "coordinates": [9.02470728836056, 45.54066994198055]}}], "price": 1.859, "ultima_rilevazione": "31/05/2022 12:05:48"}, {"Gestore": "IP SERVICES S.R.L.", "Bandiera": "Api-Ip", "Tipo impianto": "Altro", "Indirizzo": "Via Vittorio Veneto 116 22070", "Nome impianto": "Rovello Porro", "Comune": "ROVELLO PORRO", "idImpianto": 23393, "points": [{"type": "Feature", "properties": {}, "geometry": {"type": "Point", "coordinates": [9.023959636688232, 45.65362120460147]}}], "price": 1.879, "ultima_rilevazione": "31/05/2022 12:07:14"}, {"Gestore": "IP SERVICES S.R.L.", "Bandiera": "Api-Ip", "Tipo impianto": "Altro", "Indirizzo": "via Lainate ang. via Diaz  20017", "Nome impianto": "Rho via Lainate", "Comune": "RHO", "idImpianto": 36451, "points": [{"type": "Feature", "properties": {}, "geometry": {"type": "Point", "coordinates": [9.036739021539688, 45.53643383759013]}}], "price": 1.869, "ultima_rilevazione": "31/05/2022 12:07:46"}, {"Gestore": "IPERSTAROIL S.R.L.", "Bandiera": "Tamoil", "Tipo impianto": "Altro", "Indirizzo": "Via Alcide De Gasperi S/P 109  109 20014", "Nome impianto": "TAMOIL NERVIANO", "Comune": "NERVIANO", "idImpianto": 50914, "points": [{"type": "Feature", "properties": {}, "geometry": {"type": "Point", "coordinates": [8.987627501852401, 45.55416161629161]}}], "price": 1.829, "ultima_rilevazione": "31/05/2022 16:06:04"}, {"Gestore": "SERVIZI E GESTIONI ZENIT S.R.L. IN SIGLA - ZENIT S.R.L.", "Bandiera": "Giap", "Tipo impianto": "Altro", "Indirizzo": "VIA XXIV MAGGIO  20030", "Nome impianto": "VIA XXIV MAGGIO SENAGO", "Comune": "SENAGO", "idImpianto": 24400, "points": [{"type": "Feature", "properties": {}, "geometry": {"type": "Point", "coordinates": [9.116305728836096, 45.57547650985402]}}], "price": 1.938, "ultima_rilevazione": "31/05/2022 18:14:19"}, {"Gestore": "SERVIZI E GESTIONI ZENIT S.R.L. IN SIGLA - ZENIT S.R.L.", "Bandiera": "Esso", "Tipo impianto": "Altro", "Indirizzo": "VIA DE GASPERI 23 20020", "Nome impianto": "VIA DEGASP.ARESE", "Comune": "ARESE", "idImpianto": 12065, "points": [{"type": "Feature", "properties": {}, "geometry": {"type": "Point", "coordinates": [9.080279892030717, 45.55094687828335]}}], "price": 1.919, "ultima_rilevazione": "31/05/2022 18:14:22"}, {"Gestore": "SERVIZI & GESTIONI ITALIA S.R.L.", "Bandiera": "Q8", "Tipo impianto": "Altro", "Indirizzo": "SS. 33 SEMPIONE KM.18+600 S/N 20014", "Nome impianto": "NERVIANO-SS. 33 SEMPIONE KM.18+600", "Comune": "NERVIANO", "idImpianto": 11658, "points": [{"type": "Feature", "properties": {}, "geometry": {"type": "Point", "coordinates": [8.989460932540851, 45.55000751325928]}}], "price": 1.949, "ultima_rilevazione": "01/06/2022 01:40:16"}, {"Gestore": "SERVIZI & GESTIONI ITALIA S.R.L.", "Bandiera": "Q8", "Tipo impianto": "Altro", "Indirizzo": "VIA CAPUANA C/O ESSELUNGA CENTRE S/N 20017", "Nome impianto": "RHO -VIA CAPUANA C/O ESSELUNGA CENTRE", "Comune": "RHO", "idImpianto": 11712, "points": [{"type": "Feature", "properties": {}, "geometry": {"type": "Point", "coordinates": [9.021690487861632, 45.53642989217953]}}], "price": 1.949, "ultima_rilevazione": "01/06/2022 01:40:20"}, {"Gestore": "SERVIZI & GESTIONI ITALIA S.R.L.", "Bandiera": "Q8", "Tipo impianto": "Altro", "Indirizzo": " VIA C.BATTISTI  20020", "Nome impianto": "COGLIATE VIA C.BATTISTI", "Comune": "COGLIATE", "idImpianto": 33177, "points": [{"type": "Feature", "properties": {}, "geometry": {"type": "Point", "coordinates": [9.079532912897548, 45.64368872008721]}}], "price": 1.999, "ultima_rilevazione": "01/06/2022 07:09:04"}, {"Gestore": "SERVIZI & GESTIONI ITALIA S.R.L.", "Bandiera": "Q8", "Tipo impianto": "Altro", "Indirizzo": "SS. 33 DEL SEMPIONE KM.15+660 S/N 20017", "Nome impianto": "RHO-SS. 33 DEL SEMPIONE KM.15+660", "Comune": "RHO", "idImpianto": 11686, "points": [{"type": "Feature", "properties": {}, "geometry": {"type": "Point", "coordinates": [9.02422338161466, 45.540303757278025]}}], "price": 1.969, "ultima_rilevazione": "01/06/2022 07:09:11"}]}, "Gasolio": {"1": [{"Gestore": "G.PETROLI S.A.S. DI GABANELLI LIVIO & C.", "Bandiera": "Pompe Bianche", "Tipo impianto": "Altro", "Indirizzo": "VIA Lampedusa 49 21042", "Nome impianto": "G.  Gabanelli", "Comune": "CARONNO PERTUSELLA", "idImpianto": 39660, "points": [{"type": "Feature", "properties": {}, "geometry": {"type": "Point", "coordinates": [9.05009038746357, 45.59071153491578]}}], "price": 1.799, "ultima_rilevazione": "25/05/2022 08:25:59"}, {"Gestore": "ARBOLINO DI ARBOLINO TIZIANA E C. SAS", "Bandiera": "Esso", "Tipo impianto": "Altro", "Indirizzo": "VIA PELORITANA 0056 20024", "Nome impianto": "Esso", "Comune": "GARBAGNATE MILANESE", "idImpianto": 27947, "points": [{"type": "Feature", "properties": {}, "geometry": {"type": "Point", "coordinates": [9.06746388085014, 45.57460538609306]}}], "price": 1.799, "ultima_rilevazione": "29/05/2022 10:56:21"}, {"Gestore": "FREBAR DI AGNANI CRISTIAN", "Bandiera": "Pompe Bianche", "Tipo impianto": "Altro", "Indirizzo": "via Parma  2H 21047", "Nome impianto": "Frebar di  Agnani Cristian", "Comune": "SARONNO", "idImpianto": 43853, "points": [{"type": "Feature", "properties": {}, "geometry": {"type": "Point", "coordinates": [9.029931209821711, 45.6118111237518]}}], "price": 1.799, "ultima_rilevazione": "30/05/2022 07:05:26"}, {"Gestore": "MORGANTI ALESSANDRO", "Bandiera": "Esso", "Tipo impianto": "Altro", "Indirizzo": "VIA VARESE 2 21047", "Nome impianto": "ESSO Morganti", "Comune": "SARONNO", "idImpianto": 17547, "points": [{"type": "Feature", "properties": {}, "geometry": {"type": "Point", "coordinates": [9.035031798147545, 45.61231131468677]}}], "price": 1.816, "ultima_rilevazione": "31/05/2022 06:53:55"}, {"Gestore": "MCR S.N.C. DI MARTELLA FRANCESCO E C.", "Bandiera": "Q8", "Tipo impianto": "Altro", "Indirizzo": "VIA ANTONIO PARMA 3-5 21047", "Nome impianto": "area servizio q8", "Comune": "SARONNO", "idImpianto": 20637, "points": [{"type": "Feature", "properties": {}, "geometry": {"type": "Point", "coordinates": [9.031153321266174, 45.61241187080537]}}], "price": 1.829, "ultima_rilevazione": "31/05/2022 06:58:40"}, {"Gestore": "PETROL STORE S.A.S. DI RE FRASCHINI MARCO E C.", "Bandiera": "Agip Eni", "Tipo impianto": "Strada Statale", "Indirizzo": "233 Varesina, Km. 20+110, Milano 21040", "Nome impianto": "Petrol Store", "Comune": "ORIGGIO", "idImpianto": 44094, "points": [{"type": "Feature", "properties": {}, "geometry": {"type": "Point", "coordinates": [9.027523822090188, 45.60036151957927]}}], "price": 1.874, "ultima_rilevazione": "31/05/2022 07:15:43"}, {"Gestore": "SERVIZI & GESTIONI ITALIA S.R.L.", "Bandiera": "Q8", "Tipo impianto": "Altro", "Indirizzo": "VIA GARBAGNATE 58/60 20020", "Nome impianto": "LAINATE-VIA GARBAGNATE 58/60", "Comune": "LAINATE", "idImpianto": 11685, "points": [{"type": "Feature", "properties": {}, "geometry": {"type": "Point", "coordinates": [9.042500000000018, 45.57374541847877]}}], "price": 1.899, "ultima_rilevazione": "31/05/2022 07:35:25"}, {"Gestore": "UBO.VAS. SNC DI MAURO UBOLDI & C.", "Bandiera": "Pompe Bianche", "Tipo impianto": "Altro", "Indirizzo": "corso della vittoria 919 21042", "Nome impianto": "Stazione Carburanti MORO", "Comune": "CARONNO PERTUSELLA", "idImpianto": 45857, "points": [{"type": "Feature", "properties": {}, "geometry": {"type": "Point", "coordinates": [9.040553000123, 45.604790000123]}}], "price": 1.789, "ultima_rilevazione": "31/05/2022 09:03:28"}, {"Gestore": "T.D.M. S.R.L.", "Bandiera": "Tamoil", "Tipo impianto": "Altro", "Indirizzo": "VIA VINCI  21040", "Nome impianto": "2196", "Comune": "ORIGGIO", "idImpianto": 45568, "points": [{"type": "Feature", "properties": {}, "geometry": {"type": "Point", "coordinates": [9.022863246508225, 45.5960927503526]}}], "price": 1.819, "ultima_rilevazione": "31/05/2022 11:50:11"}, {"Gestore": "AUTOSERVICE SARONNO SNC DI ABDELAZIZ E C.", "Bandiera": "Api-Ip", "Tipo impianto": "Altro", "Indirizzo": "VIALE LOMBARDIA 20 21047", "Nome impianto": "IP", "Comune": "SARONNO", "idImpianto": 48575, "points": [{"type": "Feature", "properties": {}, "geometry": {"type": "Point", "coordinates": [9.038802629753595, 45.61398057974159]}}], "price": 2.066, "ultima_rilevazione": "31/05/2022 12:34:58"}, {"Gestore": "SOMMESE CARBURANTE S.R.L.", "Bandiera": "Sommese Petroli", "Tipo impianto": "Altro", "Indirizzo": "VIALE LOMBARDIA 91 21047", "Nome impianto": "SOMMESE - SARONNO", "Comune": "SARONNO", "idImpianto": 45765, "points": [{"type": "Feature", "properties": {}, "geometry": {"type": "Point", "coordinates": [9.052836298942566, 45.61677197919744]}}], "price": 1.799, "ultima_rilevazione": "01/06/2022 00:08:11"}, {"Gestore": "SERVIZI & GESTIONI ITALIA S.R.L.", "Bandiera": "Q8", "Tipo impianto": "Altro", "Indirizzo": "VIALE 5 GIORNATE  21042", "Nome impianto": "CARONNO PERTUSELLA - VIALE 5 GIORNATE", "Comune": "CARONNO PERTUSELLA", "idImpianto": 30797, "points": [{"type": "Feature", "properties": {}, "geometry": {"type": "Point", "coordinates": [9.060047826983691, 45.58166503439931]}}], "price": 1.839, "ultima_rilevazione": "01/06/2022 07:09:17"}, {"Gestore": "SERVIZI & GESTIONI ITALIA S.R.L.", "Bandiera": "Q8", "Tipo impianto": "Altro", "Indirizzo": "VIA VARESE ANGOLO VIA AMENDOLA S/N 21047", "Nome impianto": "SARONNO-VIA VARESE ANGOLO VIA AMENDOLA", "Comune": "SARONNO", "idImpianto": 11921, "points": [{"type": "Feature", "properties": {}, "geometry": {"type": "Point", "coordinates": [9.031083906745948, 45.61766623106788]}}], "price": 1.885, "ultima_rilevazione": "01/06/2022 07:09:18"}], "3": [{"Gestore": "LABRUNA RUBEN", "Bandiera": "Agip Eni", "Tipo impianto": "Altro", "Indirizzo": "VIALE PREALPI SNC 21047", "Nome impianto": "eni Labruna Ruben", "Comune": "SARONNO", "idImpianto": 18496, "points": [{"type": "Feature", "properties": {}, "geometry": {"type": "Point", "coordinates": [9.033567309379578, 45.63661374214532]}}], "price": 2.184, "ultima_rilevazione": "31/05/2022 09:37:47"}, {"Gestore": "G.M. AUTO DI MORANDI ROBERTO", "Bandiera": "Api-Ip", "Tipo impianto": "Altro", "Indirizzo": "VIA VARESE 71 21047", "Nome impianto": "TOTALERG", "Comune": "SARONNO", "idImpianto": 46217, "points": [{"type": "Feature", "properties": {}, "geometry": {"type": "Point", "coordinates": [9.017851000123, 45.631449000123]}}], "price": 1.839, "ultima_rilevazione": "26/05/2022 09:50:14"}, {"Gestore": "F.LLI PANDOLFO S.N.C. DI PANDOLFO LEOPOLDO E GIANNI", "Bandiera": "Agip Eni", "Tipo impianto": "Altro", "Indirizzo": "via roma 50 ", "Nome impianto": "ENI F.LLI PANDOLFO snc", "Comune": "SOLARO", "idImpianto": 18067, "points": [{"type": "Feature", "properties": {}, "geometry": {"type": "Point", "coordinates": [9.092313051223757, 45.61864135275116]}}], "price": 1.859, "ultima_rilevazione": "27/05/2022 11:37:13"}, {"Gestore": "WANG LIZHEN DISTRIBUTORE", "Bandiera": "Api-Ip", "Tipo impianto": "Altro", "Indirizzo": "CORSO EUROPA 9 20020", "Nome impianto": "Distributore IP", "Comune": "SOLARO", "idImpianto": 50233, "points": [{"type": "Feature", "properties": {}, "geometry": {"type": "Point", "coordinates": [9.090636670589449, 45.61698480286472]}}], "price": 2.025, "ultima_rilevazione": "29/05/2022 08:19:27"}, {"Gestore": "MIKKA SAS DI CAVALLO STEFANO & C.", "Bandiera": "Api-Ip", "Tipo impianto": "Altro", "Indirizzo": "VIA VARESE 56 20024", "Nome impianto": "TOTALERG", "Comune": "GARBAGNATE MILANESE", "idImpianto": 28768, "points": [{"type": "Feature", "properties": {}, "geometry": {"type": "Point", "coordinates": [9.076316356658936, 45.57581724330161]}}], "price": 2.066, "ultima_rilevazione": "30/05/2022 09:01:19"}, {"Gestore": "MC SERVIZI S.A.S. DI FERTONANI CHIARA E C.", "Bandiera": "Api-Ip", "Tipo impianto": "Altro", "Indirizzo": "VIA PER PASSIRANA   20020", "Nome impianto": "MC SERVIZI SAS", "Comune": "ARESE", "idImpianto": 37165, "points": [{"type": "Feature", "properties": {}, "geometry": {"type": "Point", "coordinates": [9.052507728338242, 45.55435987700847]}}], "price": 1.974, "ultima_rilevazione": "30/05/2022 21:17:35"}, {"Gestore": "D. & V. S.N.C. DI VALENTI MORGAN E CURRO' STEFANO", "Bandiera": "Agip Eni", "Tipo impianto": "Altro", "Indirizzo": "VIA CRISTOFORO COLOMBO 19 21047", "Nome impianto": "ENI ", "Comune": "SARONNO", "idImpianto": 13898, "points": [{"type": "Feature", "properties": {}, "geometry": {"type": "Point", "coordinates": [9.037899439950593, 45.63058096614678]}}], "price": 1.879, "ultima_rilevazione": "31/05/2022 07:24:09"}, {"Gestore": "SPROCATI STEFANO", "Bandiera": "KEROPETROL", "Tipo impianto": "Altro", "Indirizzo": "via colombo 40 21047", "Nome impianto": "sprocati stefano area di servizio", "Comune": "SARONNO", "idImpianto": 23188, "points": [{"type": "Feature", "properties": {}, "geometry": {"type": "Point", "coordinates": [9.039119076057432, 45.63144806693576]}}], "price": 1.889, "ultima_rilevazione": "31/05/2022 07:41:54"}, {"Gestore": "ESSO SERVICE S.A.S. DI STELLUTI DANIELE & C.", "Bandiera": "Esso", "Tipo impianto": "Altro", "Indirizzo": "Via Giuseppe Garibaldi 132 20024", "Nome impianto": "Esso", "Comune": "GARBAGNATE MILANESE", "idImpianto": 42136, "points": [{"type": "Feature", "properties": {}, "geometry": {"type": "Point", "coordinates": [9.076157453967426, 45.56543979927998]}}], "price": 1.789, "ultima_rilevazione": "31/05/2022 08:10:49"}, {"Gestore": "AUTOSERVICE LOTTO SRL", "Bandiera": "Agip Eni", "Tipo impianto": "Altro", "Indirizzo": "strada provinciale 101 km. 3+500  20020", "Nome impianto": "Autoservice Lotto srl", "Comune": "LAINATE", "idImpianto": 8061, "points": [{"type": "Feature", "properties": {}, "geometry": {"type": "Point", "coordinates": [9.014978259801865, 45.56237402569371]}}], "price": 1.899, "ultima_rilevazione": "31/05/2022 08:16:55"}, {"Gestore": "MOPE S.N.C. DI FUSCALDO G. E PATICELLA F.", "Bandiera": "Agip Eni", "Tipo impianto": "Altro", "Indirizzo": "VIA ROMA ANGOLO VIA MIOLA  21047", "Nome impianto": "ENI 56817 Mope S.n.c.", "Comune": "SARONNO", "idImpianto": 19040, "points": [{"type": "Feature", "properties": {}, "geometry": {"type": "Point", "coordinates": [9.046116239300543, 45.62424442587159]}}], "price": 1.879, "ultima_rilevazione": "31/05/2022 08:54:39"}, {"Gestore": "*PREZIOSA MAURIZIO", "Bandiera": "Esso", "Tipo impianto": "Altro", "Indirizzo": "VIA MARCONI ANGOLO VIA SONCINO SNC 21047", "Nome impianto": "Stazione Esso Preziosa Maurizio", "Comune": "SARONNO", "idImpianto": 43372, "points": [{"type": "Feature", "properties": {}, "geometry": {"type": "Point", "coordinates": [9.038958012067724, 45.62395234624892]}}], "price": 1.829, "ultima_rilevazione": "31/05/2022 09:31:33"}, {"Gestore": "IPER MONTEBELLO S.P.A.", "Bandiera": "Iper Station", "Tipo impianto": "Altro", "Indirizzo": "Via Luraghi sn 20020", "Nome impianto": "Iper Station Arese", "Comune": "ARESE", "idImpianto": 30892, "points": [{"type": "Feature", "properties": {}, "geometry": {"type": "Point", "coordinates": [9.053292274475098, 45.56176087890731]}}], "price": 1.755, "ultima_rilevazione": "31/05/2022 10:01:04"}, {"Gestore": "villoresi di vitale gaetano &c. snc", "Bandiera": "Esso", "Tipo impianto": "Autostradale", "Indirizzo": "Autostrada A8-A9 MILANO-LAGHI, Km. 7+600, dir. Sud 20020", "Nome impianto": "VILLORESI OVEST", "Comune": "LAINATE", "idImpianto": 3927, "points": [{"type": "Feature", "properties": {}, "geometry": {"type": "Point", "coordinates": [9.04014393386842, 45.55834880837939]}}], "price": 2.142, "ultima_rilevazione": "31/05/2022 10:28:34"}, {"Gestore": "T.D.M. S.R.L.", "Bandiera": "Tamoil", "Tipo impianto": "Altro", "Indirizzo": "VIA IV NOVEMBRE 10 21040", "Nome impianto": "8490", "Comune": "UBOLDO", "idImpianto": 44438, "points": [{"type": "Feature", "properties": {}, "geometry": {"type": "Point", "coordinates": [9.0138290000123, 45.619769000123]}}], "price": 1.819, "ultima_rilevazione": "31/05/2022 11:52:12"}, {"Gestore": "IP SERVICES S.R.L.", "Bandiera": "Api-Ip", "Tipo impianto": "Altro", "Indirizzo": "Ex Strada Statale 233  ", "Nome impianto": "Saronno", "Comune": "SARONNO", "idImpianto": 23529, "points": [{"type": "Feature", "properties": {}, "geometry": {"type": "Point", "coordinates": [9.019711017608644, 45.61628089502815]}}], "price": 1.799, "ultima_rilevazione": "31/05/2022 12:07:59"}, {"Gestore": "Nuova Sidap SRL", "Bandiera": "Q8", "Tipo impianto": "Autostradale", "Indirizzo": "Autostrada A8-A9 MILANO-LAGHI, Km. 7+600, dir. Nord 20020", "Nome impianto": "VILLORESI EST", "Comune": "LAINATE", "idImpianto": 3555, "points": [{"type": "Feature", "properties": {}, "geometry": {"type": "Point", "coordinates": [9.039123033065836, 45.55996995230018]}}], "price": 1.909, "ultima_rilevazione": "31/05/2022 14:30:21"}, {"Gestore": "CLERICI LUCA", "Bandiera": "Api-Ip", "Tipo impianto": "Strada Statale", "Indirizzo": "527 Bustese, Km. 54,344, castellanza 21040", "Nome impianto": "ip", "Comune": "UBOLDO", "idImpianto": 47558, "points": [{"type": "Feature", "properties": {}, "geometry": {"type": "Point", "coordinates": [8.999279403993663, 45.6137107376401]}}], "price": 1.849, "ultima_rilevazione": "31/05/2022 16:21:28"}, {"Gestore": "ARTICO & PALAZZI S.N.C. DI ARTICO NICHOLAS", "Bandiera": "Tamoil", "Tipo impianto": "Altro", "Indirizzo": "CORSO EUROPA 72 20020", "Nome impianto": "STAZIONE DI SERVIZIO TAMOIL", "Comune": "SOLARO", "idImpianto": 25413, "points": [{"type": "Feature", "properties": {}, "geometry": {"type": "Point", "coordinates": [9.093176202945417, 45.6092497143197]}}], "price": 1.829, "ultima_rilevazione": "31/05/2022 17:18:03"}, {"Gestore": "SERVIZI E GESTIONI ZENIT S.R.L. IN SIGLA - ZENIT S.R.L.", "Bandiera": "Esso", "Tipo impianto": "Altro", "Indirizzo": "VIA GAVINANA 18 20024", "Nome impianto": "V.GAVINANA GARBA", "Comune": "GARBAGNATE MILANESE", "idImpianto": 12063, "points": [{"type": "Feature", "properties": {}, "geometry": {"type": "Point", "coordinates": [9.07853596808809, 45.57874058957802]}}], "price": 1.818, "ultima_rilevazione": "31/05/2022 18:14:22"}, {"Gestore": "CIRAOLO S.A.S. DI CIRAOLO GIANMATTEO & C.", "Bandiera": "Agip Eni", "Tipo impianto": "Altro", "Indirizzo": "VIA VARESE  35 21047", "Nome impianto": "ENI", "Comune": "SARONNO", "idImpianto": 47221, "points": [{"type": "Feature", "properties": {}, "geometry": {"type": "Point", "coordinates": [9.026269221096436, 45.62484664921547]}}], "price": 1.879, "ultima_rilevazione": "01/06/2022 00:20:09"}, {"Gestore": "SERVIZI & GESTIONI ITALIA S.R.L.", "Bandiera": "Q8", "Tipo impianto": "Altro", "Indirizzo": "S.S. BUSTESE VIA VARESE 216 20020", "Nome impianto": "SOLARO-S.S. BUSTESE VIA VARESE 216", "Comune": "SOLARO", "idImpianto": 11665, "points": [{"type": "Feature", "properties": {}, "geometry": {"type": "Point", "coordinates": [9.064423789024318, 45.61763752107878]}}], "price": 1.899, "ultima_rilevazione": "01/06/2022 01:40:26"}, {"Gestore": "SERVIZI & GESTIONI ITALIA S.R.L.", "Bandiera": "Q8", "Tipo impianto": "Altro", "Indirizzo": "VIA ROMA 43 20020", "Nome impianto": "CESATE-VIA ROMA 43", "Comune": "CESATE", "idImpianto": 11703, "points": [{"type": "Feature", "properties": {}, "geometry": {"type": "Point", "coordinates": [9.078240991401684, 45.59066381652534]}}], "price": 1.839, "ultima_rilevazione": "01/06/2022 07:09:03"}, {"Gestore": "SERVIZI & GESTIONI ITALIA S.R.L.", "Bandiera": "Q8", "Tipo impianto": "Altro", "Indirizzo": "VIA GARIBALDI FZ. S MARIA ROSSA 89 20024", "Nome impianto": "GARBAGNATE-VIA GARIBALDI 89 FZ. S MARIA ROSSA", "Comune": "GARBAGNATE MILANESE", "idImpianto": 11689, "points": [{"type": "Feature", "properties": {}, "geometry": {"type": "Point", "coordinates": [9.07466973743442, 45.5674187773307]}}], "price": 1.839, "ultima_rilevazione": "01/06/2022 07:09:04"}, {"Gestore": "GALLUCCI SABRINA", "Bandiera": "Tamoil", "Tipo impianto": "Altro", "Indirizzo": "VIA XIV STRADA 10 20020", "Nome impianto": "Tamoil ", "Comune": "CESATE", "idImpianto": 35748, "points": [{"type": "Feature", "properties": {}, "geometry": {"type": "Point", "coordinates": [9.095667153596878, 45.59531739094676]}}], "price": 1.829, "ultima_rilevazione": "01/06/2022 07:24:13"}], "5": [{"Gestore": "PETROL CRI DI REPARATO CRISTIAN", "Bandiera": "Api-Ip", "Tipo impianto": "Altro", "Indirizzo": "VIA XXV APRILE   20812", "Nome impianto": "ITALIANA PETROLI ", "Comune": "LIMBIATE", "idImpianto": 45380, "points": [{"type": "Feature", "properties": {}, "geometry": {"type": "Point", "coordinates": [9.119485169649124, 45.58977655922272]}}], "price": 1.849, "ultima_rilevazione": "23/05/2022 12:41:00"}, {"Gestore": "METANGAS S.R.L.", "Bandiera": "Pompe Bianche", "Tipo impianto": "Altro", "Indirizzo": "via carducci 25 21040", "Nome impianto": "METANGAS", "Comune": "GERENZANO", "idImpianto": 45447, "points": [{"type": "Feature", "properties": {}, "geometry": {"type": "Point", "coordinates": [9.012491567736788, 45.63447167121218]}}], "price": 1.849, "ultima_rilevazione": "25/05/2022 21:23:20"}, {"Gestore": "RE.PA. S.A.S. DI REPARATO VINCENZO & C.", "Bandiera": "Retitalia", "Tipo impianto": "Strada Statale", "Indirizzo": "527 Bustese, Km. 10+488, Nord 20812", "Nome impianto": "RETITALIA ", "Comune": "LIMBIATE", "idImpianto": 44911, "points": [{"type": "Feature", "properties": {}, "geometry": {"type": "Point", "coordinates": [9.125187234533996, 45.60680536884407]}}], "price": 1.819, "ultima_rilevazione": "28/05/2022 08:31:39"}, {"Gestore": "ALBERTI LUIGI E C. S.R.L.", "Bandiera": "Api-Ip", "Tipo impianto": "Altro", "Indirizzo": "Via Risorgimento 26 21040", "Nome impianto": "ITALIANA PETROLI", "Comune": "GERENZANO", "idImpianto": 38725, "points": [{"type": "Feature", "properties": {}, "geometry": {"type": "Point", "coordinates": [8.995601311326027, 45.643181634759976]}}], "price": 1.869, "ultima_rilevazione": "30/05/2022 09:43:56"}, {"Gestore": "MAZHAR SHAHZAIB", "Bandiera": "Api-Ip", "Tipo impianto": "Altro", "Indirizzo": "VIA  A.VOLTA 211 21047", "Nome impianto": "IP", "Comune": "SARONNO", "idImpianto": 45804, "points": [{"type": "Feature", "properties": {}, "geometry": {"type": "Point", "coordinates": [9.036012020732985, 45.64166936061599]}}], "price": 1.848, "ultima_rilevazione": "30/05/2022 10:18:50"}, {"Gestore": "KEROPETROL S.P.A.", "Bandiera": "KEROPETROL", "Tipo impianto": "Altro", "Indirizzo": "via 4 novembre  21040", "Nome impianto": "KEROPETROL SPA UBOLDO", "Comune": "UBOLDO", "idImpianto": 23842, "points": [{"type": "Feature", "properties": {}, "geometry": {"type": "Point", "coordinates": [8.979483246803284, 45.61317586572184]}}], "price": 1.799, "ultima_rilevazione": "30/05/2022 16:48:01"}, {"Gestore": "GHULAM PAK DI ANWAR SAEED & C. S.A.S.", "Bandiera": "Esso", "Tipo impianto": "Altro", "Indirizzo": "S.S.33 DEL SEMPIONE, KM.16+030  20017", "Nome impianto": "GHULAM PAK", "Comune": "RHO", "idImpianto": 24279, "points": [{"type": "Feature", "properties": {}, "geometry": {"type": "Point", "coordinates": [9.019233584403992, 45.54109280194033]}}], "price": 1.789, "ultima_rilevazione": "30/05/2022 19:52:49"}, {"Gestore": "NUOVA SIDAP  S.R.L.", "Bandiera": "Esso", "Tipo impianto": "Strada Statale", "Indirizzo": "33 del Sempione, Km. 18+92, Nord 20014", "Nome impianto": "Nerviano", "Comune": "NERVIANO", "idImpianto": 43734, "points": [{"type": "Feature", "properties": {}, "geometry": {"type": "Point", "coordinates": [8.993886113166809, 45.548350551694746]}}], "price": 1.802, "ultima_rilevazione": "31/05/2022 05:25:12"}, {"Gestore": "T.D.M. S.R.L.", "Bandiera": "Tamoil", "Tipo impianto": "Altro", "Indirizzo": "Via Rho  20020", "Nome impianto": "3537", "Comune": "LAINATE", "idImpianto": 35445, "points": [{"type": "Feature", "properties": {}, "geometry": {"type": "Point", "coordinates": [9.029793441295624, 45.55220869339715]}}], "price": 1.829, "ultima_rilevazione": "31/05/2022 11:52:07"}, {"Gestore": "IP SERVICES S.R.L.", "Bandiera": "Api-Ip", "Tipo impianto": "Altro", "Indirizzo": "VIA LAINATE  20017", "Nome impianto": "RHO - LAINATE", "Comune": "RHO", "idImpianto": 27031, "points": [{"type": "Feature", "properties": {}, "geometry": {"type": "Point", "coordinates": [9.03128583068849, 45.547463865626085]}}], "price": 1.799, "ultima_rilevazione": "31/05/2022 12:03:19"}, {"Gestore": "IP SERVICES S.R.L.", "Bandiera": "Api-Ip", "Tipo impianto": "Strada Statale", "Indirizzo": "Statale 33 del Sempione, Km. 15+580, dir. Nerviano 20017", "Nome impianto": "RHO - SS 33 KM 15+580", "Comune": "RHO", "idImpianto": 23101, "points": [{"type": "Feature", "properties": {}, "geometry": {"type": "Point", "coordinates": [9.02470728836056, 45.54066994198055]}}], "price": 1.799, "ultima_rilevazione": "31/05/2022 12:05:48"}, {"Gestore": "IP SERVICES S.R.L.", "Bandiera": "Api-Ip", "Tipo impianto": "Altro", "Indirizzo": "Via Vittorio Veneto 116 22070", "Nome impianto": "Rovello Porro", "Comune": "ROVELLO PORRO", "idImpianto": 23393, "points": [{"type": "Feature", "properties": {}, "geometry": {"type": "Point", "coordinates": [9.023959636688232, 45.65362120460147]}}], "price": 1.849, "ultima_rilevazione": "31/05/2022 12:07:14"}, {"Gestore": "IP SERVICES S.R.L.", "Bandiera": "Api-Ip", "Tipo impianto": "Altro", "Indirizzo": "via Lainate ang. via Diaz  20017", "Nome impianto": "Rho via Lainate", "Comune": "RHO", "idImpianto": 36451, "points": [{"type": "Feature", "properties": {}, "geometry": {"type": "Point", "coordinates": [9.036739021539688, 45.53643383759013]}}], "price": 1.799, "ultima_rilevazione": "31/05/2022 12:07:46"}, {"Gestore": "IPERSTAROIL S.R.L.", "Bandiera": "Tamoil", "Tipo impianto": "Altro", "Indirizzo": "Via Alcide De Gasperi S/P 109  109 20014", "Nome impianto": "TAMOIL NERVIANO", "Comune": "NERVIANO", "idImpianto": 50914, "points": [{"type": "Feature", "properties": {}, "geometry": {"type": "Point", "coordinates": [8.987627501852401, 45.55416161629161]}}], "price": 1.769, "ultima_rilevazione": "31/05/2022 16:06:04"}, {"Gestore": "SERVIZI E GESTIONI ZENIT S.R.L. IN SIGLA - ZENIT S.R.L.", "Bandiera": "Giap", "Tipo impianto": "Altro", "Indirizzo": "VIA XXIV MAGGIO  20030", "Nome impianto": "VIA XXIV MAGGIO SENAGO", "Comune": "SENAGO", "idImpianto": 24400, "points": [{"type": "Feature", "properties": {}, "geometry": {"type": "Point", "coordinates": [9.116305728836096, 45.57547650985402]}}], "price": 1.848, "ultima_rilevazione": "31/05/2022 18:14:19"}, {"Gestore": "SERVIZI E GESTIONI ZENIT S.R.L. IN SIGLA - ZENIT S.R.L.", "Bandiera": "Esso", "Tipo impianto": "Altro", "Indirizzo": "VIA DE GASPERI 23 20020", "Nome impianto": "VIA DEGASP.ARESE", "Comune": "ARESE", "idImpianto": 12065, "points": [{"type": "Feature", "properties": {}, "geometry": {"type": "Point", "coordinates": [9.080279892030717, 45.55094687828335]}}], "price": 1.819, "ultima_rilevazione": "31/05/2022 18:14:22"}, {"Gestore": "SERVIZI & GESTIONI ITALIA S.R.L.", "Bandiera": "Q8", "Tipo impianto": "Altro", "Indirizzo": "SS. 33 SEMPIONE KM.18+600 S/N 20014", "Nome impianto": "NERVIANO-SS. 33 SEMPIONE KM.18+600", "Comune": "NERVIANO", "idImpianto": 11658, "points": [{"type": "Feature", "properties": {}, "geometry": {"type": "Point", "coordinates": [8.989460932540851, 45.55000751325928]}}], "price": 1.849, "ultima_rilevazione": "01/06/2022 01:40:16"}, {"Gestore": "SERVIZI & GESTIONI ITALIA S.R.L.", "Bandiera": "Q8", "Tipo impianto": "Altro", "Indirizzo": "VIA CAPUANA C/O ESSELUNGA CENTRE S/N 20017", "Nome impianto": "RHO -VIA CAPUANA C/O ESSELUNGA CENTRE", "Comune": "RHO", "idImpianto": 11712, "points": [{"type": "Feature", "properties": {}, "geometry": {"type": "Point", "coordinates": [9.021690487861632, 45.53642989217953]}}], "price": 1.849, "ultima_rilevazione": "01/06/2022 01:40:20"}, {"Gestore": "SERVIZI & GESTIONI ITALIA S.R.L.", "Bandiera": "Q8", "Tipo impianto": "Altro", "Indirizzo": " VIA C.BATTISTI  20020", "Nome impianto": "COGLIATE VIA C.BATTISTI", "Comune": "COGLIATE", "idImpianto": 33177, "points": [{"type": "Feature", "properties": {}, "geometry": {"type": "Point", "coordinates": [9.079532912897548, 45.64368872008721]}}], "price": 1.899, "ultima_rilevazione": "01/06/2022 07:09:04"}, {"Gestore": "SERVIZI & GESTIONI ITALIA S.R.L.", "Bandiera": "Q8", "Tipo impianto": "Altro", "Indirizzo": "SS. 33 DEL SEMPIONE KM.15+660 S/N 20017", "Nome impianto": "RHO-SS. 33 DEL SEMPIONE KM.15+660", "Comune": "RHO", "idImpianto": 11686, "points": [{"type": "Feature", "properties": {}, "geometry": {"type": "Point", "coordinates": [9.02422338161466, 45.540303757278025]}}], "price": 1.869, "ultima_rilevazione": "01/06/2022 07:09:11"}]}, "Metano": {"1": [{"Gestore": "MOTORCLIMA S.R.L.", "Bandiera": "Eco Fuel", "Tipo impianto": "Altro", "Indirizzo": "VIA GRIEG 81 21047", "Nome impianto": "motorclima", "Comune": "SARONNO", "idImpianto": 33505, "points": [{"type": "Feature", "properties": {}, "geometry": {"type": "Point", "coordinates": [9.043757021427156, 45.61205763783735]}}], "price": 1.535, "ultima_rilevazione": "28/05/2022 14:45:45"}, {"Gestore": "FREBAR DI AGNANI CRISTIAN", "Bandiera": "Pompe Bianche", "Tipo impianto": "Altro", "Indirizzo": "via Parma  2H 21047", "Nome impianto": "Frebar di  Agnani Cristian", "Comune": "SARONNO", "idImpianto": 43853, "points": [{"type": "Feature", "properties": {}, "geometry": {"type": "Point", "coordinates": [9.029931209821711, 45.6118111237518]}}], "price": 0.01, "ultima_rilevazione": "30/05/2022 07:05:26"}, {"Gestore": "C- PETROL S.R.L.", "Bandiera": "Pompe Bianche", "Tipo impianto": "Altro", "Indirizzo": "VIA TRATTATI DI ROMA  20024", "Nome impianto": "EKO POINT", "Comune": "GARBAGNATE MILANESE", "idImpianto": 28454, "points": [{"type": "Feature", "properties": {}, "geometry": {"type": "Point", "coordinates": [9.057772904634476, 45.578883991894855]}}], "price": 1.999, "ultima_rilevazione": "31/05/2022 10:05:26"}], "3": [{"Gestore": "IPER MONTEBELLO S.P.A.", "Bandiera": "Iper Station", "Tipo impianto": "Altro", "Indirizzo": "Via Luraghi sn 20020", "Nome impianto": "Iper Station Arese", "Comune": "ARESE", "idImpianto": 30892, "points": [{"type": "Feature", "properties": {}, "geometry": {"type": "Point", "coordinates": [9.053292274475098, 45.56176087890731]}}], "price": 1.999, "ultima_rilevazione": "31/05/2022 10:01:04"}, {"Gestore": "villoresi di vitale gaetano &c. snc", "Bandiera": "Esso", "Tipo impianto": "Autostradale", "Indirizzo": "Autostrada A8-A9 MILANO-LAGHI, Km. 7+600, dir. Sud 20020", "Nome impianto": "VILLORESI OVEST", "Comune": "LAINATE", "idImpianto": 3927, "points": [{"type": "Feature", "properties": {}, "geometry": {"type": "Point", "coordinates": [9.04014393386842, 45.55834880837939]}}], "price": 2.88, "ultima_rilevazione": "31/05/2022 10:28:34"}], "5": [{"Gestore": "METANGAS S.R.L.", "Bandiera": "Pompe Bianche", "Tipo impianto": "Altro", "Indirizzo": "via carducci 25 21040", "Nome impianto": "METANGAS", "Comune": "GERENZANO", "idImpianto": 45447, "points": [{"type": "Feature", "properties": {}, "geometry": {"type": "Point", "coordinates": [9.012491567736788, 45.63447167121218]}}], "price": 1.49, "ultima_rilevazione": "25/05/2022 21:23:20"}, {"Gestore": "KEROPETROL S.P.A.", "Bandiera": "KEROPETROL", "Tipo impianto": "Altro", "Indirizzo": "via 4 novembre  21040", "Nome impianto": "KEROPETROL SPA UBOLDO", "Comune": "UBOLDO", "idImpianto": 23842, "points": [{"type": "Feature", "properties": {}, "geometry": {"type": "Point", "coordinates": [8.979483246803284, 45.61317586572184]}}], "price": 1.799, "ultima_rilevazione": "30/05/2022 16:48:01"}, {"Gestore": "GHULAM PAK DI ANWAR SAEED & C. S.A.S.", "Bandiera": "Esso", "Tipo impianto": "Altro", "Indirizzo": "S.S.33 DEL SEMPIONE, KM.16+030  20017", "Nome impianto": "GHULAM PAK", "Comune": "RHO", "idImpianto": 24279, "points": [{"type": "Feature", "properties": {}, "geometry": {"type": "Point", "coordinates": [9.019233584403992, 45.54109280194033]}}], "price": 1.543, "ultima_rilevazione": "30/05/2022 19:52:49"}]}, "GPL": {"1": [{"Gestore": "G.PETROLI S.A.S. DI GABANELLI LIVIO & C.", "Bandiera": "Pompe Bianche", "Tipo impianto": "Altro", "Indirizzo": "VIA Lampedusa 49 21042", "Nome impianto": "G.  Gabanelli", "Comune": "CARONNO PERTUSELLA", "idImpianto": 39660, "points": [{"type": "Feature", "properties": {}, "geometry": {"type": "Point", "coordinates": [9.05009038746357, 45.59071153491578]}}], "price": 0.799, "ultima_rilevazione": "25/05/2022 08:25:59"}, {"Gestore": "FREBAR DI AGNANI CRISTIAN", "Bandiera": "Pompe Bianche", "Tipo impianto": "Altro", "Indirizzo": "via Parma  2H 21047", "Nome impianto": "Frebar di  Agnani Cristian", "Comune": "SARONNO", "idImpianto": 43853, "points": [{"type": "Feature", "properties": {}, "geometry": {"type": "Point", "coordinates": [9.029931209821711, 45.6118111237518]}}], "price": 0.799, "ultima_rilevazione": "30/05/2022 07:05:26"}, {"Gestore": "C- PETROL S.R.L.", "Bandiera": "Pompe Bianche", "Tipo impianto": "Altro", "Indirizzo": "VIA TRATTATI DI ROMA  20024", "Nome impianto": "EKO POINT", "Comune": "GARBAGNATE MILANESE", "idImpianto": 28454, "points": [{"type": "Feature", "properties": {}, "geometry": {"type": "Point", "coordinates": [9.057772904634476, 45.578883991894855]}}], "price": 0.799, "ultima_rilevazione": "31/05/2022 10:05:26"}], "3": [{"Gestore": "DE CAPRARIS PASQUALE", "Bandiera": "Agip Eni", "Tipo impianto": "Altro", "Indirizzo": "VIA JF KENNEDY  61 20024", "Nome impianto": "DISTRIBUTORE GPL BRIXIA", "Comune": "GARBAGNATE MILANESE", "idImpianto": 47133, "points": [{"type": "Feature", "properties": {}, "geometry": {"type": "Point", "coordinates": [9.070534000123, 45.562744000123]}}], "price": 0.819, "ultima_rilevazione": "30/05/2022 12:39:15"}, {"Gestore": "villoresi di vitale gaetano &c. snc", "Bandiera": "Esso", "Tipo impianto": "Autostradale", "Indirizzo": "Autostrada A8-A9 MILANO-LAGHI, Km. 7+600, dir. Sud 20020", "Nome impianto": "VILLORESI OVEST", "Comune": "LAINATE", "idImpianto": 3927, "points": [{"type": "Feature", "properties": {}, "geometry": {"type": "Point", "coordinates": [9.04014393386842, 45.55834880837939]}}], "price": 1.129, "ultima_rilevazione": "31/05/2022 10:28:34"}, {"Gestore": "Nuova Sidap SRL", "Bandiera": "Q8", "Tipo impianto": "Autostradale", "Indirizzo": "Autostrada A8-A9 MILANO-LAGHI, Km. 7+600, dir. Nord 20020", "Nome impianto": "VILLORESI EST", "Comune": "LAINATE", "idImpianto": 3555, "points": [{"type": "Feature", "properties": {}, "geometry": {"type": "Point", "coordinates": [9.039123033065836, 45.55996995230018]}}], "price": 0.859, "ultima_rilevazione": "31/05/2022 14:30:21"}], "5": [{"Gestore": "GOLDEN WASH S.R.L.", "Bandiera": "Pompe Bianche", "Tipo impianto": "Altro", "Indirizzo": "via monte grappa 1 20051", "Nome impianto": "golden wash ", "Comune": "LIMBIATE", "idImpianto": 24545, "points": [{"type": "Feature", "properties": {}, "geometry": {"type": "Point", "coordinates": [9.122843666838548, 45.60645584861527]}}], "price": 0.849, "ultima_rilevazione": "23/05/2022 17:09:16"}, {"Gestore": "METANGAS S.R.L.", "Bandiera": "Pompe Bianche", "Tipo impianto": "Altro", "Indirizzo": "via carducci 25 21040", "Nome impianto": "METANGAS", "Comune": "GERENZANO", "idImpianto": 45447, "points": [{"type": "Feature", "properties": {}, "geometry": {"type": "Point", "coordinates": [9.012491567736788, 45.63447167121218]}}], "price": 0.839, "ultima_rilevazione": "25/05/2022 21:23:20"}, {"Gestore": "OFFICINA MGK DI LONGO GIUSEPPE", "Bandiera": "Agip Eni", "Tipo impianto": "Altro", "Indirizzo": "via Trento 80 20017", "Nome impianto": "Brixia", "Comune": "RHO", "idImpianto": 47000, "points": [{"type": "Feature", "properties": {}, "geometry": {"type": "Point", "coordinates": [9.03206993005938, 45.54899381752294]}}], "price": 0.899, "ultima_rilevazione": "26/05/2022 08:08:02"}, {"Gestore": "KEROPETROL S.P.A.", "Bandiera": "KEROPETROL", "Tipo impianto": "Altro", "Indirizzo": "via 4 novembre  21040", "Nome impianto": "KEROPETROL SPA UBOLDO", "Comune": "UBOLDO", "idImpianto": 23842, "points": [{"type": "Feature", "properties": {}, "geometry": {"type": "Point", "coordinates": [8.979483246803284, 45.61317586572184]}}], "price": 0.799, "ultima_rilevazione": "30/05/2022 16:48:01"}, {"Gestore": "GHULAM PAK DI ANWAR SAEED & C. S.A.S.", "Bandiera": "Esso", "Tipo impianto": "Altro", "Indirizzo": "S.S.33 DEL SEMPIONE, KM.16+030  20017", "Nome impianto": "GHULAM PAK", "Comune": "RHO", "idImpianto": 24279, "points": [{"type": "Feature", "properties": {}, "geometry": {"type": "Point", "coordinates": [9.019233584403992, 45.54109280194033]}}], "price": 0.809, "ultima_rilevazione": "30/05/2022 19:52:49"}]}, "Blue Diesel": {"1": [{"Gestore": "PETROL STORE S.A.S. DI RE FRASCHINI MARCO E C.", "Bandiera": "Agip Eni", "Tipo impianto": "Strada Statale", "Indirizzo": "233 Varesina, Km. 20+110, Milano 21040", "Nome impianto": "Petrol Store", "Comune": "ORIGGIO", "idImpianto": 44094, "points": [{"type": "Feature", "properties": {}, "geometry": {"type": "Point", "coordinates": [9.027523822090188, 45.60036151957927]}}], "price": 2.084, "ultima_rilevazione": "31/05/2022 07:15:43"}, {"Gestore": "PETROL STORE S.A.S. DI RE FRASCHINI MARCO E C.", "Bandiera": "Agip Eni", "Tipo impianto": "Strada Statale", "Indirizzo": "233 Varesina, Km. 20+110, Milano 21040", "Nome impianto": "Petrol Store", "Comune": "ORIGGIO", "idImpianto": 44094, "points": [{"type": "Feature", "properties": {}, "geometry": {"type": "Point", "coordinates": [9.027523822090188, 45.60036151957927]}}], "price": 1.974, "ultima_rilevazione": "31/05/2022 07:15:43"}], "3": [{"Gestore": "AUTOSERVICE LOTTO SRL", "Bandiera": "Agip Eni", "Tipo impianto": "Altro", "Indirizzo": "strada provinciale 101 km. 3+500  20020", "Nome impianto": "Autoservice Lotto srl", "Comune": "LAINATE", "idImpianto": 8061, "points": [{"type": "Feature", "properties": {}, "geometry": {"type": "Point", "coordinates": [9.014978259801865, 45.56237402569371]}}], "price": 2.089, "ultima_rilevazione": "31/05/2022 08:16:55"}, {"Gestore": "CIRAOLO S.A.S. DI CIRAOLO GIANMATTEO & C.", "Bandiera": "Agip Eni", "Tipo impianto": "Altro", "Indirizzo": "VIA VARESE  35 21047", "Nome impianto": "ENI", "Comune": "SARONNO", "idImpianto": 47221, "points": [{"type": "Feature", "properties": {}, "geometry": {"type": "Point", "coordinates": [9.026269221096436, 45.62484664921547]}}], "price": 2.089, "ultima_rilevazione": "01/06/2022 00:20:09"}, {"Gestore": "F.LLI PANDOLFO S.N.C. DI PANDOLFO LEOPOLDO E GIANNI", "Bandiera": "Agip Eni", "Tipo impianto": "Altro", "Indirizzo": "via roma 50 ", "Nome impianto": "ENI F.LLI PANDOLFO snc", "Comune": "SOLARO", "idImpianto": 18067, "points": [{"type": "Feature", "properties": {}, "geometry": {"type": "Point", "coordinates": [9.092313051223757, 45.61864135275116]}}], "price": 1.959, "ultima_rilevazione": "27/05/2022 11:37:13"}, {"Gestore": "D. & V. S.N.C. DI VALENTI MORGAN E CURRO' STEFANO", "Bandiera": "Agip Eni", "Tipo impianto": "Altro", "Indirizzo": "VIA CRISTOFORO COLOMBO 19 21047", "Nome impianto": "ENI ", "Comune": "SARONNO", "idImpianto": 13898, "points": [{"type": "Feature", "properties": {}, "geometry": {"type": "Point", "coordinates": [9.037899439950593, 45.63058096614678]}}], "price": 1.979, "ultima_rilevazione": "31/05/2022 07:24:09"}, {"Gestore": "AUTOSERVICE LOTTO SRL", "Bandiera": "Agip Eni", "Tipo impianto": "Altro", "Indirizzo": "strada provinciale 101 km. 3+500  20020", "Nome impianto": "Autoservice Lotto srl", "Comune": "LAINATE", "idImpianto": 8061, "points": [{"type": "Feature", "properties": {}, "geometry": {"type": "Point", "coordinates": [9.014978259801865, 45.56237402569371]}}], "price": 1.999, "ultima_rilevazione": "31/05/2022 08:16:55"}, {"Gestore": "MOPE S.N.C. DI FUSCALDO G. E PATICELLA F.", "Bandiera": "Agip Eni", "Tipo impianto": "Altro", "Indirizzo": "VIA ROMA ANGOLO VIA MIOLA  21047", "Nome impianto": "ENI 56817 Mope S.n.c.", "Comune": "SARONNO", "idImpianto": 19040, "points": [{"type": "Feature", "properties": {}, "geometry": {"type": "Point", "coordinates": [9.046116239300543, 45.62424442587159]}}], "price": 1.979, "ultima_rilevazione": "31/05/2022 08:54:39"}, {"Gestore": "LABRUNA RUBEN", "Bandiera": "Agip Eni", "Tipo impianto": "Altro", "Indirizzo": "VIALE PREALPI SNC 21047", "Nome impianto": "eni Labruna Ruben", "Comune": "SARONNO", "idImpianto": 18496, "points": [{"type": "Feature", "properties": {}, "geometry": {"type": "Point", "coordinates": [9.033567309379578, 45.63661374214532]}}], "price": 1.979, "ultima_rilevazione": "31/05/2022 09:37:47"}, {"Gestore": "CIRAOLO S.A.S. DI CIRAOLO GIANMATTEO & C.", "Bandiera": "Agip Eni", "Tipo impianto": "Altro", "Indirizzo": "VIA VARESE  35 21047", "Nome impianto": "ENI", "Comune": "SARONNO", "idImpianto": 47221, "points": [{"type": "Feature", "properties": {}, "geometry": {"type": "Point", "coordinates": [9.026269221096436, 45.62484664921547]}}], "price": 1.979, "ultima_rilevazione": "01/06/2022 00:20:09"}], "5": []}, "Diesel High Quality": {"1": [{"Gestore": "MCR S.N.C. DI MARTELLA FRANCESCO E C.", "Bandiera": "Q8", "Tipo impianto": "Altro", "Indirizzo": "VIA ANTONIO PARMA 3-5 21047", "Nome impianto": "area servizio q8", "Comune": "SARONNO", "idImpianto": 20637, "points": [{"type": "Feature", "properties": {}, "geometry": {"type": "Point", "coordinates": [9.031153321266174, 45.61241187080537]}}], "price": 2.169, "ultima_rilevazione": "31/05/2022 06:58:40"}, {"Gestore": "SERVIZI & GESTIONI ITALIA S.R.L.", "Bandiera": "Q8", "Tipo impianto": "Altro", "Indirizzo": "VIA GARBAGNATE 58/60 20020", "Nome impianto": "LAINATE-VIA GARBAGNATE 58/60", "Comune": "LAINATE", "idImpianto": 11685, "points": [{"type": "Feature", "properties": {}, "geometry": {"type": "Point", "coordinates": [9.042500000000018, 45.57374541847877]}}], "price": 2.199, "ultima_rilevazione": "31/05/2022 07:35:25"}, {"Gestore": "SERVIZI & GESTIONI ITALIA S.R.L.", "Bandiera": "Q8", "Tipo impianto": "Altro", "Indirizzo": "VIALE 5 GIORNATE  21042", "Nome impianto": "CARONNO PERTUSELLA - VIALE 5 GIORNATE", "Comune": "CARONNO PERTUSELLA", "idImpianto": 30797, "points": [{"type": "Feature", "properties": {}, "geometry": {"type": "Point", "coordinates": [9.060047826983691, 45.58166503439931]}}], "price": 2.139, "ultima_rilevazione": "01/06/2022 07:09:17"}, {"Gestore": "SERVIZI & GESTIONI ITALIA S.R.L.", "Bandiera": "Q8", "Tipo impianto": "Altro", "Indirizzo": "VIA VARESE ANGOLO VIA AMENDOLA S/N 21047", "Nome impianto": "SARONNO-VIA VARESE ANGOLO VIA AMENDOLA", "Comune": "SARONNO", "idImpianto": 11921, "points": [{"type": "Feature", "properties": {}, "geometry": {"type": "Point", "coordinates": [9.031083906745948, 45.61766623106788]}}], "price": 2.185, "ultima_rilevazione": "01/06/2022 07:09:18"}, {"Gestore": "SERVIZI & GESTIONI ITALIA S.R.L.", "Bandiera": "Q8", "Tipo impianto": "Altro", "Indirizzo": "VIA GARBAGNATE 58/60 20020", "Nome impianto": "LAINATE-VIA GARBAGNATE 58/60", "Comune": "LAINATE", "idImpianto": 11685, "points": [{"type": "Feature", "properties": {}, "geometry": {"type": "Point", "coordinates": [9.042500000000018, 45.57374541847877]}}], "price": 2.259, "ultima_rilevazione": "31/05/2022 07:35:25"}, {"Gestore": "SERVIZI & GESTIONI ITALIA S.R.L.", "Bandiera": "Q8", "Tipo impianto": "Altro", "Indirizzo": "VIALE 5 GIORNATE  21042", "Nome impianto": "CARONNO PERTUSELLA - VIALE 5 GIORNATE", "Comune": "CARONNO PERTUSELLA", "idImpianto": 30797, "points": [{"type": "Feature", "properties": {}, "geometry": {"type": "Point", "coordinates": [9.060047826983691, 45.58166503439931]}}], "price": 2.239, "ultima_rilevazione": "01/06/2022 07:09:17"}, {"Gestore": "SERVIZI & GESTIONI ITALIA S.R.L.", "Bandiera": "Q8", "Tipo impianto": "Altro", "Indirizzo": "VIA VARESE ANGOLO VIA AMENDOLA S/N 21047", "Nome impianto": "SARONNO-VIA VARESE ANGOLO VIA AMENDOLA", "Comune": "SARONNO", "idImpianto": 11921, "points": [{"type": "Feature", "properties": {}, "geometry": {"type": "Point", "coordinates": [9.031083906745948, 45.61766623106788]}}], "price": 2.275, "ultima_rilevazione": "01/06/2022 07:09:18"}, {"Gestore": "ARBOLINO DI ARBOLINO TIZIANA E C. SAS", "Bandiera": "Esso", "Tipo impianto": "Altro", "Indirizzo": "VIA PELORITANA 0056 20024", "Nome impianto": "Esso", "Comune": "GARBAGNATE MILANESE", "idImpianto": 27947, "points": [{"type": "Feature", "properties": {}, "geometry": {"type": "Point", "coordinates": [9.06746388085014, 45.57460538609306]}}], "price": 1.949, "ultima_rilevazione": "29/05/2022 10:56:21"}], "3": [{"Gestore": "Nuova Sidap SRL", "Bandiera": "Q8", "Tipo impianto": "Autostradale", "Indirizzo": "Autostrada A8-A9 MILANO-LAGHI, Km. 7+600, dir. Nord 20020", "Nome impianto": "VILLORESI EST", "Comune": "LAINATE", "idImpianto": 3555, "points": [{"type": "Feature", "properties": {}, "geometry": {"type": "Point", "coordinates": [9.039123033065836, 45.55996995230018]}}], "price": 2.209, "ultima_rilevazione": "31/05/2022 14:30:21"}, {"Gestore": "SERVIZI & GESTIONI ITALIA S.R.L.", "Bandiera": "Q8", "Tipo impianto": "Altro", "Indirizzo": "VIA ROMA 43 20020", "Nome impianto": "CESATE-VIA ROMA 43", "Comune": "CESATE", "idImpianto": 11703, "points": [{"type": "Feature", "properties": {}, "geometry": {"type": "Point", "coordinates": [9.078240991401684, 45.59066381652534]}}], "price": 2.139, "ultima_rilevazione": "01/06/2022 07:09:03"}, {"Gestore": "SERVIZI & GESTIONI ITALIA S.R.L.", "Bandiera": "Q8", "Tipo impianto": "Altro", "Indirizzo": "VIA GARIBALDI FZ. S MARIA ROSSA 89 20024", "Nome impianto": "GARBAGNATE-VIA GARIBALDI 89 FZ. S MARIA ROSSA", "Comune": "GARBAGNATE MILANESE", "idImpianto": 11689, "points": [{"type": "Feature", "properties": {}, "geometry": {"type": "Point", "coordinates": [9.07466973743442, 45.5674187773307]}}], "price": 2.139, "ultima_rilevazione": "01/06/2022 07:09:04"}, {"Gestore": "Nuova Sidap SRL", "Bandiera": "Q8", "Tipo impianto": "Autostradale", "Indirizzo": "Autostrada A8-A9 MILANO-LAGHI, Km. 7+600, dir. Nord 20020", "Nome impianto": "VILLORESI EST", "Comune": "LAINATE", "idImpianto": 3555, "points": [{"type": "Feature", "properties": {}, "geometry": {"type": "Point", "coordinates": [9.039123033065836, 45.55996995230018]}}], "price": 2.289, "ultima_rilevazione": "31/05/2022 14:30:21"}, {"Gestore": "SERVIZI & GESTIONI ITALIA S.R.L.", "Bandiera": "Q8", "Tipo impianto": "Altro", "Indirizzo": "VIA ROMA 43 20020", "Nome impianto": "CESATE-VIA ROMA 43", "Comune": "CESATE", "idImpianto": 11703, "points": [{"type": "Feature", "properties": {}, "geometry": {"type": "Point", "coordinates": [9.078240991401684, 45.59066381652534]}}], "price": 2.239, "ultima_rilevazione": "01/06/2022 07:09:03"}, {"Gestore": "SERVIZI & GESTIONI ITALIA S.R.L.", "Bandiera": "Q8", "Tipo impianto": "Altro", "Indirizzo": "VIA GARIBALDI FZ. S MARIA ROSSA 89 20024", "Nome impianto": "GARBAGNATE-VIA GARIBALDI 89 FZ. S MARIA ROSSA", "Comune": "GARBAGNATE MILANESE", "idImpianto": 11689, "points": [{"type": "Feature", "properties": {}, "geometry": {"type": "Point", "coordinates": [9.07466973743442, 45.5674187773307]}}], "price": 2.239, "ultima_rilevazione": "01/06/2022 07:09:04"}], "5": [{"Gestore": "SERVIZI & GESTIONI ITALIA S.R.L.", "Bandiera": "Q8", "Tipo impianto": "Altro", "Indirizzo": " VIA C.BATTISTI  20020", "Nome impianto": "COGLIATE VIA C.BATTISTI", "Comune": "COGLIATE", "idImpianto": 33177, "points": [{"type": "Feature", "properties": {}, "geometry": {"type": "Point", "coordinates": [9.079532912897548, 45.64368872008721]}}], "price": 2.199, "ultima_rilevazione": "01/06/2022 07:09:04"}, {"Gestore": "SERVIZI & GESTIONI ITALIA S.R.L.", "Bandiera": "Q8", "Tipo impianto": "Altro", "Indirizzo": "SS. 33 DEL SEMPIONE KM.15+660 S/N 20017", "Nome impianto": "RHO-SS. 33 DEL SEMPIONE KM.15+660", "Comune": "RHO", "idImpianto": 11686, "points": [{"type": "Feature", "properties": {}, "geometry": {"type": "Point", "coordinates": [9.02422338161466, 45.540303757278025]}}], "price": 2.169, "ultima_rilevazione": "01/06/2022 07:09:11"}, {"Gestore": "SERVIZI & GESTIONI ITALIA S.R.L.", "Bandiera": "Q8", "Tipo impianto": "Altro", "Indirizzo": "SS. 33 DEL SEMPIONE KM.15+660 S/N 20017", "Nome impianto": "RHO-SS. 33 DEL SEMPIONE KM.15+660", "Comune": "RHO", "idImpianto": 11686, "points": [{"type": "Feature", "properties": {}, "geometry": {"type": "Point", "coordinates": [9.02422338161466, 45.540303757278025]}}], "price": 2.269, "ultima_rilevazione": "01/06/2022 07:09:11"}, {"Gestore": "NUOVA SIDAP  S.R.L.", "Bandiera": "Esso", "Tipo impianto": "Strada Statale", "Indirizzo": "33 del Sempione, Km. 18+92, Nord 20014", "Nome impianto": "Nerviano", "Comune": "NERVIANO", "idImpianto": 43734, "points": [{"type": "Feature", "properties": {}, "geometry": {"type": "Point", "coordinates": [8.993886113166809, 45.548350551694746]}}], "price": 1.952, "ultima_rilevazione": "31/05/2022 05:25:12"}, {"Gestore": "MAZHAR SHAHZAIB", "Bandiera": "Api-Ip", "Tipo impianto": "Altro", "Indirizzo": "VIA  A.VOLTA 211 21047", "Nome impianto": "IP", "Comune": "SARONNO", "idImpianto": 45804, "points": [{"type": "Feature", "properties": {}, "geometry": {"type": "Point", "coordinates": [9.036012020732985, 45.64166936061599]}}], "price": 1.0, "ultima_rilevazione": "30/05/2022 10:18:50"}, {"Gestore": "IP SERVICES S.R.L.", "Bandiera": "Api-Ip", "Tipo impianto": "Altro", "Indirizzo": "Via Vittorio Veneto 116 22070", "Nome impianto": "Rovello Porro", "Comune": "ROVELLO PORRO", "idImpianto": 23393, "points": [{"type": "Feature", "properties": {}, "geometry": {"type": "Point", "coordinates": [9.023959636688232, 45.65362120460147]}}], "price": 1.849, "ultima_rilevazione": "31/05/2022 12:07:14"}, {"Gestore": "IP SERVICES S.R.L.", "Bandiera": "Api-Ip", "Tipo impianto": "Altro", "Indirizzo": "via Lainate ang. via Diaz  20017", "Nome impianto": "Rho via Lainate", "Comune": "RHO", "idImpianto": 36451, "points": [{"type": "Feature", "properties": {}, "geometry": {"type": "Point", "coordinates": [9.036739021539688, 45.53643383759013]}}], "price": 1.799, "ultima_rilevazione": "31/05/2022 12:07:46"}]}, "Gasolio High Quality": {"1": [{"Gestore": "MORGANTI ALESSANDRO", "Bandiera": "Esso", "Tipo impianto": "Altro", "Indirizzo": "VIA VARESE 2 21047", "Nome impianto": "ESSO Morganti", "Comune": "SARONNO", "idImpianto": 17547, "points": [{"type": "Feature", "properties": {}, "geometry": {"type": "Point", "coordinates": [9.035031798147545, 45.61231131468677]}}], "price": 1.966, "ultima_rilevazione": "31/05/2022 06:53:55"}], "3": [{"Gestore": "ESSO SERVICE S.A.S. DI STELLUTI DANIELE & C.", "Bandiera": "Esso", "Tipo impianto": "Altro", "Indirizzo": "Via Giuseppe Garibaldi 132 20024", "Nome impianto": "Esso", "Comune": "GARBAGNATE MILANESE", "idImpianto": 42136, "points": [{"type": "Feature", "properties": {}, "geometry": {"type": "Point", "coordinates": [9.076157453967426, 45.56543979927998]}}], "price": 1.939, "ultima_rilevazione": "31/05/2022 08:10:49"}, {"Gestore": "villoresi di vitale gaetano &c. snc", "Bandiera": "Esso", "Tipo impianto": "Autostradale", "Indirizzo": "Autostrada A8-A9 MILANO-LAGHI, Km. 7+600, dir. Sud 20020", "Nome impianto": "VILLORESI OVEST", "Comune": "LAINATE", "idImpianto": 3927, "points": [{"type": "Feature", "properties": {}, "geometry": {"type": "Point", "coordinates": [9.04014393386842, 45.55834880837939]}}], "price": 2.292, "ultima_rilevazione": "31/05/2022 10:28:34"}], "5": []}, "null": {}}