{"area_comune": "[{\"type\": \"Feature\", \"properties\": {}, \"geometry\": {\"type\": \"Polygon\", \"coordinates\": [[[9.331295497761776, 45.56194232764421], [9.343394499762379, 45.5603134381881], [9.345808876779381, 45.55911802972752], [9.35167477958493, 45.55872207714808], [9.35212545141327, 45.55497627867687], [9.3549901458357, 45.554148315698654], [9.35641277175405, 45.55422490260968], [9.356435647250622, 45.55581799218269], [9.35904940492169, 45.555827816984845], [9.361393468508338, 45.55423624289549], [9.366671605030925, 45.54777471923252], [9.35206164558915, 45.54064682896756], [9.347547949298628, 45.539841607041026], [9.338894380776669, 45.54068670783076], [9.327358596206283, 45.543753692459234], [9.32697963204332, 45.54605453608781], [9.321275739262923, 45.54741611034623], [9.32228254583061, 45.54935113447904], [9.322443802357542, 45.554147305416215], [9.321837247192253, 45.556874245013546], [9.323476136922414, 45.55903068891441], [9.32637325311398, 45.56163246465833], [9.331295497761776, 45.56194232764421]]]}}]", "comune": "carugate", "buffer_1": "[{\"type\": \"Feature\", \"properties\": {}, \"geometry\": {\"type\": \"Polygon\", \"coordinates\": [[[9.323523866424408, 45.569099027918696], [9.324531197900539, 45.56958711488577], [9.325600237938982, 45.57000548144057], [9.326721235154812, 45.57035031093542], [9.327883963559099, 45.570618457522365], [9.329077815941652, 45.57080747488927], [9.330291900754691, 45.57091563860739], [9.331515141608296, 45.57094196188471], [9.332736378463924, 45.57088620458102], [9.333944469596373, 45.5707488754012], [9.3351283933873, 45.570531227247116], [9.362886102651794, 45.564415782878136], [9.364053547989952, 45.56411394371818], [9.36517380937372, 45.56373399900909], [9.366236325086092, 45.563279531194155], [9.3672310785663, 45.562754825285325], [9.368148692909772, 45.56216482841242], [9.368980519301426, 45.56151510312679], [9.369718718546693, 45.56081177490237], [9.377340059462387, 45.552757974996915], [9.37796803421447, 45.552020068948714], [9.378492922943087, 45.55124343263596], [9.378909940214353, 45.55043515311871], [9.3792152854778, 45.54960260590269], [9.379406177591127, 45.54875338760625], [9.379480880023689, 45.54789524662058], [9.379438716514947, 45.54703601239727], [9.379280077051858, 45.54618352400876], [9.379006414117514, 45.54534555863398], [9.378620229252467, 45.54452976062129], [9.37812505005802, 45.543743571775266], [9.3775253978577, 45.542994163502385], [9.376826746317509, 45.542288371433145], [9.376035471407228, 45.54163263311497], [9.375158793162921, 45.54103292934287], [9.374204709784314, 45.540494729660125], [9.373181924669506, 45.54002294252432], [9.354059994386612, 45.53209090431748], [9.352922706004858, 45.53167153090525], [9.351731387861875, 45.531334312014366], [9.350498016402462, 45.531082637531746], [9.349234990238628, 45.53091903737713], [9.347955005667638, 45.53084515610552], [9.346670929218178, 45.53086173639789], [9.345395668497215, 45.53096861160556], [9.344142042626682, 45.531164707422185], [9.323955551617658, 45.53507618898603], [9.32272264783063, 45.53536294942962], [9.321537387915214, 45.53573596874152], [9.32041195407056, 45.536191413333306], [9.319357914431002, 45.536724602409606], [9.318386104256772, 45.537330056015605], [9.317506514611686, 45.53800155129374], [9.316728189669059, 45.538732186374716], [9.316059133700383, 45.53951445124978], [9.315506228704084, 45.54034030489894], [9.315075163524174, 45.54120125788614], [9.309551199887808, 45.55432122942965], [9.30924837196985, 45.55520053928475], [9.309072706768884, 45.55609676342371], [9.309025984846667, 45.557000848680495], [9.309108684379359, 45.557903662048304], [9.30931997607757, 45.558796082936304], [9.309657731316065, 45.55966909531828], [9.310118543400957, 45.56051387884203], [9.31069776176911, 45.56132189797796], [9.311389538782931, 45.56208498830412], [9.312186888655347, 45.562795439054305], [9.313081757915684, 45.56344607109186], [9.314065106708846, 45.56403030951876], [9.323523866424408, 45.569099027918696]]]}}]", "buffer_3": "[{\"type\": \"Feature\", \"properties\": {}, \"geometry\": {\"type\": \"Polygon\", \"coordinates\": [[[9.307974686792118, 45.58341083071461], [9.310997101329507, 45.5848754714106], [9.314204841773998, 45.58613091593144], [9.31756863139288, 45.587165701764846], [9.321057763162525, 45.58797038052776], [9.324640380975346, 45.58853760457065], [9.328283771547952, 45.58886219433819], [9.331954664316934, 45.58894118585887], [9.335619536529634, 45.58877385792096], [9.33924492068579, 45.58836173868174], [9.342797711462438, 45.58770859164838], [9.370563028962401, 45.58159127827754], [9.374066268353829, 45.58068548945494], [9.37742778893971, 45.57954532867413], [9.380615877860041, 45.57818155557003], [9.38360046505967, 45.576607039101674], [9.386353407554086, 45.574836635674636], [9.388848755189242, 45.57288704848587], [9.391062995371364, 45.570776669440946], [9.398682614832321, 45.562721465328735], [9.4005659797422, 45.56050739030962], [9.402139901372088, 45.558177168300276], [9.4033900505787, 45.555752071879056], [9.404305058618338, 45.553254236946906], [9.404876619519431, 45.550706460387126], [9.40509956432644, 45.548131991791415], [9.404971906593833, 45.545554321162676], [9.404494858775927, 45.54299696453786], [9.403672819426156, 45.540483249489114], [9.402513331385897, 45.538036102458264], [9.401027011405352, 45.5356778398588], [9.399227451895275, 45.53342996484135], [9.397131095756107, 45.53131297156321], [9.39475708546848, 45.529346158731315], [9.392127087854064, 45.5275474541006], [9.389265096126815, 45.52593325150847], [9.386197211050245, 45.52451826191015], [9.367078731796044, 45.516588370218706], [9.363667568557004, 45.51533059919618], [9.360094502470572, 45.51431923576829], [9.356395427249087, 45.51356443784869], [9.352607497069451, 45.51307378616326], [9.348768754795378, 45.512852208418096], [9.344917751458421, 45.51290193001021], [9.341093160741847, 45.513222451766154], [9.337333392257209, 45.51381055492723], [9.317152622144546, 45.51772082982639], [9.31345490395066, 45.518580850899745], [9.309899947193784, 45.51969958451219], [9.306524264729575, 45.52106554318099], [9.303362535566341, 45.52266469988436], [9.300447249478891, 45.52448063157572], [9.297808373699805, 45.52649468726563], [9.295473045084709, 45.528686178975384], [9.293465290904843, 45.53103259363147], [9.291805781145339, 45.533509823756035], [9.29051161488264, 45.53609241461277], [9.28498242534749, 45.54921122264555], [9.284072844226463, 45.551848958995386], [9.283544661503438, 45.55453751845516], [9.283403266688968, 45.55724974609417], [9.283650143843651, 45.55995824404192], [9.284282854342422, 45.56263564821014], [9.285295059277818, 45.565254904830454], [9.28667658136597, 45.56778954401036], [9.288413505816004, 45.5702139475336], [9.290488319222522, 45.57250360818355], [9.29288008514599, 45.574635377949285], [9.295564654661886, 45.576587702580674], [9.298514909790455, 45.57834084009517], [9.307974686792118, 45.58341083071461]]]}}]", "buffer_5": "[{\"type\": \"Feature\", \"properties\": {}, \"geometry\": {\"type\": \"Polygon\", \"coordinates\": [[[9.292417611884737, 45.59772050054437], [9.297455669191597, 45.60016220186398], [9.30280293723593, 45.602255184696425], [9.308410583826262, 45.60398032385435], [9.314227382112307, 45.60532185391857], [9.320200181031984, 45.60626751424255], [9.326274393927292, 45.60680866175402], [9.332394500729423, 45.60694035048865], [9.338504558971934, 45.60666137710392], [9.344548718798654, 45.60597429194301], [9.350471737091208, 45.604885375544505], [9.378244668197988, 45.598766191060285], [9.384084907060684, 45.59725609029238], [9.389688669167194, 45.59535527736137], [9.395003053535044, 45.593081705553224], [9.399977909462661, 45.590456846392094], [9.404566311581211, 45.58750548563092], [9.408725003549348, 45.5842554878783], [9.412414806156038, 45.58073753214708], [9.420032700069248, 45.57268092396199], [9.42317070749861, 45.56899020429583], [9.425792667499062, 45.565105979510136], [9.427874743575138, 45.561063722884676], [9.42939804279654, 45.55690034319885], [9.43034878440563, 45.552653846932095], [9.43071842127125, 45.54836299071872], [9.430503713237533, 45.54406692725708], [9.429706751867789, 45.53980484792079], [9.428334936533364, 45.53561562533884], [9.42640090224133, 45.53153745919975], [9.423922400028628, 45.52760752849403], [9.420922131170677, 45.523861653339836], [9.41742753685547, 45.520333969439314], [9.41347054535765, 45.517056618089754], [9.409087279107377, 45.51405945452491], [9.404317724384624, 45.51136977719002], [9.399205366678142, 45.50901208036033], [9.380090338622383, 45.501084333246446], [9.374406236161033, 45.498988629669405], [9.368452605791092, 45.497303512168266], [9.36228921106802, 45.496045891075], [9.355977906303226, 45.4952283859214], [9.349582019704444, 45.494859199650485], [9.343165722234982, 45.49494203686183], [9.336793388310552, 45.49547606688394], [9.33052895452228, 45.49645593203204], [9.310353900948492, 45.50036500165755], [9.304192691452798, 45.50179793683482], [9.298269134586311, 45.50366195287061], [9.29264402892613, 45.50593792603936], [9.28737513049534, 45.50860250351762], [9.282516562188817, 45.511628341532564], [9.278118259360623, 45.5149843843576], [9.274225457188017, 45.518636181373374], [9.270878225049538, 45.5225462390256], [9.268111052724368, 45.52667440415312], [9.26595249274013, 45.53097827483314], [9.26041808176972, 45.54409591737136], [9.258900285554612, 45.54849182186592], [9.25801800325434, 45.552972565195724], [9.257780297025395, 45.55749289681323], [9.258189722836617, 45.56200715558021], [9.259242298418297, 45.566469730885366], [9.260927537288262, 45.570835523687734], [9.263228548761685, 45.57506040281798], [9.266122203174161, 45.57910165189995], [9.269579360868526, 45.58291840233373], [9.273565162822353, 45.586472047907925], [9.278039380133299, 45.589726636781705], [9.282956818941283, 45.59264923679746], [9.292417611884737, 45.59772050054437]]]}}]", "centroid": "[{\"type\": \"Feature\", \"properties\": {}, \"geometry\": {\"type\": \"Point\", \"coordinates\": [9.342958852425578, 45.55084903293735]}}]", "Benzina": {"1": [{"Gestore": "IEVA MICHELE", "Bandiera": "Agip Eni", "Tipo impianto": "Altro", "Indirizzo": "VIA SP 121 POBBIANO/CAVENAGO  20061", "Nome impianto": "stazione di servizio Agip di Ieva michele", "Comune": "CARUGATE", "idImpianto": 7530, "points": [{"type": "Feature", "properties": {}, "geometry": {"type": "Point", "coordinates": [9.333864748477936, 45.55165355778144]}}], "price": 1.829, "ultima_rilevazione": "03/05/2022 09:23:39"}, {"Gestore": "SERVIZI & GESTIONI ITALIA S.R.L.", "Bandiera": "Q8", "Tipo impianto": "Altro", "Indirizzo": "S.P. 121 - KM. 8+070  20063", "Nome impianto": "CERNUSCO SUL NAVIGLIO - S.P. 121 - KM. 8+070", "Comune": "CERNUSCO SUL NAVIGLIO", "idImpianto": 30796, "points": [{"type": "Feature", "properties": {}, "geometry": {"type": "Point", "coordinates": [9.336739286508193, 45.5403700891952]}}], "price": 1.819, "ultima_rilevazione": "06/05/2022 07:07:16"}, {"Gestore": "R.A.M.M. DI CREMONESI MARIO VITTORIO", "Bandiera": "Pompe Bianche", "Tipo impianto": "Altro", "Indirizzo": "VIA DEI MILLE 151 20861", "Nome impianto": "PETROL OUTLET", "Comune": "BRUGHERIO", "idImpianto": 38614, "points": [{"type": "Feature", "properties": {}, "geometry": {"type": "Point", "coordinates": [9.322085827589037, 45.548317481746224]}}], "price": 1.829, "ultima_rilevazione": "07/05/2022 21:50:07"}, {"Gestore": "GS SPA", "Bandiera": "Q8", "Tipo impianto": "Altro", "Indirizzo": "Strada Provinciale  208 20061", "Nome impianto": "Carrefour Q8 Carugate", "Comune": "CARUGATE", "idImpianto": 48741, "points": [{"type": "Feature", "properties": {}, "geometry": {"type": "Point", "coordinates": [9.331401268583818, 45.54816345136025]}}], "price": 1.809, "ultima_rilevazione": "09/05/2022 16:16:28"}, {"Gestore": "IP SERVICES S.R.L.", "Bandiera": "Api-Ip", "Tipo impianto": "Altro", "Indirizzo": "S.P.121  KM.6+250 20063", "Nome impianto": "Cernusco sul Naviglio", "Comune": "CERNUSCO SUL NAVIGLIO", "idImpianto": 37970, "points": [{"type": "Feature", "properties": {}, "geometry": {"type": "Point", "coordinates": [9.334397882212215, 45.54543517250591]}}], "price": 1.819, "ultima_rilevazione": "10/05/2022 16:04:12"}], "3": [{"Gestore": "CAMEL EXPRESS S.R.L.", "Bandiera": "Api-Ip", "Tipo impianto": "Altro", "Indirizzo": "STRADA PROVINCIALE 13 MELZO MONZA SNC 20060", "Nome impianto": "IP", "Comune": "PESSANO CON BORNAGO", "idImpianto": 49859, "points": [{"type": "Feature", "properties": {}, "geometry": {"type": "Point", "coordinates": [9.393047021881292, 45.54667299908384]}}], "price": 1.809, "ultima_rilevazione": "29/04/2022 13:16:43"}, {"Gestore": "FERRO MAURO", "Bandiera": "Agip Eni", "Tipo impianto": "Strada Statale", "Indirizzo": "Strada Statale, Km. 1+280, melzo 20867", "Nome impianto": "stazione eni ferro mauro", "Comune": "CAPONAGO", "idImpianto": 45069, "points": [{"type": "Feature", "properties": {}, "geometry": {"type": "Point", "coordinates": [9.376779000123, 45.560100000123]}}], "price": 1.834, "ultima_rilevazione": "05/05/2022 10:39:31"}, {"Gestore": "NUOVA SIDAP  S.R.L.", "Bandiera": "Esso", "Tipo impianto": "Altro", "Indirizzo": "VIALE DELLE INDUSTRIE 43 20900", "Nome impianto": "Monza 2", "Comune": "MONZA", "idImpianto": 4657, "points": [{"type": "Feature", "properties": {}, "geometry": {"type": "Point", "coordinates": [9.292220771312714, 45.56863365263018]}}], "price": 1.872, "ultima_rilevazione": "05/05/2022 16:05:47"}, {"Gestore": "AUTOMARKET DI FUMAGALLI & BRAMBILLA S.N.C.", "Bandiera": "Agip Eni", "Tipo impianto": "Altro", "Indirizzo": "VIA PROVINCIALE 15 20060", "Nome impianto": "ENI AUTOMARKET SNC", "Comune": "PESSANO CON BORNAGO", "idImpianto": 14598, "points": [{"type": "Feature", "properties": {}, "geometry": {"type": "Point", "coordinates": [9.38745020163242, 45.55289646788714]}}], "price": 1.834, "ultima_rilevazione": "05/05/2022 17:40:05"}, {"Gestore": "ZACCHI RENATO", "Bandiera": "Agip Eni", "Tipo impianto": "Altro", "Indirizzo": "VIALE EUROPA 13 BIS 20060", "Nome impianto": "ENI BUSSERO", "Comune": "BUSSERO", "idImpianto": 41033, "points": [{"type": "Feature", "properties": {}, "geometry": {"type": "Point", "coordinates": [9.374386614749938, 45.530786489777256]}}], "price": 1.834, "ultima_rilevazione": "05/05/2022 19:12:33"}, {"Gestore": "SERVIZI & GESTIONI ITALIA S.R.L.", "Bandiera": "Q8", "Tipo impianto": "Altro", "Indirizzo": "FZ.S.ALBINO VIA ADDA 71 20052", "Nome impianto": "MONZA-FZ.S.ALBINO VIA ADDA 71", "Comune": "MONZA", "idImpianto": 11638, "points": [{"type": "Feature", "properties": {}, "geometry": {"type": "Point", "coordinates": [9.314026822090112, 45.57211126545646]}}], "price": 1.879, "ultima_rilevazione": "06/05/2022 07:07:08"}, {"Gestore": "FULLPOINT SOCIETA' A RESPONSABILITA' LIMITATA SEMPLIFICATA", "Bandiera": "Q8", "Tipo impianto": "Altro", "Indirizzo": "STRADA PROVINCIALE 120 KM. 5,400 00 20063", "Nome impianto": "fullpoint srls", "Comune": "CERNUSCO SUL NAVIGLIO", "idImpianto": 44576, "points": [{"type": "Feature", "properties": {}, "geometry": {"type": "Point", "coordinates": [9.30619758371904, 45.5262772387745]}}], "price": 1.809, "ultima_rilevazione": "06/05/2022 12:27:55"}, {"Gestore": "FRATELLI PULEO S.N.C. DI PULEO PIETRO E PAOLO", "Bandiera": "Q8", "Tipo impianto": "Altro", "Indirizzo": "VIA STUCCHI 47 20900", "Nome impianto": "STAZ. SERV. Q8 F.LLI PULEO SNC", "Comune": "MONZA", "idImpianto": 14453, "points": [{"type": "Feature", "properties": {}, "geometry": {"type": "Point", "coordinates": [9.308756589889526, 45.57804836296814]}}], "price": 1.869, "ultima_rilevazione": "07/05/2022 06:44:22"}, {"Gestore": "LOVINO MARCO", "Bandiera": "Esso", "Tipo impianto": "Altro", "Indirizzo": "VIA GIUSEPPE VERDI 47 20063", "Nome impianto": "STAZIONE DI SERVIZIO ESSO VIA VERDI 47", "Comune": "CERNUSCO SUL NAVIGLIO", "idImpianto": 49049, "points": [{"type": "Feature", "properties": {}, "geometry": {"type": "Point", "coordinates": [9.337236285209656, 45.52923583950437]}}], "price": 1.846, "ultima_rilevazione": "07/05/2022 12:09:55"}, {"Gestore": "SERVIZI & GESTIONI ITALIA S.R.L.", "Bandiera": "Q8", "Tipo impianto": "Altro", "Indirizzo": "VIA ROMA 70 20060", "Nome impianto": "CASSINA DE' PECCHI-VIA ROMA 70", "Comune": "CASSINA DE' PECCHI", "idImpianto": 11688, "points": [{"type": "Feature", "properties": {}, "geometry": {"type": "Point", "coordinates": [9.365186645507832, 45.51936083416594]}}], "price": 1.824, "ultima_rilevazione": "09/05/2022 00:31:20"}, {"Gestore": "SERVIZI & GESTIONI ITALIA srl", "Bandiera": "Q8", "Tipo impianto": "Altro", "Indirizzo": "VIA PROVINCIALE 83 DISTR.Q8 SNC 20060", "Nome impianto": "PESSANO CON BORNAGO VIA PROVINCIALE 83 DISTR.Q8", "Comune": "PESSANO CON BORNAGO", "idImpianto": 6443, "points": [{"type": "Feature", "properties": {}, "geometry": {"type": "Point", "coordinates": [9.39170405396726, 45.54389870287802]}}], "price": 1.829, "ultima_rilevazione": "09/05/2022 00:31:24"}, {"Gestore": "SERVIZI & GESTIONI ITALIA S.R.L.", "Bandiera": "Q8", "Tipo impianto": "Altro", "Indirizzo": "PIAZZA CASTELLO 43 20060", "Nome impianto": "PESSANO CON BORNAGO-PIAZZA CASTELLO 43", "Comune": "PESSANO CON BORNAGO", "idImpianto": 11654, "points": [{"type": "Feature", "properties": {}, "geometry": {"type": "Point", "coordinates": [9.383887171793049, 45.55137231340641]}}], "price": 1.879, "ultima_rilevazione": "09/05/2022 00:31:31"}, {"Gestore": "SERVIZI & GESTIONI ITALIA S.R.L.", "Bandiera": "Q8", "Tipo impianto": "Altro", "Indirizzo": "S.P 242 KM 4+578 S/N  20060", "Nome impianto": "PESSANO CON BORNAGO -S.P 242 KM 4+578", "Comune": "PESSANO CON BORNAGO", "idImpianto": 11711, "points": [{"type": "Feature", "properties": {}, "geometry": {"type": "Point", "coordinates": [9.389155568122874, 45.549163863694574]}}], "price": 1.839, "ultima_rilevazione": "09/05/2022 00:31:31"}, {"Gestore": "PACEKO S.R.L.", "Bandiera": "Pompe Bianche", "Tipo impianto": "Altro", "Indirizzo": "Via delle industrie  16 20864", "Nome impianto": "EKOPOINT", "Comune": "AGRATE BRIANZA", "idImpianto": 44517, "points": [{"type": "Feature", "properties": {}, "geometry": {"type": "Point", "coordinates": [9.35416730855468, 45.56791207197751]}}], "price": 1.808, "ultima_rilevazione": "09/05/2022 08:29:44"}, {"Gestore": "TECNOCLIMA S.N.C. DI GAETANO SCORNAVACCA & C.", "Bandiera": "Api-Ip", "Tipo impianto": "Altro", "Indirizzo": "VIALE LOMBARDIA 169, 20861", "Nome impianto": "tecnoclima snc distibutore ip", "Comune": "BRUGHERIO", "idImpianto": 14272, "points": [{"type": "Feature", "properties": {}, "geometry": {"type": "Point", "coordinates": [9.29600785648347, 45.5513854224133]}}], "price": 1.904, "ultima_rilevazione": "09/05/2022 10:31:03"}, {"Gestore": "ROMI S.A.S. DI SCIARROTTA ROMINA E C.", "Bandiera": "Api-Ip", "Tipo impianto": "Altro", "Indirizzo": "S.P . Monza-Melzo Km 3  20864", "Nome impianto": "ITALIANA PETROLI", "Comune": "AGRATE BRIANZA", "idImpianto": 28307, "points": [{"type": "Feature", "properties": {}, "geometry": {"type": "Point", "coordinates": [9.33866322040558, 45.575763923593925]}}], "price": 1.819, "ultima_rilevazione": "09/05/2022 18:55:13"}, {"Gestore": "SERVIZI & GESTIONI ITALIA S.R.L.", "Bandiera": "Q8", "Tipo impianto": "Altro", "Indirizzo": "VIA QUARTO 94 20047", "Nome impianto": "BRUGHERIO-VIA QUARTO 94", "Comune": "BRUGHERIO", "idImpianto": 11647, "points": [{"type": "Feature", "properties": {}, "geometry": {"type": "Point", "coordinates": [9.304071253967322, 45.54090462397628]}}], "price": 1.789, "ultima_rilevazione": "10/05/2022 01:40:31"}, {"Gestore": "NUOVA SIDAP  S.R.L.", "Bandiera": "Esso", "Tipo impianto": "Altro", "Indirizzo": "VIA DELLE INDUSTRIE SNC 20900", "Nome impianto": "Monza", "Comune": "MONZA", "idImpianto": 4658, "points": [{"type": "Feature", "properties": {}, "geometry": {"type": "Point", "coordinates": [9.294119775295258, 45.569851510563616]}}], "price": 1.872, "ultima_rilevazione": "10/05/2022 06:09:44"}, {"Gestore": "DE PIETRO SALVATORE", "Bandiera": "Esso", "Tipo impianto": "Altro", "Indirizzo": "VIA PROVINCIALE KM 17 SNC 20863", "Nome impianto": "SALVATORE DE PIETRO", "Comune": "CONCOREZZO", "idImpianto": 20162, "points": [{"type": "Feature", "properties": {}, "geometry": {"type": "Point", "coordinates": [9.330807030200958, 45.587692748640585]}}], "price": 1.839, "ultima_rilevazione": "10/05/2022 07:39:52"}, {"Gestore": "LOMBARDI SALVATORE", "Bandiera": "Esso", "Tipo impianto": "Altro", "Indirizzo": "Via Provinciale 68 20060", "Nome impianto": "ESSO", "Comune": "PESSANO CON BORNAGO", "idImpianto": 49119, "points": [{"type": "Feature", "properties": {}, "geometry": {"type": "Point", "coordinates": [9.39207043498754, 45.5397446156316]}}], "price": 1.849, "ultima_rilevazione": "10/05/2022 08:16:08"}, {"Gestore": "GOBBI MARZIO ENRICO", "Bandiera": "Retitalia", "Tipo impianto": "Altro", "Indirizzo": "Via Per Imbersago 61 20093", "Nome impianto": "RETITALIA", "Comune": "COLOGNO MONZESE", "idImpianto": 38871, "points": [{"type": "Feature", "properties": {}, "geometry": {"type": "Point", "coordinates": [9.28936555981636, 45.54292573438804]}}], "price": 1.884, "ultima_rilevazione": "10/05/2022 09:52:08"}, {"Gestore": "IP SERVICES S.R.L.", "Bandiera": "Api-Ip", "Tipo impianto": "Altro", "Indirizzo": "VIALE LOMBARDIA 93 20047", "Nome impianto": "BRUGHERIO - LOMBARDIA 93", "Comune": "BRUGHERIO", "idImpianto": 22888, "points": [{"type": "Feature", "properties": {}, "geometry": {"type": "Point", "coordinates": [9.292631650297151, 45.54702693920715]}}], "price": 1.779, "ultima_rilevazione": "10/05/2022 12:03:28"}, {"Gestore": "T.D.M. S.R.L.", "Bandiera": "Tamoil", "Tipo impianto": "Altro", "Indirizzo": "SP. 13 KM. 2+500 MONZA/MELZO SNC 20049", "Nome impianto": "8495", "Comune": "CONCOREZZO", "idImpianto": 42138, "points": [{"type": "Feature", "properties": {}, "geometry": {"type": "Point", "coordinates": [9.32847686111927, 45.57825750242336]}}], "price": 1.819, "ultima_rilevazione": "10/05/2022 12:12:10"}, {"Gestore": "NUOVA SIDAP  S.R.L.", "Bandiera": "Api-Ip", "Tipo impianto": "Autostradale", "Indirizzo": "A51 TANG.LE EST DI MILANO, Km. 15+200, Nord 20093", "Nome impianto": "COLOGNO M. EST", "Comune": "COLOGNO MONZESE", "idImpianto": 48196, "points": [{"type": "Feature", "properties": {}, "geometry": {"type": "Point", "coordinates": [9.299550652503962, 45.5372445308776]}}], "price": 1.879, "ultima_rilevazione": "10/05/2022 14:21:14"}, {"Gestore": "RAUSA MAURIZIO", "Bandiera": "Api-Ip", "Tipo impianto": "Altro", "Indirizzo": "via dei mille 81 20861", "Nome impianto": "totalerg", "Comune": "BRUGHERIO", "idImpianto": 28263, "points": [{"type": "Feature", "properties": {}, "geometry": {"type": "Point", "coordinates": [9.311300665140152, 45.54650670273922]}}], "price": 1.799, "ultima_rilevazione": "10/05/2022 16:03:53"}, {"Gestore": "AF PETROL S.R.L.", "Bandiera": "Pompe Bianche", "Tipo impianto": "Altro", "Indirizzo": "VIALE LOMBARDIA 75 20861", "Nome impianto": "AF PETROL SRL", "Comune": "BRUGHERIO", "idImpianto": 22943, "points": [{"type": "Feature", "properties": {}, "geometry": {"type": "Point", "coordinates": [9.292266169905815, 45.54659960785789]}}], "price": 1.779, "ultima_rilevazione": "11/05/2022 07:40:08"}, {"Gestore": "AG SAS DI ABBATTISTA GIOVANNI", "Bandiera": "Agip Eni", "Tipo impianto": "Strada Statale", "Indirizzo": "Statale 11 Padana Superiore, Km. 158+082, dir. SUD 20060", "Nome impianto": "STAZIONE SERVIZIO ENI", "Comune": "CASSINA DE' PECCHI", "idImpianto": 6164, "points": [{"type": "Feature", "properties": {}, "geometry": {"type": "Point", "coordinates": [9.357555359601974, 45.51818409200797]}}], "price": 1.844, "ultima_rilevazione": "11/05/2022 07:47:07"}, {"Gestore": "ENI FUEL S.P.A.", "Bandiera": "Agip Eni", "Tipo impianto": "Altro", "Indirizzo": "Via Matteotti 133 20041", "Nome impianto": "PV 02151 Agrate Brianza", "Comune": "AGRATE BRIANZA", "idImpianto": 47365, "points": [{"type": "Feature", "properties": {}, "geometry": {"type": "Point", "coordinates": [9.356548000123, 45.572168000123]}}], "price": 1.849, "ultima_rilevazione": "11/05/2022 07:54:03"}], "5": [{"Gestore": "STRIPPOLI ALFIO", "Bandiera": "Agip Eni", "Tipo impianto": "Altro", "Indirizzo": "VIALE LIBERTA' 88 20900", "Nome impianto": "Strippoli Alfio", "Comune": "MONZA", "idImpianto": 14409, "points": [{"type": "Feature", "properties": {}, "geometry": {"type": "Point", "coordinates": [9.295753240585327, 45.58941435702956]}}], "price": 1.789, "ultima_rilevazione": "04/11/2021 22:15:50"}, {"Gestore": "SCARFONE SANTO", "Bandiera": "Agip Eni", "Tipo impianto": "Altro", "Indirizzo": "c.so roma 107 20093", "Nome impianto": "eni scarfone santo", "Comune": "COLOGNO MONZESE", "idImpianto": 11439, "points": [{"type": "Feature", "properties": {}, "geometry": {"type": "Point", "coordinates": [9.28293228149414, 45.53437861561028]}}], "price": 2.209, "ultima_rilevazione": "09/05/2022 10:42:33"}, {"Gestore": "3 C S.R.L.", "Bandiera": "Agip Eni", "Tipo impianto": "Autostradale", "Indirizzo": "Autostrada A4 MILANO-BRESCIA, Km. 148+470, dir. Ovest 20864", "Nome impianto": "BRIANZA NORD", "Comune": "CAPONAGO", "idImpianto": 3630, "points": [{"type": "Feature", "properties": {}, "geometry": {"type": "Point", "coordinates": [9.39446, 45.5753]}}], "price": 1.854, "ultima_rilevazione": "03/05/2022 08:28:27"}, {"Gestore": "RHN ENTERPRISE DI AHMED NAVEED", "Bandiera": "Retitalia", "Tipo impianto": "Altro", "Indirizzo": "via monte santo 36 20900", "Nome impianto": "reteitalia", "Comune": "MONZA", "idImpianto": 49483, "points": [{"type": "Feature", "properties": {}, "geometry": {"type": "Point", "coordinates": [9.26951166601285, 45.56208227724076]}}], "price": 1.894, "ultima_rilevazione": "02/05/2022 14:56:58"}, {"Gestore": "DI DIO CALDERONE CONCETTA", "Bandiera": "Api-Ip", "Tipo impianto": "Altro", "Indirizzo": "via lecco km 1,5  20864", "Nome impianto": "IP", "Comune": "AGRATE BRIANZA", "idImpianto": 4730, "points": [{"type": "Feature", "properties": {}, "geometry": {"type": "Point", "coordinates": [9.357761000123, 45.585854000123]}}], "price": 1.839, "ultima_rilevazione": "10/05/2022 22:59:57"}, {"Gestore": "BOKTOR MAHDY ZEIDAN MEHANNY", "Bandiera": "Api-Ip", "Tipo impianto": "Altro", "Indirizzo": "S.P. 13 MONZA-MELZO KM. 12+700 SNC 20060", "Nome impianto": "IP ", "Comune": "CASSINA DE' PECCHI", "idImpianto": 50040, "points": [{"type": "Feature", "properties": {}, "geometry": {"type": "Point", "coordinates": [9.40695726716632, 45.51445066165029]}}], "price": 1.839, "ultima_rilevazione": "02/05/2022 20:08:21"}, {"Gestore": "EASYSERVICE DI DELLOLIO MARIA", "Bandiera": "Pompe Bianche", "Tipo impianto": "Altro", "Indirizzo": "Via Monterosa SNC 20863", "Nome impianto": "Petrol Outlet", "Comune": "CONCOREZZO", "idImpianto": 41835, "points": [{"type": "Feature", "properties": {}, "geometry": {"type": "Point", "coordinates": [9.321381747722626, 45.59667035972453]}}], "price": 1.809, "ultima_rilevazione": "04/05/2022 10:05:01"}, {"Gestore": "G.F. DI SAITTA GIUSEPPE & C. S.A.S.", "Bandiera": "Agip Eni", "Tipo impianto": "Altro", "Indirizzo": "VIA TRENTO 66 20871", "Nome impianto": "G.F. DI SAITTA GIUSEPPE & C. S.A.S.", "Comune": "VIMERCATE", "idImpianto": 50778, "points": [{"type": "Feature", "properties": {}, "geometry": {"type": "Point", "coordinates": [9.35947337933444, 45.59093401235108]}}], "price": 1.834, "ultima_rilevazione": "05/05/2022 07:51:58"}, {"Gestore": "BASELICE FRANCESCO", "Bandiera": "Q8", "Tipo impianto": "Altro", "Indirizzo": "via tiepolo  20900", "Nome impianto": "Q8", "Comune": "MONZA", "idImpianto": 13606, "points": [{"type": "Feature", "properties": {}, "geometry": {"type": "Point", "coordinates": [9.300115182995796, 45.58058447639117]}}], "price": 1.839, "ultima_rilevazione": "05/05/2022 08:48:15"}, {"Gestore": "PNEUSCARS 2 S.A.S. DI TERRANE FABIO & C.", "Bandiera": "Agip Eni", "Tipo impianto": "Altro", "Indirizzo": "VIA MILANO 9 20096", "Nome impianto": "Eni", "Comune": "PIOLTELLO", "idImpianto": 12081, "points": [{"type": "Feature", "properties": {}, "geometry": {"type": "Point", "coordinates": [9.331360636840031, 45.50138514073774]}}], "price": 1.839, "ultima_rilevazione": "05/05/2022 10:52:55"}, {"Gestore": "HS SERVICE DI SURACE HUMBERTO", "Bandiera": "Api-Ip", "Tipo impianto": "Altro", "Indirizzo": "via xxv aprile SNC 20875", "Nome impianto": "STAZIONE IP HS SERVICE", "Comune": "BURAGO DI MOLGORA", "idImpianto": 47630, "points": [{"type": "Feature", "properties": {}, "geometry": {"type": "Point", "coordinates": [9.38432514667511, 45.59525001380025]}}], "price": 1.839, "ultima_rilevazione": "06/05/2022 07:20:39"}, {"Gestore": "FORTUNA SNC DI MOHAMMAD AFZAL E MIRZA SHAFEEQ SIDDIQUE", "Bandiera": "Api-Ip", "Tipo impianto": "Altro", "Indirizzo": "VIA CORREGGIO ANG VIA LIBERTA'  20900", "Nome impianto": "italiana petroli  IP", "Comune": "MONZA", "idImpianto": 44951, "points": [{"type": "Feature", "properties": {}, "geometry": {"type": "Point", "coordinates": [9.298765000123, 45.589907000123]}}], "price": 1.849, "ultima_rilevazione": "06/05/2022 15:30:13"}, {"Gestore": "MILANO SERVICE S.N.C. DI MILICI DAVIDE & IEVA VINCENZO", "Bandiera": "Repsol", "Tipo impianto": "Altro", "Indirizzo": "S.P. 2 KM 3    20863", "Nome impianto": "REPSOL ", "Comune": "CONCOREZZO", "idImpianto": 46585, "points": [{"type": "Feature", "properties": {}, "geometry": {"type": "Point", "coordinates": [9.3511094823632, 45.59862339923655]}}], "price": 1.829, "ultima_rilevazione": "06/05/2022 15:32:35"}, {"Gestore": "RAGOSA SIMONE", "Bandiera": "Esso", "Tipo impianto": "Altro", "Indirizzo": "VIA MOLISE  20093", "Nome impianto": "Stazione di servizio esso di Ragosa", "Comune": "COLOGNO MONZESE", "idImpianto": 23422, "points": [{"type": "Feature", "properties": {}, "geometry": {"type": "Point", "coordinates": [9.274595975875854, 45.52505054389173]}}], "price": 1.839, "ultima_rilevazione": "07/05/2022 06:48:00"}, {"Gestore": "SERVIZI & GESTIONI ITALIA S.R.L.", "Bandiera": "Q8", "Tipo impianto": "Altro", "Indirizzo": "VIA BORGAZZI 96 20052", "Nome impianto": "MONZA-VIA BORGAZZI 96", "Comune": "MONZA", "idImpianto": 11651, "points": [{"type": "Feature", "properties": {}, "geometry": {"type": "Point", "coordinates": [9.261414576721222, 45.566349778721616]}}], "price": 1.829, "ultima_rilevazione": "09/05/2022 00:31:19"}, {"Gestore": "FERRARI & MARIANI S.N.C. DI FERRARI STEFANO & C.", "Bandiera": "Agip Eni", "Tipo impianto": "Altro", "Indirizzo": "VIALE SICILIA 40 20900", "Nome impianto": "ferrari & mariani snc", "Comune": "MONZA", "idImpianto": 11978, "points": [{"type": "Feature", "properties": {}, "geometry": {"type": "Point", "coordinates": [9.302946925163267, 45.58137197335687]}}], "price": 1.834, "ultima_rilevazione": "09/05/2022 07:44:55"}, {"Gestore": "SUPERSERVICE SNC DEI F.LLI CANTARELLI", "Bandiera": "Agip Eni", "Tipo impianto": "Autostradale", "Indirizzo": "Autostrada A4 MILANO-BRESCIA, Km. 24, dir. BERGAMO", "Nome impianto": "BRIANZA SUD", "Comune": "CAPONAGO", "idImpianto": 24292, "points": [{"type": "Feature", "properties": {}, "geometry": {"type": "Point", "coordinates": [9.394437074661257, 45.574416646651166]}}], "price": 1.924, "ultima_rilevazione": "09/05/2022 08:16:39"}, {"Gestore": "BRITA S.A.S. DI D'AMATO DAVIDE & C.", "Bandiera": "Pompe Bianche", "Tipo impianto": "Altro", "Indirizzo": "VIA PRIVATA VICINALE 2/7 20852", "Nome impianto": "BRITA S.A.S", "Comune": "VILLASANTA", "idImpianto": 49253, "points": [{"type": "Feature", "properties": {}, "geometry": {"type": "Point", "coordinates": [9.30842854232789, 45.59988219820851]}}], "price": 1.819, "ultima_rilevazione": "09/05/2022 08:23:29"}, {"Gestore": "SACCHETTO DANIELE", "Bandiera": "Agip Eni", "Tipo impianto": "Altro", "Indirizzo": "STRADA PADANA SUPERIORE 229 20090", "Nome impianto": "ENI", "Comune": "VIMODRONE", "idImpianto": 48117, "points": [{"type": "Feature", "properties": {}, "geometry": {"type": "Point", "coordinates": [9.284789434358592, 45.51181951836233]}}], "price": 1.794, "ultima_rilevazione": "09/05/2022 08:27:56"}, {"Gestore": "DUELLE S.N.C. DI MARCO E SIMONE LEVATI", "Bandiera": "Agip Eni", "Tipo impianto": "Altro", "Indirizzo": "VIA TORINO S.P.121 KM. 2+400  20063", "Nome impianto": "DUELLE SNC DI SIMONE E MARCO LEVATI", "Comune": "CERNUSCO SUL NAVIGLIO", "idImpianto": 11293, "points": [{"type": "Feature", "properties": {}, "geometry": {"type": "Point", "coordinates": [9.338799389162205, 45.504134696116026]}}], "price": 1.839, "ultima_rilevazione": "09/05/2022 09:28:51"}, {"Gestore": "EFFEMME SAS DI MERONI FULVIO GASPARE E C.", "Bandiera": "Api-Ip", "Tipo impianto": "Altro", "Indirizzo": "VIA MICHELANGELO BUONARROTI 63 20064", "Nome impianto": " punto vendita IP Effemme sas di Meroni F & c.", "Comune": "GORGONZOLA", "idImpianto": 15816, "points": [{"type": "Feature", "properties": {}, "geometry": {"type": "Point", "coordinates": [9.401620445790629, 45.52463732468525]}}], "price": 1.859, "ultima_rilevazione": "09/05/2022 09:32:03"}, {"Gestore": "REGAZZETTI GIANNI", "Bandiera": "Api-Ip", "Tipo impianto": "Altro", "Indirizzo": "sp 103  20060", "Nome impianto": "TotalErg", "Comune": "CASSINA DE' PECCHI", "idImpianto": 13404, "points": [{"type": "Feature", "properties": {}, "geometry": {"type": "Point", "coordinates": [9.389531314373016, 45.50753114572307]}}], "price": 1.799, "ultima_rilevazione": "09/05/2022 09:56:21"}, {"Gestore": "SOLDINI GIUSEPPE", "Bandiera": "Q8", "Tipo impianto": "Altro", "Indirizzo": "via monte santo  9 20900", "Nome impianto": "stazione di servizio q8", "Comune": "MONZA", "idImpianto": 48949, "points": [{"type": "Feature", "properties": {}, "geometry": {"type": "Point", "coordinates": [9.266720082221722, 45.56293401042127]}}], "price": 1.809, "ultima_rilevazione": "09/05/2022 17:04:58"}, {"Gestore": "SERVIZI & GESTIONI ITALIA srl", "Bandiera": "Q8", "Tipo impianto": "Altro", "Indirizzo": "VIA MILANO 4/6 20064", "Nome impianto": "GORGONZOLA VIA MILANO 4/6", "Comune": "GORGONZOLA", "idImpianto": 6430, "points": [{"type": "Feature", "properties": {}, "geometry": {"type": "Point", "coordinates": [9.396399528836128, 45.52720696738999]}}], "price": 1.824, "ultima_rilevazione": "09/05/2022 17:06:36"}, {"Gestore": "VINPE SERVIZI S.P.A.", "Bandiera": "Agip Eni", "Tipo impianto": "Altro", "Indirizzo": "S.P. 103 ANTICA CASSANESE SNC,  20060   ", "Nome impianto": "VIGNATE", "Comune": "VIGNATE", "idImpianto": 12143, "points": [{"type": "Feature", "properties": {}, "geometry": {"type": "Point", "coordinates": [9.378164112567902, 45.50568972852001]}}], "price": 1.834, "ultima_rilevazione": "09/05/2022 17:20:56"}, {"Gestore": "SERVIZI & GESTIONI ITALIA S.R.L.", "Bandiera": "Q8", "Tipo impianto": "Altro", "Indirizzo": "VIA BORSA 50 20052", "Nome impianto": "MONZA-VIA BORSA 50", "Comune": "MONZA", "idImpianto": 11646, "points": [{"type": "Feature", "properties": {}, "geometry": {"type": "Point", "coordinates": [9.290283906745913, 45.57946895994504]}}], "price": 1.829, "ultima_rilevazione": "10/05/2022 01:40:32"}, {"Gestore": "SERVIZI & GESTIONI ITALIA S.R.L.", "Bandiera": "Q8", "Tipo impianto": "Altro", "Indirizzo": "CASSANESE SP 103 C/O CC ACQUARIO S/N 20060", "Nome impianto": "VIGNATE-CASSANESE SP 103 C/O CC ACQUARIO", "Comune": "VIGNATE", "idImpianto": 11707, "points": [{"type": "Feature", "properties": {}, "geometry": {"type": "Point", "coordinates": [9.372512698173525, 45.50462086686203]}}], "price": 1.799, "ultima_rilevazione": "10/05/2022 01:40:35"}, {"Gestore": "SERVIZI & GESTIONI ITALIA S.R.L.", "Bandiera": "Q8", "Tipo impianto": "Altro", "Indirizzo": "VIA AMATI CEDERNA 94 20052", "Nome impianto": "MONZA-VIA AMATI CEDERNA 94", "Comune": "MONZA", "idImpianto": 11641, "points": [{"type": "Feature", "properties": {}, "geometry": {"type": "Point", "coordinates": [9.297008629465154, 45.581912830381725]}}], "price": 1.839, "ultima_rilevazione": "10/05/2022 07:10:41"}, {"Gestore": "AUTOSERVICE DI GIOVANNI D'ALOIA S.A.S.", "Bandiera": "Tamoil", "Tipo impianto": "Altro", "Indirizzo": "S.P. 60 KM 0+700 SNC 20049", "Nome impianto": "TAMOIL 7463  LATO SUD/EST", "Comune": "CONCOREZZO", "idImpianto": 28937, "points": [{"type": "Feature", "properties": {}, "geometry": {"type": "Point", "coordinates": [9.32416319847107, 45.60408154984006]}}], "price": 1.839, "ultima_rilevazione": "10/05/2022 08:00:09"}, {"Gestore": "CALOR SYSTEMS S.R.L.", "Bandiera": "Api-Ip", "Tipo impianto": "Altro", "Indirizzo": "Via Mantegna 12 20096", "Nome impianto": "PIOLTELLO MANTEGNA", "Comune": "PIOLTELLO", "idImpianto": 48073, "points": [{"type": "Feature", "properties": {}, "geometry": {"type": "Point", "coordinates": [9.330787259507195, 45.50368496110519]}}], "price": 1.819, "ultima_rilevazione": "10/05/2022 08:08:17"}, {"Gestore": "U.M.A. S.A.S. DI MARCO CELARI E C.", "Bandiera": "Esso", "Tipo impianto": "Altro", "Indirizzo": "via antica cassanese km 8,5  20060", "Nome impianto": "esso", "Comune": "CASSINA DE' PECCHI", "idImpianto": 33725, "points": [{"type": "Feature", "properties": {}, "geometry": {"type": "Point", "coordinates": [9.35478463768959, 45.50391517393423]}}], "price": 1.889, "ultima_rilevazione": "10/05/2022 08:42:28"}, {"Gestore": "AUTOLAVAGGIO LATINO DI VICENTE CASTILLO CARLOS FRANCISCO", "Bandiera": "Api-Ip", "Tipo impianto": "Altro", "Indirizzo": "VIA DANTE ALIGHIERI   20863", "Nome impianto": "IP Via Dante alighieri concorezzo", "Comune": "CONCOREZZO", "idImpianto": 47249, "points": [{"type": "Feature", "properties": {}, "geometry": {"type": "Point", "coordinates": [9.340127832100142, 45.59543823253673]}}], "price": 1.839, "ultima_rilevazione": "10/05/2022 09:42:40"}, {"Gestore": "GOBBI MARZIO ENRICO", "Bandiera": "Retitalia", "Tipo impianto": "Altro", "Indirizzo": "Via Lombardia 3 20093", "Nome impianto": "RETITALIA LOMBARDIA", "Comune": "COLOGNO MONZESE", "idImpianto": 42186, "points": [{"type": "Feature", "properties": {}, "geometry": {"type": "Point", "coordinates": [9.274695217609406, 45.53591322847132]}}], "price": 1.839, "ultima_rilevazione": "10/05/2022 09:53:10"}, {"Gestore": "PAINI ARNALDO", "Bandiera": "Api-Ip", "Tipo impianto": "Altro", "Indirizzo": "strada provinciale 176 km 015 + 075  20873", "Nome impianto": "IP ", "Comune": "CAVENAGO DI BRIANZA", "idImpianto": 8387, "points": [{"type": "Feature", "properties": {}, "geometry": {"type": "Point", "coordinates": [9.409189224243164, 45.58349925138629]}}], "price": 1.839, "ultima_rilevazione": "10/05/2022 11:16:22"}, {"Gestore": "IP SERVICES S.R.L.", "Bandiera": "Api-Ip", "Tipo impianto": "Altro", "Indirizzo": "VIA TRIESTE  20064", "Nome impianto": "GORGONZOLA - TRIESTE", "Comune": "GORGONZOLA", "idImpianto": 31060, "points": [{"type": "Feature", "properties": {}, "geometry": {"type": "Point", "coordinates": [9.412570495700834, 45.53279436333076]}}], "price": 1.829, "ultima_rilevazione": "10/05/2022 12:02:47"}, {"Gestore": "T.D.M. S.R.L.", "Bandiera": "Tamoil", "Tipo impianto": "Altro", "Indirizzo": "VIALE LOMBARDIA 4 20093", "Nome impianto": "6124", "Comune": "COLOGNO MONZESE", "idImpianto": 46499, "points": [{"type": "Feature", "properties": {}, "geometry": {"type": "Point", "coordinates": [9.274990922208984, 45.535208805954895]}}], "price": 1.819, "ultima_rilevazione": "10/05/2022 12:14:13"}, {"Gestore": "SILIATO LUIGI", "Bandiera": "Api-Ip", "Tipo impianto": "Altro", "Indirizzo": "enrico fermi  20900", "Nome impianto": "stazione di servizio IP di Luigi Siliato", "Comune": "MONZA", "idImpianto": 38935, "points": [{"type": "Feature", "properties": {}, "geometry": {"type": "Point", "coordinates": [9.27997313439846, 45.564417700011056]}}], "price": 1.839, "ultima_rilevazione": "10/05/2022 14:40:57"}, {"Gestore": "DUE ESSE DI SECCHIERO VITTORIO E C. SNC", "Bandiera": "Tamoil", "Tipo impianto": "Altro", "Indirizzo": "str.prov 60 km.0+700  lato nord ovest  ", "Nome impianto": "tamoil", "Comune": "CONCOREZZO", "idImpianto": 9456, "points": [{"type": "Feature", "properties": {}, "geometry": {"type": "Point", "coordinates": [9.32466745376587, 45.60481188189896]}}], "price": 1.839, "ultima_rilevazione": "10/05/2022 15:08:13"}, {"Gestore": "CHIAPPINELLI NICOLA", "Bandiera": "Api-Ip", "Tipo impianto": "Altro", "Indirizzo": "S.P.13 km12+120  ", "Nome impianto": "API-IP ", "Comune": "GORGONZOLA", "idImpianto": 25397, "points": [{"type": "Feature", "properties": {}, "geometry": {"type": "Point", "coordinates": [9.402837753295898, 45.5191846639186]}}], "price": 1.829, "ultima_rilevazione": "10/05/2022 16:12:29"}, {"Gestore": "L.A. SNC DI LAINO NICODEMO & C.", "Bandiera": "Api-Ip", "Tipo impianto": "Strada Statale", "Indirizzo": "11 Padana Superiore, Km. 163+450, sud 20864", "Nome impianto": "IP", "Comune": "GORGONZOLA", "idImpianto": 40432, "points": [{"type": "Feature", "properties": {}, "geometry": {"type": "Point", "coordinates": [9.4075208902359, 45.52394258704885]}}], "price": 1.829, "ultima_rilevazione": "10/05/2022 17:31:10"}, {"Gestore": "IPERSTAROIL S.R.L.", "Bandiera": "Auchan", "Tipo impianto": "Altro", "Indirizzo": "SS 11 STRADA PADANA SUPERIORE SNC 20090", "Nome impianto": "Vimodrone", "Comune": "VIMODRONE", "idImpianto": 50293, "points": [{"type": "Feature", "properties": {}, "geometry": {"type": "Point", "coordinates": [9.301722939794814, 45.50974450420151]}}], "price": 1.769, "ultima_rilevazione": "10/05/2022 19:36:07"}, {"Gestore": "SERVIZI & GESTIONI ITALIA S.R.L.", "Bandiera": "Q8", "Tipo impianto": "Altro", "Indirizzo": "VIA G.B. STUCCHI", "Nome impianto": "MONZA VIA G.B. STUCCHI", "Comune": "MONZA", "idImpianto": 25015, "points": [{"type": "Feature", "properties": {}, "geometry": {"type": "Point", "coordinates": [9.31022520555723, 45.58708695789439]}}], "price": 1.839, "ultima_rilevazione": "11/05/2022 02:36:40"}, {"Gestore": "SERVIZI & GESTIONI ITALIA srl", "Bandiera": "Q8", "Tipo impianto": "Altro", "Indirizzo": "VIA BUONARROTI -DISTR.Q8 117 20052", "Nome impianto": "MONZA VIA BUONARROTI 117 -DISTR.Q8", "Comune": "MONZA", "idImpianto": 6433, "points": [{"type": "Feature", "properties": {}, "geometry": {"type": "Point", "coordinates": [9.284428306745896, 45.569924786456205]}}], "price": 1.839, "ultima_rilevazione": "11/05/2022 02:36:40"}, {"Gestore": "STELLUTI LIBERO SNC", "Bandiera": "Esso", "Tipo impianto": "Altro", "Indirizzo": "corso milano 32 20900", "Nome impianto": "stazione di servizio esso di stelluti libero snc", "Comune": "MONZA", "idImpianto": 21145, "points": [{"type": "Feature", "properties": {}, "geometry": {"type": "Point", "coordinates": [9.271898106220988, 45.57866365616646]}}], "price": 1.799, "ultima_rilevazione": "11/05/2022 06:44:21"}, {"Gestore": "SERVIZI & GESTIONI ITALIA S.R.L.", "Bandiera": "Q8", "Tipo impianto": "Altro", "Indirizzo": "VIA ENRICO FERMI S/N 20052", "Nome impianto": "MONZA-VIA ENRICO FERMI", "Comune": "MONZA", "idImpianto": 11644, "points": [{"type": "Feature", "properties": {}, "geometry": {"type": "Point", "coordinates": [9.28129119510652, 45.565656333778335]}}], "price": 1.859, "ultima_rilevazione": "11/05/2022 07:09:08"}, {"Gestore": "BIFFI THOMAS", "Bandiera": "Agip Eni", "Tipo impianto": "Altro", "Indirizzo": "STRADA PROVINCIALE 2 MONZA-TREZZO KM.1+400  20863", "Nome impianto": "BIFFI THOMAS - AGIP", "Comune": "CONCOREZZO", "idImpianto": 14347, "points": [{"type": "Feature", "properties": {}, "geometry": {"type": "Point", "coordinates": [9.323086957167106, 45.59119325497423]}}], "price": 1.834, "ultima_rilevazione": "11/05/2022 07:44:08"}, {"Gestore": "AUTOSERVICE DI GIOVANNI D'ALOIA S.A.S.", "Bandiera": "Tamoil", "Tipo impianto": "Altro", "Indirizzo": "S.P. 60 KM 0+700 SNC 20049", "Nome impianto": "TAMOIL 7463  LATO SUD/EST", "Comune": "CONCOREZZO", "idImpianto": 28937, "points": [{"type": "Feature", "properties": {}, "geometry": {"type": "Point", "coordinates": [9.32416319847107, 45.60408154984006]}}], "price": 1.989, "ultima_rilevazione": "10/05/2022 08:00:09"}, {"Gestore": "DUE ESSE DI SECCHIERO VITTORIO E C. SNC", "Bandiera": "Tamoil", "Tipo impianto": "Altro", "Indirizzo": "str.prov 60 km.0+700  lato nord ovest  ", "Nome impianto": "tamoil", "Comune": "CONCOREZZO", "idImpianto": 9456, "points": [{"type": "Feature", "properties": {}, "geometry": {"type": "Point", "coordinates": [9.32466745376587, 45.60481188189896]}}], "price": 1.989, "ultima_rilevazione": "10/05/2022 15:08:13"}]}, "Gasolio": {"1": [{"Gestore": "IEVA MICHELE", "Bandiera": "Agip Eni", "Tipo impianto": "Altro", "Indirizzo": "VIA SP 121 POBBIANO/CAVENAGO  20061", "Nome impianto": "stazione di servizio Agip di Ieva michele", "Comune": "CARUGATE", "idImpianto": 7530, "points": [{"type": "Feature", "properties": {}, "geometry": {"type": "Point", "coordinates": [9.333864748477936, 45.55165355778144]}}], "price": 1.879, "ultima_rilevazione": "03/05/2022 09:23:39"}, {"Gestore": "SERVIZI & GESTIONI ITALIA S.R.L.", "Bandiera": "Q8", "Tipo impianto": "Altro", "Indirizzo": "S.P. 121 - KM. 8+070  20063", "Nome impianto": "CERNUSCO SUL NAVIGLIO - S.P. 121 - KM. 8+070", "Comune": "CERNUSCO SUL NAVIGLIO", "idImpianto": 30796, "points": [{"type": "Feature", "properties": {}, "geometry": {"type": "Point", "coordinates": [9.336739286508193, 45.5403700891952]}}], "price": 1.849, "ultima_rilevazione": "06/05/2022 07:07:16"}, {"Gestore": "R.A.M.M. DI CREMONESI MARIO VITTORIO", "Bandiera": "Pompe Bianche", "Tipo impianto": "Altro", "Indirizzo": "VIA DEI MILLE 151 20861", "Nome impianto": "PETROL OUTLET", "Comune": "BRUGHERIO", "idImpianto": 38614, "points": [{"type": "Feature", "properties": {}, "geometry": {"type": "Point", "coordinates": [9.322085827589037, 45.548317481746224]}}], "price": 1.839, "ultima_rilevazione": "07/05/2022 21:50:07"}, {"Gestore": "GS SPA", "Bandiera": "Q8", "Tipo impianto": "Altro", "Indirizzo": "Strada Provinciale  208 20061", "Nome impianto": "Carrefour Q8 Carugate", "Comune": "CARUGATE", "idImpianto": 48741, "points": [{"type": "Feature", "properties": {}, "geometry": {"type": "Point", "coordinates": [9.331401268583818, 45.54816345136025]}}], "price": 1.839, "ultima_rilevazione": "09/05/2022 16:16:28"}, {"Gestore": "IP SERVICES S.R.L.", "Bandiera": "Api-Ip", "Tipo impianto": "Altro", "Indirizzo": "S.P.121  KM.6+250 20063", "Nome impianto": "Cernusco sul Naviglio", "Comune": "CERNUSCO SUL NAVIGLIO", "idImpianto": 37970, "points": [{"type": "Feature", "properties": {}, "geometry": {"type": "Point", "coordinates": [9.334397882212215, 45.54543517250591]}}], "price": 1.849, "ultima_rilevazione": "10/05/2022 16:04:12"}], "3": [{"Gestore": "CAMEL EXPRESS S.R.L.", "Bandiera": "Api-Ip", "Tipo impianto": "Altro", "Indirizzo": "STRADA PROVINCIALE 13 MELZO MONZA SNC 20060", "Nome impianto": "IP", "Comune": "PESSANO CON BORNAGO", "idImpianto": 49859, "points": [{"type": "Feature", "properties": {}, "geometry": {"type": "Point", "coordinates": [9.393047021881292, 45.54667299908384]}}], "price": 1.839, "ultima_rilevazione": "29/04/2022 13:16:43"}, {"Gestore": "FERRO MAURO", "Bandiera": "Agip Eni", "Tipo impianto": "Strada Statale", "Indirizzo": "Strada Statale, Km. 1+280, melzo 20867", "Nome impianto": "stazione eni ferro mauro", "Comune": "CAPONAGO", "idImpianto": 45069, "points": [{"type": "Feature", "properties": {}, "geometry": {"type": "Point", "coordinates": [9.376779000123, 45.560100000123]}}], "price": 1.884, "ultima_rilevazione": "05/05/2022 10:39:31"}, {"Gestore": "NUOVA SIDAP  S.R.L.", "Bandiera": "Esso", "Tipo impianto": "Altro", "Indirizzo": "VIALE DELLE INDUSTRIE 43 20900", "Nome impianto": "Monza 2", "Comune": "MONZA", "idImpianto": 4657, "points": [{"type": "Feature", "properties": {}, "geometry": {"type": "Point", "coordinates": [9.292220771312714, 45.56863365263018]}}], "price": 1.912, "ultima_rilevazione": "05/05/2022 16:05:47"}, {"Gestore": "AUTOMARKET DI FUMAGALLI & BRAMBILLA S.N.C.", "Bandiera": "Agip Eni", "Tipo impianto": "Altro", "Indirizzo": "VIA PROVINCIALE 15 20060", "Nome impianto": "ENI AUTOMARKET SNC", "Comune": "PESSANO CON BORNAGO", "idImpianto": 14598, "points": [{"type": "Feature", "properties": {}, "geometry": {"type": "Point", "coordinates": [9.38745020163242, 45.55289646788714]}}], "price": 1.884, "ultima_rilevazione": "05/05/2022 17:40:05"}, {"Gestore": "ZACCHI RENATO", "Bandiera": "Agip Eni", "Tipo impianto": "Altro", "Indirizzo": "VIALE EUROPA 13 BIS 20060", "Nome impianto": "ENI BUSSERO", "Comune": "BUSSERO", "idImpianto": 41033, "points": [{"type": "Feature", "properties": {}, "geometry": {"type": "Point", "coordinates": [9.374386614749938, 45.530786489777256]}}], "price": 1.884, "ultima_rilevazione": "05/05/2022 19:12:33"}, {"Gestore": "SERVIZI & GESTIONI ITALIA S.R.L.", "Bandiera": "Q8", "Tipo impianto": "Altro", "Indirizzo": "FZ.S.ALBINO VIA ADDA 71 20052", "Nome impianto": "MONZA-FZ.S.ALBINO VIA ADDA 71", "Comune": "MONZA", "idImpianto": 11638, "points": [{"type": "Feature", "properties": {}, "geometry": {"type": "Point", "coordinates": [9.314026822090112, 45.57211126545646]}}], "price": 1.899, "ultima_rilevazione": "06/05/2022 07:07:08"}, {"Gestore": "FULLPOINT SOCIETA' A RESPONSABILITA' LIMITATA SEMPLIFICATA", "Bandiera": "Q8", "Tipo impianto": "Altro", "Indirizzo": "STRADA PROVINCIALE 120 KM. 5,400 00 20063", "Nome impianto": "fullpoint srls", "Comune": "CERNUSCO SUL NAVIGLIO", "idImpianto": 44576, "points": [{"type": "Feature", "properties": {}, "geometry": {"type": "Point", "coordinates": [9.30619758371904, 45.5262772387745]}}], "price": 1.839, "ultima_rilevazione": "06/05/2022 12:27:55"}, {"Gestore": "FRATELLI PULEO S.N.C. DI PULEO PIETRO E PAOLO", "Bandiera": "Q8", "Tipo impianto": "Altro", "Indirizzo": "VIA STUCCHI 47 20900", "Nome impianto": "STAZ. SERV. Q8 F.LLI PULEO SNC", "Comune": "MONZA", "idImpianto": 14453, "points": [{"type": "Feature", "properties": {}, "geometry": {"type": "Point", "coordinates": [9.308756589889526, 45.57804836296814]}}], "price": 1.899, "ultima_rilevazione": "07/05/2022 06:44:22"}, {"Gestore": "LOVINO MARCO", "Bandiera": "Esso", "Tipo impianto": "Altro", "Indirizzo": "VIA GIUSEPPE VERDI 47 20063", "Nome impianto": "STAZIONE DI SERVIZIO ESSO VIA VERDI 47", "Comune": "CERNUSCO SUL NAVIGLIO", "idImpianto": 49049, "points": [{"type": "Feature", "properties": {}, "geometry": {"type": "Point", "coordinates": [9.337236285209656, 45.52923583950437]}}], "price": 1.866, "ultima_rilevazione": "07/05/2022 12:09:55"}, {"Gestore": "SERVIZI & GESTIONI ITALIA S.R.L.", "Bandiera": "Q8", "Tipo impianto": "Altro", "Indirizzo": "VIA ROMA 70 20060", "Nome impianto": "CASSINA DE' PECCHI-VIA ROMA 70", "Comune": "CASSINA DE' PECCHI", "idImpianto": 11688, "points": [{"type": "Feature", "properties": {}, "geometry": {"type": "Point", "coordinates": [9.365186645507832, 45.51936083416594]}}], "price": 1.874, "ultima_rilevazione": "09/05/2022 00:31:20"}, {"Gestore": "SERVIZI & GESTIONI ITALIA srl", "Bandiera": "Q8", "Tipo impianto": "Altro", "Indirizzo": "VIA PROVINCIALE 83 DISTR.Q8 SNC 20060", "Nome impianto": "PESSANO CON BORNAGO VIA PROVINCIALE 83 DISTR.Q8", "Comune": "PESSANO CON BORNAGO", "idImpianto": 6443, "points": [{"type": "Feature", "properties": {}, "geometry": {"type": "Point", "coordinates": [9.39170405396726, 45.54389870287802]}}], "price": 1.879, "ultima_rilevazione": "09/05/2022 00:31:24"}, {"Gestore": "SERVIZI & GESTIONI ITALIA S.R.L.", "Bandiera": "Q8", "Tipo impianto": "Altro", "Indirizzo": "PIAZZA CASTELLO 43 20060", "Nome impianto": "PESSANO CON BORNAGO-PIAZZA CASTELLO 43", "Comune": "PESSANO CON BORNAGO", "idImpianto": 11654, "points": [{"type": "Feature", "properties": {}, "geometry": {"type": "Point", "coordinates": [9.383887171793049, 45.55137231340641]}}], "price": 1.919, "ultima_rilevazione": "09/05/2022 00:31:31"}, {"Gestore": "SERVIZI & GESTIONI ITALIA S.R.L.", "Bandiera": "Q8", "Tipo impianto": "Altro", "Indirizzo": "S.P 242 KM 4+578 S/N  20060", "Nome impianto": "PESSANO CON BORNAGO -S.P 242 KM 4+578", "Comune": "PESSANO CON BORNAGO", "idImpianto": 11711, "points": [{"type": "Feature", "properties": {}, "geometry": {"type": "Point", "coordinates": [9.389155568122874, 45.549163863694574]}}], "price": 1.889, "ultima_rilevazione": "09/05/2022 00:31:31"}, {"Gestore": "PACEKO S.R.L.", "Bandiera": "Pompe Bianche", "Tipo impianto": "Altro", "Indirizzo": "Via delle industrie  16 20864", "Nome impianto": "EKOPOINT", "Comune": "AGRATE BRIANZA", "idImpianto": 44517, "points": [{"type": "Feature", "properties": {}, "geometry": {"type": "Point", "coordinates": [9.35416730855468, 45.56791207197751]}}], "price": 1.848, "ultima_rilevazione": "09/05/2022 08:29:44"}, {"Gestore": "TECNOCLIMA S.N.C. DI GAETANO SCORNAVACCA & C.", "Bandiera": "Api-Ip", "Tipo impianto": "Altro", "Indirizzo": "VIALE LOMBARDIA 169, 20861", "Nome impianto": "tecnoclima snc distibutore ip", "Comune": "BRUGHERIO", "idImpianto": 14272, "points": [{"type": "Feature", "properties": {}, "geometry": {"type": "Point", "coordinates": [9.29600785648347, 45.5513854224133]}}], "price": 1.936, "ultima_rilevazione": "09/05/2022 10:31:03"}, {"Gestore": "ROMI S.A.S. DI SCIARROTTA ROMINA E C.", "Bandiera": "Api-Ip", "Tipo impianto": "Altro", "Indirizzo": "S.P . Monza-Melzo Km 3  20864", "Nome impianto": "ITALIANA PETROLI", "Comune": "AGRATE BRIANZA", "idImpianto": 28307, "points": [{"type": "Feature", "properties": {}, "geometry": {"type": "Point", "coordinates": [9.33866322040558, 45.575763923593925]}}], "price": 1.849, "ultima_rilevazione": "09/05/2022 18:55:13"}, {"Gestore": "SERVIZI & GESTIONI ITALIA S.R.L.", "Bandiera": "Q8", "Tipo impianto": "Altro", "Indirizzo": "VIA QUARTO 94 20047", "Nome impianto": "BRUGHERIO-VIA QUARTO 94", "Comune": "BRUGHERIO", "idImpianto": 11647, "points": [{"type": "Feature", "properties": {}, "geometry": {"type": "Point", "coordinates": [9.304071253967322, 45.54090462397628]}}], "price": 1.839, "ultima_rilevazione": "10/05/2022 01:40:31"}, {"Gestore": "NUOVA SIDAP  S.R.L.", "Bandiera": "Esso", "Tipo impianto": "Altro", "Indirizzo": "VIA DELLE INDUSTRIE SNC 20900", "Nome impianto": "Monza", "Comune": "MONZA", "idImpianto": 4658, "points": [{"type": "Feature", "properties": {}, "geometry": {"type": "Point", "coordinates": [9.294119775295258, 45.569851510563616]}}], "price": 1.912, "ultima_rilevazione": "10/05/2022 06:09:44"}, {"Gestore": "DE PIETRO SALVATORE", "Bandiera": "Esso", "Tipo impianto": "Altro", "Indirizzo": "VIA PROVINCIALE KM 17 SNC 20863", "Nome impianto": "SALVATORE DE PIETRO", "Comune": "CONCOREZZO", "idImpianto": 20162, "points": [{"type": "Feature", "properties": {}, "geometry": {"type": "Point", "coordinates": [9.330807030200958, 45.587692748640585]}}], "price": 1.869, "ultima_rilevazione": "10/05/2022 07:39:52"}, {"Gestore": "LOMBARDI SALVATORE", "Bandiera": "Esso", "Tipo impianto": "Altro", "Indirizzo": "Via Provinciale 68 20060", "Nome impianto": "ESSO", "Comune": "PESSANO CON BORNAGO", "idImpianto": 49119, "points": [{"type": "Feature", "properties": {}, "geometry": {"type": "Point", "coordinates": [9.39207043498754, 45.5397446156316]}}], "price": 1.879, "ultima_rilevazione": "10/05/2022 08:16:08"}, {"Gestore": "GOBBI MARZIO ENRICO", "Bandiera": "Retitalia", "Tipo impianto": "Altro", "Indirizzo": "Via Per Imbersago 61 20093", "Nome impianto": "RETITALIA", "Comune": "COLOGNO MONZESE", "idImpianto": 38871, "points": [{"type": "Feature", "properties": {}, "geometry": {"type": "Point", "coordinates": [9.28936555981636, 45.54292573438804]}}], "price": 1.874, "ultima_rilevazione": "10/05/2022 09:52:08"}, {"Gestore": "IP SERVICES S.R.L.", "Bandiera": "Api-Ip", "Tipo impianto": "Altro", "Indirizzo": "VIALE LOMBARDIA 93 20047", "Nome impianto": "BRUGHERIO - LOMBARDIA 93", "Comune": "BRUGHERIO", "idImpianto": 22888, "points": [{"type": "Feature", "properties": {}, "geometry": {"type": "Point", "coordinates": [9.292631650297151, 45.54702693920715]}}], "price": 1.819, "ultima_rilevazione": "10/05/2022 12:03:28"}, {"Gestore": "T.D.M. S.R.L.", "Bandiera": "Tamoil", "Tipo impianto": "Altro", "Indirizzo": "SP. 13 KM. 2+500 MONZA/MELZO SNC 20049", "Nome impianto": "8495", "Comune": "CONCOREZZO", "idImpianto": 42138, "points": [{"type": "Feature", "properties": {}, "geometry": {"type": "Point", "coordinates": [9.32847686111927, 45.57825750242336]}}], "price": 1.849, "ultima_rilevazione": "10/05/2022 12:12:10"}, {"Gestore": "NUOVA SIDAP  S.R.L.", "Bandiera": "Api-Ip", "Tipo impianto": "Autostradale", "Indirizzo": "A51 TANG.LE EST DI MILANO, Km. 15+200, Nord 20093", "Nome impianto": "COLOGNO M. EST", "Comune": "COLOGNO MONZESE", "idImpianto": 48196, "points": [{"type": "Feature", "properties": {}, "geometry": {"type": "Point", "coordinates": [9.299550652503962, 45.5372445308776]}}], "price": 1.904, "ultima_rilevazione": "10/05/2022 14:21:14"}, {"Gestore": "RAUSA MAURIZIO", "Bandiera": "Api-Ip", "Tipo impianto": "Altro", "Indirizzo": "via dei mille 81 20861", "Nome impianto": "totalerg", "Comune": "BRUGHERIO", "idImpianto": 28263, "points": [{"type": "Feature", "properties": {}, "geometry": {"type": "Point", "coordinates": [9.311300665140152, 45.54650670273922]}}], "price": 1.839, "ultima_rilevazione": "10/05/2022 16:03:53"}, {"Gestore": "AF PETROL S.R.L.", "Bandiera": "Pompe Bianche", "Tipo impianto": "Altro", "Indirizzo": "VIALE LOMBARDIA 75 20861", "Nome impianto": "AF PETROL SRL", "Comune": "BRUGHERIO", "idImpianto": 22943, "points": [{"type": "Feature", "properties": {}, "geometry": {"type": "Point", "coordinates": [9.292266169905815, 45.54659960785789]}}], "price": 1.819, "ultima_rilevazione": "11/05/2022 07:40:08"}, {"Gestore": "AG SAS DI ABBATTISTA GIOVANNI", "Bandiera": "Agip Eni", "Tipo impianto": "Strada Statale", "Indirizzo": "Statale 11 Padana Superiore, Km. 158+082, dir. SUD 20060", "Nome impianto": "STAZIONE SERVIZIO ENI", "Comune": "CASSINA DE' PECCHI", "idImpianto": 6164, "points": [{"type": "Feature", "properties": {}, "geometry": {"type": "Point", "coordinates": [9.357555359601974, 45.51818409200797]}}], "price": 1.874, "ultima_rilevazione": "11/05/2022 07:47:07"}, {"Gestore": "ENI FUEL S.P.A.", "Bandiera": "Agip Eni", "Tipo impianto": "Altro", "Indirizzo": "Via Matteotti 133 20041", "Nome impianto": "PV 02151 Agrate Brianza", "Comune": "AGRATE BRIANZA", "idImpianto": 47365, "points": [{"type": "Feature", "properties": {}, "geometry": {"type": "Point", "coordinates": [9.356548000123, 45.572168000123]}}], "price": 1.819, "ultima_rilevazione": "11/05/2022 07:54:03"}], "5": [{"Gestore": "STRIPPOLI ALFIO", "Bandiera": "Agip Eni", "Tipo impianto": "Altro", "Indirizzo": "VIALE LIBERTA' 88 20900", "Nome impianto": "Strippoli Alfio", "Comune": "MONZA", "idImpianto": 14409, "points": [{"type": "Feature", "properties": {}, "geometry": {"type": "Point", "coordinates": [9.295753240585327, 45.58941435702956]}}], "price": 1.659, "ultima_rilevazione": "04/11/2021 22:15:50"}, {"Gestore": "SCARFONE SANTO", "Bandiera": "Agip Eni", "Tipo impianto": "Altro", "Indirizzo": "c.so roma 107 20093", "Nome impianto": "eni scarfone santo", "Comune": "COLOGNO MONZESE", "idImpianto": 11439, "points": [{"type": "Feature", "properties": {}, "geometry": {"type": "Point", "coordinates": [9.28293228149414, 45.53437861561028]}}], "price": 2.239, "ultima_rilevazione": "09/05/2022 10:42:33"}, {"Gestore": "3 C S.R.L.", "Bandiera": "Agip Eni", "Tipo impianto": "Autostradale", "Indirizzo": "Autostrada A4 MILANO-BRESCIA, Km. 148+470, dir. Ovest 20864", "Nome impianto": "BRIANZA NORD", "Comune": "CAPONAGO", "idImpianto": 3630, "points": [{"type": "Feature", "properties": {}, "geometry": {"type": "Point", "coordinates": [9.39446, 45.5753]}}], "price": 1.852, "ultima_rilevazione": "03/05/2022 08:28:27"}, {"Gestore": "RHN ENTERPRISE DI AHMED NAVEED", "Bandiera": "Retitalia", "Tipo impianto": "Altro", "Indirizzo": "via monte santo 36 20900", "Nome impianto": "reteitalia", "Comune": "MONZA", "idImpianto": 49483, "points": [{"type": "Feature", "properties": {}, "geometry": {"type": "Point", "coordinates": [9.26951166601285, 45.56208227724076]}}], "price": 1.914, "ultima_rilevazione": "02/05/2022 14:56:58"}, {"Gestore": "DI DIO CALDERONE CONCETTA", "Bandiera": "Api-Ip", "Tipo impianto": "Altro", "Indirizzo": "via lecco km 1,5  20864", "Nome impianto": "IP", "Comune": "AGRATE BRIANZA", "idImpianto": 4730, "points": [{"type": "Feature", "properties": {}, "geometry": {"type": "Point", "coordinates": [9.357761000123, 45.585854000123]}}], "price": 1.849, "ultima_rilevazione": "10/05/2022 22:59:57"}, {"Gestore": "BOKTOR MAHDY ZEIDAN MEHANNY", "Bandiera": "Api-Ip", "Tipo impianto": "Altro", "Indirizzo": "S.P. 13 MONZA-MELZO KM. 12+700 SNC 20060", "Nome impianto": "IP ", "Comune": "CASSINA DE' PECCHI", "idImpianto": 50040, "points": [{"type": "Feature", "properties": {}, "geometry": {"type": "Point", "coordinates": [9.40695726716632, 45.51445066165029]}}], "price": 1.879, "ultima_rilevazione": "02/05/2022 20:08:21"}, {"Gestore": "EASYSERVICE DI DELLOLIO MARIA", "Bandiera": "Pompe Bianche", "Tipo impianto": "Altro", "Indirizzo": "Via Monterosa SNC 20863", "Nome impianto": "Petrol Outlet", "Comune": "CONCOREZZO", "idImpianto": 41835, "points": [{"type": "Feature", "properties": {}, "geometry": {"type": "Point", "coordinates": [9.321381747722626, 45.59667035972453]}}], "price": 1.879, "ultima_rilevazione": "04/05/2022 10:05:01"}, {"Gestore": "G.F. DI SAITTA GIUSEPPE & C. S.A.S.", "Bandiera": "Agip Eni", "Tipo impianto": "Altro", "Indirizzo": "VIA TRENTO 66 20871", "Nome impianto": "G.F. DI SAITTA GIUSEPPE & C. S.A.S.", "Comune": "VIMERCATE", "idImpianto": 50778, "points": [{"type": "Feature", "properties": {}, "geometry": {"type": "Point", "coordinates": [9.35947337933444, 45.59093401235108]}}], "price": 1.884, "ultima_rilevazione": "05/05/2022 07:51:58"}, {"Gestore": "BASELICE FRANCESCO", "Bandiera": "Q8", "Tipo impianto": "Altro", "Indirizzo": "via tiepolo  20900", "Nome impianto": "Q8", "Comune": "MONZA", "idImpianto": 13606, "points": [{"type": "Feature", "properties": {}, "geometry": {"type": "Point", "coordinates": [9.300115182995796, 45.58058447639117]}}], "price": 1.859, "ultima_rilevazione": "05/05/2022 08:48:15"}, {"Gestore": "PNEUSCARS 2 S.A.S. DI TERRANE FABIO & C.", "Bandiera": "Agip Eni", "Tipo impianto": "Altro", "Indirizzo": "VIA MILANO 9 20096", "Nome impianto": "Eni", "Comune": "PIOLTELLO", "idImpianto": 12081, "points": [{"type": "Feature", "properties": {}, "geometry": {"type": "Point", "coordinates": [9.331360636840031, 45.50138514073774]}}], "price": 1.889, "ultima_rilevazione": "05/05/2022 10:52:55"}, {"Gestore": "HS SERVICE DI SURACE HUMBERTO", "Bandiera": "Api-Ip", "Tipo impianto": "Altro", "Indirizzo": "via xxv aprile SNC 20875", "Nome impianto": "STAZIONE IP HS SERVICE", "Comune": "BURAGO DI MOLGORA", "idImpianto": 47630, "points": [{"type": "Feature", "properties": {}, "geometry": {"type": "Point", "coordinates": [9.38432514667511, 45.59525001380025]}}], "price": 1.889, "ultima_rilevazione": "06/05/2022 07:20:39"}, {"Gestore": "FORTUNA SNC DI MOHAMMAD AFZAL E MIRZA SHAFEEQ SIDDIQUE", "Bandiera": "Api-Ip", "Tipo impianto": "Altro", "Indirizzo": "VIA CORREGGIO ANG VIA LIBERTA'  20900", "Nome impianto": "italiana petroli  IP", "Comune": "MONZA", "idImpianto": 44951, "points": [{"type": "Feature", "properties": {}, "geometry": {"type": "Point", "coordinates": [9.298765000123, 45.589907000123]}}], "price": 1.889, "ultima_rilevazione": "06/05/2022 15:30:13"}, {"Gestore": "MILANO SERVICE S.N.C. DI MILICI DAVIDE & IEVA VINCENZO", "Bandiera": "Repsol", "Tipo impianto": "Altro", "Indirizzo": "S.P. 2 KM 3    20863", "Nome impianto": "REPSOL ", "Comune": "CONCOREZZO", "idImpianto": 46585, "points": [{"type": "Feature", "properties": {}, "geometry": {"type": "Point", "coordinates": [9.3511094823632, 45.59862339923655]}}], "price": 1.839, "ultima_rilevazione": "06/05/2022 15:32:35"}, {"Gestore": "RAGOSA SIMONE", "Bandiera": "Esso", "Tipo impianto": "Altro", "Indirizzo": "VIA MOLISE  20093", "Nome impianto": "Stazione di servizio esso di Ragosa", "Comune": "COLOGNO MONZESE", "idImpianto": 23422, "points": [{"type": "Feature", "properties": {}, "geometry": {"type": "Point", "coordinates": [9.274595975875854, 45.52505054389173]}}], "price": 1.889, "ultima_rilevazione": "07/05/2022 06:48:00"}, {"Gestore": "SERVIZI & GESTIONI ITALIA S.R.L.", "Bandiera": "Q8", "Tipo impianto": "Altro", "Indirizzo": "VIA BORGAZZI 96 20052", "Nome impianto": "MONZA-VIA BORGAZZI 96", "Comune": "MONZA", "idImpianto": 11651, "points": [{"type": "Feature", "properties": {}, "geometry": {"type": "Point", "coordinates": [9.261414576721222, 45.566349778721616]}}], "price": 1.859, "ultima_rilevazione": "09/05/2022 00:31:19"}, {"Gestore": "FERRARI & MARIANI S.N.C. DI FERRARI STEFANO & C.", "Bandiera": "Agip Eni", "Tipo impianto": "Altro", "Indirizzo": "VIALE SICILIA 40 20900", "Nome impianto": "ferrari & mariani snc", "Comune": "MONZA", "idImpianto": 11978, "points": [{"type": "Feature", "properties": {}, "geometry": {"type": "Point", "coordinates": [9.302946925163267, 45.58137197335687]}}], "price": 1.884, "ultima_rilevazione": "09/05/2022 07:44:55"}, {"Gestore": "SUPERSERVICE SNC DEI F.LLI CANTARELLI", "Bandiera": "Agip Eni", "Tipo impianto": "Autostradale", "Indirizzo": "Autostrada A4 MILANO-BRESCIA, Km. 24, dir. BERGAMO", "Nome impianto": "BRIANZA SUD", "Comune": "CAPONAGO", "idImpianto": 24292, "points": [{"type": "Feature", "properties": {}, "geometry": {"type": "Point", "coordinates": [9.394437074661257, 45.574416646651166]}}], "price": 1.974, "ultima_rilevazione": "09/05/2022 08:16:39"}, {"Gestore": "BRITA S.A.S. DI D'AMATO DAVIDE & C.", "Bandiera": "Pompe Bianche", "Tipo impianto": "Altro", "Indirizzo": "VIA PRIVATA VICINALE 2/7 20852", "Nome impianto": "BRITA S.A.S", "Comune": "VILLASANTA", "idImpianto": 49253, "points": [{"type": "Feature", "properties": {}, "geometry": {"type": "Point", "coordinates": [9.30842854232789, 45.59988219820851]}}], "price": 1.839, "ultima_rilevazione": "09/05/2022 08:23:29"}, {"Gestore": "SACCHETTO DANIELE", "Bandiera": "Agip Eni", "Tipo impianto": "Altro", "Indirizzo": "STRADA PADANA SUPERIORE 229 20090", "Nome impianto": "ENI", "Comune": "VIMODRONE", "idImpianto": 48117, "points": [{"type": "Feature", "properties": {}, "geometry": {"type": "Point", "coordinates": [9.284789434358592, 45.51181951836233]}}], "price": 1.844, "ultima_rilevazione": "09/05/2022 08:27:56"}, {"Gestore": "DUELLE S.N.C. DI MARCO E SIMONE LEVATI", "Bandiera": "Agip Eni", "Tipo impianto": "Altro", "Indirizzo": "VIA TORINO S.P.121 KM. 2+400  20063", "Nome impianto": "DUELLE SNC DI SIMONE E MARCO LEVATI", "Comune": "CERNUSCO SUL NAVIGLIO", "idImpianto": 11293, "points": [{"type": "Feature", "properties": {}, "geometry": {"type": "Point", "coordinates": [9.338799389162205, 45.504134696116026]}}], "price": 1.892, "ultima_rilevazione": "09/05/2022 09:28:51"}, {"Gestore": "EFFEMME SAS DI MERONI FULVIO GASPARE E C.", "Bandiera": "Api-Ip", "Tipo impianto": "Altro", "Indirizzo": "VIA MICHELANGELO BUONARROTI 63 20064", "Nome impianto": " punto vendita IP Effemme sas di Meroni F & c.", "Comune": "GORGONZOLA", "idImpianto": 15816, "points": [{"type": "Feature", "properties": {}, "geometry": {"type": "Point", "coordinates": [9.401620445790629, 45.52463732468525]}}], "price": 1.899, "ultima_rilevazione": "09/05/2022 09:32:03"}, {"Gestore": "REGAZZETTI GIANNI", "Bandiera": "Api-Ip", "Tipo impianto": "Altro", "Indirizzo": "sp 103  20060", "Nome impianto": "TotalErg", "Comune": "CASSINA DE' PECCHI", "idImpianto": 13404, "points": [{"type": "Feature", "properties": {}, "geometry": {"type": "Point", "coordinates": [9.389531314373016, 45.50753114572307]}}], "price": 1.839, "ultima_rilevazione": "09/05/2022 09:56:21"}, {"Gestore": "SOLDINI GIUSEPPE", "Bandiera": "Q8", "Tipo impianto": "Altro", "Indirizzo": "via monte santo  9 20900", "Nome impianto": "stazione di servizio q8", "Comune": "MONZA", "idImpianto": 48949, "points": [{"type": "Feature", "properties": {}, "geometry": {"type": "Point", "coordinates": [9.266720082221722, 45.56293401042127]}}], "price": 1.859, "ultima_rilevazione": "09/05/2022 17:04:58"}, {"Gestore": "SERVIZI & GESTIONI ITALIA srl", "Bandiera": "Q8", "Tipo impianto": "Altro", "Indirizzo": "VIA MILANO 4/6 20064", "Nome impianto": "GORGONZOLA VIA MILANO 4/6", "Comune": "GORGONZOLA", "idImpianto": 6430, "points": [{"type": "Feature", "properties": {}, "geometry": {"type": "Point", "coordinates": [9.396399528836128, 45.52720696738999]}}], "price": 1.874, "ultima_rilevazione": "09/05/2022 17:06:36"}, {"Gestore": "VINPE SERVIZI S.P.A.", "Bandiera": "Agip Eni", "Tipo impianto": "Altro", "Indirizzo": "S.P. 103 ANTICA CASSANESE SNC,  20060   ", "Nome impianto": "VIGNATE", "Comune": "VIGNATE", "idImpianto": 12143, "points": [{"type": "Feature", "properties": {}, "geometry": {"type": "Point", "coordinates": [9.378164112567902, 45.50568972852001]}}], "price": 1.884, "ultima_rilevazione": "09/05/2022 17:20:56"}, {"Gestore": "SERVIZI & GESTIONI ITALIA S.R.L.", "Bandiera": "Q8", "Tipo impianto": "Altro", "Indirizzo": "VIA BORSA 50 20052", "Nome impianto": "MONZA-VIA BORSA 50", "Comune": "MONZA", "idImpianto": 11646, "points": [{"type": "Feature", "properties": {}, "geometry": {"type": "Point", "coordinates": [9.290283906745913, 45.57946895994504]}}], "price": 1.869, "ultima_rilevazione": "10/05/2022 01:40:32"}, {"Gestore": "SERVIZI & GESTIONI ITALIA S.R.L.", "Bandiera": "Q8", "Tipo impianto": "Altro", "Indirizzo": "CASSANESE SP 103 C/O CC ACQUARIO S/N 20060", "Nome impianto": "VIGNATE-CASSANESE SP 103 C/O CC ACQUARIO", "Comune": "VIGNATE", "idImpianto": 11707, "points": [{"type": "Feature", "properties": {}, "geometry": {"type": "Point", "coordinates": [9.372512698173525, 45.50462086686203]}}], "price": 1.839, "ultima_rilevazione": "10/05/2022 01:40:35"}, {"Gestore": "SERVIZI & GESTIONI ITALIA S.R.L.", "Bandiera": "Q8", "Tipo impianto": "Altro", "Indirizzo": "VIA AMATI CEDERNA 94 20052", "Nome impianto": "MONZA-VIA AMATI CEDERNA 94", "Comune": "MONZA", "idImpianto": 11641, "points": [{"type": "Feature", "properties": {}, "geometry": {"type": "Point", "coordinates": [9.297008629465154, 45.581912830381725]}}], "price": 1.879, "ultima_rilevazione": "10/05/2022 07:10:41"}, {"Gestore": "AUTOSERVICE DI GIOVANNI D'ALOIA S.A.S.", "Bandiera": "Tamoil", "Tipo impianto": "Altro", "Indirizzo": "S.P. 60 KM 0+700 SNC 20049", "Nome impianto": "TAMOIL 7463  LATO SUD/EST", "Comune": "CONCOREZZO", "idImpianto": 28937, "points": [{"type": "Feature", "properties": {}, "geometry": {"type": "Point", "coordinates": [9.32416319847107, 45.60408154984006]}}], "price": 1.889, "ultima_rilevazione": "10/05/2022 08:00:09"}, {"Gestore": "CALOR SYSTEMS S.R.L.", "Bandiera": "Api-Ip", "Tipo impianto": "Altro", "Indirizzo": "Via Mantegna 12 20096", "Nome impianto": "PIOLTELLO MANTEGNA", "Comune": "PIOLTELLO", "idImpianto": 48073, "points": [{"type": "Feature", "properties": {}, "geometry": {"type": "Point", "coordinates": [9.330787259507195, 45.50368496110519]}}], "price": 1.859, "ultima_rilevazione": "10/05/2022 08:08:17"}, {"Gestore": "U.M.A. S.A.S. DI MARCO CELARI E C.", "Bandiera": "Esso", "Tipo impianto": "Altro", "Indirizzo": "via antica cassanese km 8,5  20060", "Nome impianto": "esso", "Comune": "CASSINA DE' PECCHI", "idImpianto": 33725, "points": [{"type": "Feature", "properties": {}, "geometry": {"type": "Point", "coordinates": [9.35478463768959, 45.50391517393423]}}], "price": 1.849, "ultima_rilevazione": "10/05/2022 08:42:28"}, {"Gestore": "AUTOLAVAGGIO LATINO DI VICENTE CASTILLO CARLOS FRANCISCO", "Bandiera": "Api-Ip", "Tipo impianto": "Altro", "Indirizzo": "VIA DANTE ALIGHIERI   20863", "Nome impianto": "IP Via Dante alighieri concorezzo", "Comune": "CONCOREZZO", "idImpianto": 47249, "points": [{"type": "Feature", "properties": {}, "geometry": {"type": "Point", "coordinates": [9.340127832100142, 45.59543823253673]}}], "price": 1.889, "ultima_rilevazione": "10/05/2022 09:42:40"}, {"Gestore": "GOBBI MARZIO ENRICO", "Bandiera": "Retitalia", "Tipo impianto": "Altro", "Indirizzo": "Via Lombardia 3 20093", "Nome impianto": "RETITALIA LOMBARDIA", "Comune": "COLOGNO MONZESE", "idImpianto": 42186, "points": [{"type": "Feature", "properties": {}, "geometry": {"type": "Point", "coordinates": [9.274695217609406, 45.53591322847132]}}], "price": 1.859, "ultima_rilevazione": "10/05/2022 09:53:10"}, {"Gestore": "PAINI ARNALDO", "Bandiera": "Api-Ip", "Tipo impianto": "Altro", "Indirizzo": "strada provinciale 176 km 015 + 075  20873", "Nome impianto": "IP ", "Comune": "CAVENAGO DI BRIANZA", "idImpianto": 8387, "points": [{"type": "Feature", "properties": {}, "geometry": {"type": "Point", "coordinates": [9.409189224243164, 45.58349925138629]}}], "price": 1.889, "ultima_rilevazione": "10/05/2022 11:16:22"}, {"Gestore": "IP SERVICES S.R.L.", "Bandiera": "Api-Ip", "Tipo impianto": "Altro", "Indirizzo": "VIA TRIESTE  20064", "Nome impianto": "GORGONZOLA - TRIESTE", "Comune": "GORGONZOLA", "idImpianto": 31060, "points": [{"type": "Feature", "properties": {}, "geometry": {"type": "Point", "coordinates": [9.412570495700834, 45.53279436333076]}}], "price": 1.879, "ultima_rilevazione": "10/05/2022 12:02:47"}, {"Gestore": "T.D.M. S.R.L.", "Bandiera": "Tamoil", "Tipo impianto": "Altro", "Indirizzo": "VIALE LOMBARDIA 4 20093", "Nome impianto": "6124", "Comune": "COLOGNO MONZESE", "idImpianto": 46499, "points": [{"type": "Feature", "properties": {}, "geometry": {"type": "Point", "coordinates": [9.274990922208984, 45.535208805954895]}}], "price": 1.839, "ultima_rilevazione": "10/05/2022 12:14:13"}, {"Gestore": "SILIATO LUIGI", "Bandiera": "Api-Ip", "Tipo impianto": "Altro", "Indirizzo": "enrico fermi  20900", "Nome impianto": "stazione di servizio IP di Luigi Siliato", "Comune": "MONZA", "idImpianto": 38935, "points": [{"type": "Feature", "properties": {}, "geometry": {"type": "Point", "coordinates": [9.27997313439846, 45.564417700011056]}}], "price": 1.869, "ultima_rilevazione": "10/05/2022 14:40:57"}, {"Gestore": "DUE ESSE DI SECCHIERO VITTORIO E C. SNC", "Bandiera": "Tamoil", "Tipo impianto": "Altro", "Indirizzo": "str.prov 60 km.0+700  lato nord ovest  ", "Nome impianto": "tamoil", "Comune": "CONCOREZZO", "idImpianto": 9456, "points": [{"type": "Feature", "properties": {}, "geometry": {"type": "Point", "coordinates": [9.32466745376587, 45.60481188189896]}}], "price": 1.889, "ultima_rilevazione": "10/05/2022 15:08:13"}, {"Gestore": "CHIAPPINELLI NICOLA", "Bandiera": "Api-Ip", "Tipo impianto": "Altro", "Indirizzo": "S.P.13 km12+120  ", "Nome impianto": "API-IP ", "Comune": "GORGONZOLA", "idImpianto": 25397, "points": [{"type": "Feature", "properties": {}, "geometry": {"type": "Point", "coordinates": [9.402837753295898, 45.5191846639186]}}], "price": 1.879, "ultima_rilevazione": "10/05/2022 16:12:29"}, {"Gestore": "L.A. SNC DI LAINO NICODEMO & C.", "Bandiera": "Api-Ip", "Tipo impianto": "Strada Statale", "Indirizzo": "11 Padana Superiore, Km. 163+450, sud 20864", "Nome impianto": "IP", "Comune": "GORGONZOLA", "idImpianto": 40432, "points": [{"type": "Feature", "properties": {}, "geometry": {"type": "Point", "coordinates": [9.4075208902359, 45.52394258704885]}}], "price": 1.879, "ultima_rilevazione": "10/05/2022 17:31:10"}, {"Gestore": "IPERSTAROIL S.R.L.", "Bandiera": "Auchan", "Tipo impianto": "Altro", "Indirizzo": "SS 11 STRADA PADANA SUPERIORE SNC 20090", "Nome impianto": "Vimodrone", "Comune": "VIMODRONE", "idImpianto": 50293, "points": [{"type": "Feature", "properties": {}, "geometry": {"type": "Point", "coordinates": [9.301722939794814, 45.50974450420151]}}], "price": 1.789, "ultima_rilevazione": "10/05/2022 19:36:07"}, {"Gestore": "SERVIZI & GESTIONI ITALIA S.R.L.", "Bandiera": "Q8", "Tipo impianto": "Altro", "Indirizzo": "VIA G.B. STUCCHI", "Nome impianto": "MONZA VIA G.B. STUCCHI", "Comune": "MONZA", "idImpianto": 25015, "points": [{"type": "Feature", "properties": {}, "geometry": {"type": "Point", "coordinates": [9.31022520555723, 45.58708695789439]}}], "price": 1.879, "ultima_rilevazione": "11/05/2022 02:36:40"}, {"Gestore": "SERVIZI & GESTIONI ITALIA srl", "Bandiera": "Q8", "Tipo impianto": "Altro", "Indirizzo": "VIA BUONARROTI -DISTR.Q8 117 20052", "Nome impianto": "MONZA VIA BUONARROTI 117 -DISTR.Q8", "Comune": "MONZA", "idImpianto": 6433, "points": [{"type": "Feature", "properties": {}, "geometry": {"type": "Point", "coordinates": [9.284428306745896, 45.569924786456205]}}], "price": 1.879, "ultima_rilevazione": "11/05/2022 02:36:40"}, {"Gestore": "STELLUTI LIBERO SNC", "Bandiera": "Esso", "Tipo impianto": "Altro", "Indirizzo": "corso milano 32 20900", "Nome impianto": "stazione di servizio esso di stelluti libero snc", "Comune": "MONZA", "idImpianto": 21145, "points": [{"type": "Feature", "properties": {}, "geometry": {"type": "Point", "coordinates": [9.271898106220988, 45.57866365616646]}}], "price": 1.779, "ultima_rilevazione": "11/05/2022 06:44:21"}, {"Gestore": "SERVIZI & GESTIONI ITALIA S.R.L.", "Bandiera": "Q8", "Tipo impianto": "Altro", "Indirizzo": "VIA ENRICO FERMI S/N 20052", "Nome impianto": "MONZA-VIA ENRICO FERMI", "Comune": "MONZA", "idImpianto": 11644, "points": [{"type": "Feature", "properties": {}, "geometry": {"type": "Point", "coordinates": [9.28129119510652, 45.565656333778335]}}], "price": 1.899, "ultima_rilevazione": "11/05/2022 07:09:08"}, {"Gestore": "BIFFI THOMAS", "Bandiera": "Agip Eni", "Tipo impianto": "Altro", "Indirizzo": "STRADA PROVINCIALE 2 MONZA-TREZZO KM.1+400  20863", "Nome impianto": "BIFFI THOMAS - AGIP", "Comune": "CONCOREZZO", "idImpianto": 14347, "points": [{"type": "Feature", "properties": {}, "geometry": {"type": "Point", "coordinates": [9.323086957167106, 45.59119325497423]}}], "price": 1.884, "ultima_rilevazione": "11/05/2022 07:44:08"}]}, "Metano": {"1": [{"Gestore": "R.A.M.M. DI CREMONESI MARIO VITTORIO", "Bandiera": "Pompe Bianche", "Tipo impianto": "Altro", "Indirizzo": "VIA DEI MILLE 151 20861", "Nome impianto": "PETROL OUTLET", "Comune": "BRUGHERIO", "idImpianto": 38614, "points": [{"type": "Feature", "properties": {}, "geometry": {"type": "Point", "coordinates": [9.322085827589037, 45.548317481746224]}}], "price": 1.979, "ultima_rilevazione": "07/05/2022 21:50:07"}], "3": [], "5": [{"Gestore": "SUPERSERVICE SNC DEI F.LLI CANTARELLI", "Bandiera": "Agip Eni", "Tipo impianto": "Autostradale", "Indirizzo": "Autostrada A4 MILANO-BRESCIA, Km. 24, dir. BERGAMO", "Nome impianto": "BRIANZA SUD", "Comune": "CAPONAGO", "idImpianto": 24292, "points": [{"type": "Feature", "properties": {}, "geometry": {"type": "Point", "coordinates": [9.394437074661257, 45.574416646651166]}}], "price": 2.253, "ultima_rilevazione": "09/05/2022 08:16:39"}, {"Gestore": "AUTOSERVICE DI GIOVANNI D'ALOIA S.A.S.", "Bandiera": "Tamoil", "Tipo impianto": "Altro", "Indirizzo": "S.P. 60 KM 0+700 SNC 20049", "Nome impianto": "TAMOIL 7463  LATO SUD/EST", "Comune": "CONCOREZZO", "idImpianto": 28937, "points": [{"type": "Feature", "properties": {}, "geometry": {"type": "Point", "coordinates": [9.32416319847107, 45.60408154984006]}}], "price": 1.819, "ultima_rilevazione": "10/05/2022 08:00:09"}, {"Gestore": "SERVIZI & GESTIONI ITALIA S.R.L.", "Bandiera": "Q8", "Tipo impianto": "Altro", "Indirizzo": "VIA ENRICO FERMI S/N 20052", "Nome impianto": "MONZA-VIA ENRICO FERMI", "Comune": "MONZA", "idImpianto": 11644, "points": [{"type": "Feature", "properties": {}, "geometry": {"type": "Point", "coordinates": [9.28129119510652, 45.565656333778335]}}], "price": 1.799, "ultima_rilevazione": "11/05/2022 07:09:08"}]}, "GPL": {"1": [{"Gestore": "R.A.M.M. DI CREMONESI MARIO VITTORIO", "Bandiera": "Pompe Bianche", "Tipo impianto": "Altro", "Indirizzo": "VIA DEI MILLE 151 20861", "Nome impianto": "PETROL OUTLET", "Comune": "BRUGHERIO", "idImpianto": 38614, "points": [{"type": "Feature", "properties": {}, "geometry": {"type": "Point", "coordinates": [9.322085827589037, 45.548317481746224]}}], "price": 0.844, "ultima_rilevazione": "07/05/2022 21:50:07"}], "3": [{"Gestore": "FERRO MAURO", "Bandiera": "Agip Eni", "Tipo impianto": "Strada Statale", "Indirizzo": "Strada Statale, Km. 1+280, melzo 20867", "Nome impianto": "stazione eni ferro mauro", "Comune": "CAPONAGO", "idImpianto": 45069, "points": [{"type": "Feature", "properties": {}, "geometry": {"type": "Point", "coordinates": [9.376779000123, 45.560100000123]}}], "price": 0.89, "ultima_rilevazione": "05/05/2022 10:39:31"}, {"Gestore": "FULLPOINT SOCIETA' A RESPONSABILITA' LIMITATA SEMPLIFICATA", "Bandiera": "Q8", "Tipo impianto": "Altro", "Indirizzo": "STRADA PROVINCIALE 120 KM. 5,400 00 20063", "Nome impianto": "fullpoint srls", "Comune": "CERNUSCO SUL NAVIGLIO", "idImpianto": 44576, "points": [{"type": "Feature", "properties": {}, "geometry": {"type": "Point", "coordinates": [9.30619758371904, 45.5262772387745]}}], "price": 0.869, "ultima_rilevazione": "06/05/2022 12:27:55"}, {"Gestore": "PACEKO S.R.L.", "Bandiera": "Pompe Bianche", "Tipo impianto": "Altro", "Indirizzo": "Via delle industrie  16 20864", "Nome impianto": "EKOPOINT", "Comune": "AGRATE BRIANZA", "idImpianto": 44517, "points": [{"type": "Feature", "properties": {}, "geometry": {"type": "Point", "coordinates": [9.35416730855468, 45.56791207197751]}}], "price": 0.799, "ultima_rilevazione": "09/05/2022 08:29:44"}, {"Gestore": "ROMI S.A.S. DI SCIARROTTA ROMINA E C.", "Bandiera": "Api-Ip", "Tipo impianto": "Altro", "Indirizzo": "S.P . Monza-Melzo Km 3  20864", "Nome impianto": "ITALIANA PETROLI", "Comune": "AGRATE BRIANZA", "idImpianto": 28307, "points": [{"type": "Feature", "properties": {}, "geometry": {"type": "Point", "coordinates": [9.33866322040558, 45.575763923593925]}}], "price": 0.855, "ultima_rilevazione": "09/05/2022 18:55:13"}, {"Gestore": "NUOVA SIDAP  S.R.L.", "Bandiera": "Esso", "Tipo impianto": "Altro", "Indirizzo": "VIA DELLE INDUSTRIE SNC 20900", "Nome impianto": "Monza", "Comune": "MONZA", "idImpianto": 4658, "points": [{"type": "Feature", "properties": {}, "geometry": {"type": "Point", "coordinates": [9.294119775295258, 45.569851510563616]}}], "price": 0.892, "ultima_rilevazione": "10/05/2022 06:09:44"}, {"Gestore": "NUOVA SIDAP  S.R.L.", "Bandiera": "Api-Ip", "Tipo impianto": "Autostradale", "Indirizzo": "A51 TANG.LE EST DI MILANO, Km. 15+200, Nord 20093", "Nome impianto": "COLOGNO M. EST", "Comune": "COLOGNO MONZESE", "idImpianto": 48196, "points": [{"type": "Feature", "properties": {}, "geometry": {"type": "Point", "coordinates": [9.299550652503962, 45.5372445308776]}}], "price": 0.869, "ultima_rilevazione": "10/05/2022 14:21:14"}], "5": [{"Gestore": "3 C S.R.L.", "Bandiera": "Agip Eni", "Tipo impianto": "Autostradale", "Indirizzo": "Autostrada A4 MILANO-BRESCIA, Km. 148+470, dir. Ovest 20864", "Nome impianto": "BRIANZA NORD", "Comune": "CAPONAGO", "idImpianto": 3630, "points": [{"type": "Feature", "properties": {}, "geometry": {"type": "Point", "coordinates": [9.39446, 45.5753]}}], "price": 0.877, "ultima_rilevazione": "03/05/2022 08:28:27"}, {"Gestore": "DI DIO CALDERONE CONCETTA", "Bandiera": "Api-Ip", "Tipo impianto": "Altro", "Indirizzo": "via lecco km 1,5  20864", "Nome impianto": "IP", "Comune": "AGRATE BRIANZA", "idImpianto": 4730, "points": [{"type": "Feature", "properties": {}, "geometry": {"type": "Point", "coordinates": [9.357761000123, 45.585854000123]}}], "price": 0.885, "ultima_rilevazione": "10/05/2022 22:59:57"}, {"Gestore": "EASYSERVICE DI DELLOLIO MARIA", "Bandiera": "Pompe Bianche", "Tipo impianto": "Altro", "Indirizzo": "Via Monterosa SNC 20863", "Nome impianto": "Petrol Outlet", "Comune": "CONCOREZZO", "idImpianto": 41835, "points": [{"type": "Feature", "properties": {}, "geometry": {"type": "Point", "coordinates": [9.321381747722626, 45.59667035972453]}}], "price": 0.854, "ultima_rilevazione": "04/05/2022 10:05:01"}, {"Gestore": "MILANO SERVICE S.N.C. DI MILICI DAVIDE & IEVA VINCENZO", "Bandiera": "Repsol", "Tipo impianto": "Altro", "Indirizzo": "S.P. 2 KM 3    20863", "Nome impianto": "REPSOL ", "Comune": "CONCOREZZO", "idImpianto": 46585, "points": [{"type": "Feature", "properties": {}, "geometry": {"type": "Point", "coordinates": [9.3511094823632, 45.59862339923655]}}], "price": 0.859, "ultima_rilevazione": "06/05/2022 15:32:35"}, {"Gestore": "SUPERSERVICE SNC DEI F.LLI CANTARELLI", "Bandiera": "Agip Eni", "Tipo impianto": "Autostradale", "Indirizzo": "Autostrada A4 MILANO-BRESCIA, Km. 24, dir. BERGAMO", "Nome impianto": "BRIANZA SUD", "Comune": "CAPONAGO", "idImpianto": 24292, "points": [{"type": "Feature", "properties": {}, "geometry": {"type": "Point", "coordinates": [9.394437074661257, 45.574416646651166]}}], "price": 0.892, "ultima_rilevazione": "09/05/2022 08:16:39"}, {"Gestore": "U.M.A. S.A.S. DI MARCO CELARI E C.", "Bandiera": "Esso", "Tipo impianto": "Altro", "Indirizzo": "via antica cassanese km 8,5  20060", "Nome impianto": "esso", "Comune": "CASSINA DE' PECCHI", "idImpianto": 33725, "points": [{"type": "Feature", "properties": {}, "geometry": {"type": "Point", "coordinates": [9.35478463768959, 45.50391517393423]}}], "price": 0.869, "ultima_rilevazione": "10/05/2022 08:42:28"}, {"Gestore": "CHIAPPINELLI NICOLA", "Bandiera": "Api-Ip", "Tipo impianto": "Altro", "Indirizzo": "S.P.13 km12+120  ", "Nome impianto": "API-IP ", "Comune": "GORGONZOLA", "idImpianto": 25397, "points": [{"type": "Feature", "properties": {}, "geometry": {"type": "Point", "coordinates": [9.402837753295898, 45.5191846639186]}}], "price": 0.889, "ultima_rilevazione": "10/05/2022 16:12:29"}]}, "Blue Diesel": {"1": [{"Gestore": "IEVA MICHELE", "Bandiera": "Agip Eni", "Tipo impianto": "Altro", "Indirizzo": "VIA SP 121 POBBIANO/CAVENAGO  20061", "Nome impianto": "stazione di servizio Agip di Ieva michele", "Comune": "CARUGATE", "idImpianto": 7530, "points": [{"type": "Feature", "properties": {}, "geometry": {"type": "Point", "coordinates": [9.333864748477936, 45.55165355778144]}}], "price": 1.979, "ultima_rilevazione": "03/05/2022 09:23:39"}], "3": [{"Gestore": "FERRO MAURO", "Bandiera": "Agip Eni", "Tipo impianto": "Strada Statale", "Indirizzo": "Strada Statale, Km. 1+280, melzo 20867", "Nome impianto": "stazione eni ferro mauro", "Comune": "CAPONAGO", "idImpianto": 45069, "points": [{"type": "Feature", "properties": {}, "geometry": {"type": "Point", "coordinates": [9.376779000123, 45.560100000123]}}], "price": 1.984, "ultima_rilevazione": "05/05/2022 10:39:31"}, {"Gestore": "AUTOMARKET DI FUMAGALLI & BRAMBILLA S.N.C.", "Bandiera": "Agip Eni", "Tipo impianto": "Altro", "Indirizzo": "VIA PROVINCIALE 15 20060", "Nome impianto": "ENI AUTOMARKET SNC", "Comune": "PESSANO CON BORNAGO", "idImpianto": 14598, "points": [{"type": "Feature", "properties": {}, "geometry": {"type": "Point", "coordinates": [9.38745020163242, 45.55289646788714]}}], "price": 1.984, "ultima_rilevazione": "05/05/2022 17:40:05"}, {"Gestore": "ZACCHI RENATO", "Bandiera": "Agip Eni", "Tipo impianto": "Altro", "Indirizzo": "VIALE EUROPA 13 BIS 20060", "Nome impianto": "ENI BUSSERO", "Comune": "BUSSERO", "idImpianto": 41033, "points": [{"type": "Feature", "properties": {}, "geometry": {"type": "Point", "coordinates": [9.374386614749938, 45.530786489777256]}}], "price": 1.984, "ultima_rilevazione": "05/05/2022 19:12:33"}, {"Gestore": "ENI FUEL S.P.A.", "Bandiera": "Agip Eni", "Tipo impianto": "Altro", "Indirizzo": "Via Matteotti 133 20041", "Nome impianto": "PV 02151 Agrate Brianza", "Comune": "AGRATE BRIANZA", "idImpianto": 47365, "points": [{"type": "Feature", "properties": {}, "geometry": {"type": "Point", "coordinates": [9.356548000123, 45.572168000123]}}], "price": 1.989, "ultima_rilevazione": "11/05/2022 07:54:03"}, {"Gestore": "FERRO MAURO", "Bandiera": "Agip Eni", "Tipo impianto": "Strada Statale", "Indirizzo": "Strada Statale, Km. 1+280, melzo 20867", "Nome impianto": "stazione eni ferro mauro", "Comune": "CAPONAGO", "idImpianto": 45069, "points": [{"type": "Feature", "properties": {}, "geometry": {"type": "Point", "coordinates": [9.376779000123, 45.560100000123]}}], "price": 1.984, "ultima_rilevazione": "05/05/2022 10:39:31"}, {"Gestore": "AUTOMARKET DI FUMAGALLI & BRAMBILLA S.N.C.", "Bandiera": "Agip Eni", "Tipo impianto": "Altro", "Indirizzo": "VIA PROVINCIALE 15 20060", "Nome impianto": "ENI AUTOMARKET SNC", "Comune": "PESSANO CON BORNAGO", "idImpianto": 14598, "points": [{"type": "Feature", "properties": {}, "geometry": {"type": "Point", "coordinates": [9.38745020163242, 45.55289646788714]}}], "price": 1.984, "ultima_rilevazione": "05/05/2022 17:40:05"}, {"Gestore": "ZACCHI RENATO", "Bandiera": "Agip Eni", "Tipo impianto": "Altro", "Indirizzo": "VIALE EUROPA 13 BIS 20060", "Nome impianto": "ENI BUSSERO", "Comune": "BUSSERO", "idImpianto": 41033, "points": [{"type": "Feature", "properties": {}, "geometry": {"type": "Point", "coordinates": [9.374386614749938, 45.530786489777256]}}], "price": 1.984, "ultima_rilevazione": "05/05/2022 19:12:33"}, {"Gestore": "AG SAS DI ABBATTISTA GIOVANNI", "Bandiera": "Agip Eni", "Tipo impianto": "Strada Statale", "Indirizzo": "Statale 11 Padana Superiore, Km. 158+082, dir. SUD 20060", "Nome impianto": "STAZIONE SERVIZIO ENI", "Comune": "CASSINA DE' PECCHI", "idImpianto": 6164, "points": [{"type": "Feature", "properties": {}, "geometry": {"type": "Point", "coordinates": [9.357555359601974, 45.51818409200797]}}], "price": 1.974, "ultima_rilevazione": "11/05/2022 07:47:07"}, {"Gestore": "ENI FUEL S.P.A.", "Bandiera": "Agip Eni", "Tipo impianto": "Altro", "Indirizzo": "Via Matteotti 133 20041", "Nome impianto": "PV 02151 Agrate Brianza", "Comune": "AGRATE BRIANZA", "idImpianto": 47365, "points": [{"type": "Feature", "properties": {}, "geometry": {"type": "Point", "coordinates": [9.356548000123, 45.572168000123]}}], "price": 1.919, "ultima_rilevazione": "11/05/2022 07:54:03"}], "5": [{"Gestore": "SCARFONE SANTO", "Bandiera": "Agip Eni", "Tipo impianto": "Altro", "Indirizzo": "c.so roma 107 20093", "Nome impianto": "eni scarfone santo", "Comune": "COLOGNO MONZESE", "idImpianto": 11439, "points": [{"type": "Feature", "properties": {}, "geometry": {"type": "Point", "coordinates": [9.28293228149414, 45.53437861561028]}}], "price": 2.359, "ultima_rilevazione": "09/05/2022 10:42:33"}, {"Gestore": "3 C S.R.L.", "Bandiera": "Agip Eni", "Tipo impianto": "Autostradale", "Indirizzo": "Autostrada A4 MILANO-BRESCIA, Km. 148+470, dir. Ovest 20864", "Nome impianto": "BRIANZA NORD", "Comune": "CAPONAGO", "idImpianto": 3630, "points": [{"type": "Feature", "properties": {}, "geometry": {"type": "Point", "coordinates": [9.39446, 45.5753]}}], "price": 2.004, "ultima_rilevazione": "03/05/2022 08:28:27"}, {"Gestore": "FERRARI & MARIANI S.N.C. DI FERRARI STEFANO & C.", "Bandiera": "Agip Eni", "Tipo impianto": "Altro", "Indirizzo": "VIALE SICILIA 40 20900", "Nome impianto": "ferrari & mariani snc", "Comune": "MONZA", "idImpianto": 11978, "points": [{"type": "Feature", "properties": {}, "geometry": {"type": "Point", "coordinates": [9.302946925163267, 45.58137197335687]}}], "price": 1.984, "ultima_rilevazione": "09/05/2022 07:44:55"}, {"Gestore": "SUPERSERVICE SNC DEI F.LLI CANTARELLI", "Bandiera": "Agip Eni", "Tipo impianto": "Autostradale", "Indirizzo": "Autostrada A4 MILANO-BRESCIA, Km. 24, dir. BERGAMO", "Nome impianto": "BRIANZA SUD", "Comune": "CAPONAGO", "idImpianto": 24292, "points": [{"type": "Feature", "properties": {}, "geometry": {"type": "Point", "coordinates": [9.394437074661257, 45.574416646651166]}}], "price": 2.074, "ultima_rilevazione": "09/05/2022 08:16:39"}, {"Gestore": "DUELLE S.N.C. DI MARCO E SIMONE LEVATI", "Bandiera": "Agip Eni", "Tipo impianto": "Altro", "Indirizzo": "VIA TORINO S.P.121 KM. 2+400  20063", "Nome impianto": "DUELLE SNC DI SIMONE E MARCO LEVATI", "Comune": "CERNUSCO SUL NAVIGLIO", "idImpianto": 11293, "points": [{"type": "Feature", "properties": {}, "geometry": {"type": "Point", "coordinates": [9.338799389162205, 45.504134696116026]}}], "price": 1.989, "ultima_rilevazione": "09/05/2022 09:28:51"}, {"Gestore": "STRIPPOLI ALFIO", "Bandiera": "Agip Eni", "Tipo impianto": "Altro", "Indirizzo": "VIALE LIBERTA' 88 20900", "Nome impianto": "Strippoli Alfio", "Comune": "MONZA", "idImpianto": 14409, "points": [{"type": "Feature", "properties": {}, "geometry": {"type": "Point", "coordinates": [9.295753240585327, 45.58941435702956]}}], "price": 1.759, "ultima_rilevazione": "04/11/2021 22:15:50"}, {"Gestore": "SCARFONE SANTO", "Bandiera": "Agip Eni", "Tipo impianto": "Altro", "Indirizzo": "c.so roma 107 20093", "Nome impianto": "eni scarfone santo", "Comune": "COLOGNO MONZESE", "idImpianto": 11439, "points": [{"type": "Feature", "properties": {}, "geometry": {"type": "Point", "coordinates": [9.28293228149414, 45.53437861561028]}}], "price": 2.339, "ultima_rilevazione": "09/05/2022 10:42:33"}, {"Gestore": "3 C S.R.L.", "Bandiera": "Agip Eni", "Tipo impianto": "Autostradale", "Indirizzo": "Autostrada A4 MILANO-BRESCIA, Km. 148+470, dir. Ovest 20864", "Nome impianto": "BRIANZA NORD", "Comune": "CAPONAGO", "idImpianto": 3630, "points": [{"type": "Feature", "properties": {}, "geometry": {"type": "Point", "coordinates": [9.39446, 45.5753]}}], "price": 1.952, "ultima_rilevazione": "03/05/2022 08:28:27"}, {"Gestore": "G.F. DI SAITTA GIUSEPPE & C. S.A.S.", "Bandiera": "Agip Eni", "Tipo impianto": "Altro", "Indirizzo": "VIA TRENTO 66 20871", "Nome impianto": "G.F. DI SAITTA GIUSEPPE & C. S.A.S.", "Comune": "VIMERCATE", "idImpianto": 50778, "points": [{"type": "Feature", "properties": {}, "geometry": {"type": "Point", "coordinates": [9.35947337933444, 45.59093401235108]}}], "price": 1.984, "ultima_rilevazione": "05/05/2022 07:51:58"}, {"Gestore": "PNEUSCARS 2 S.A.S. DI TERRANE FABIO & C.", "Bandiera": "Agip Eni", "Tipo impianto": "Altro", "Indirizzo": "VIA MILANO 9 20096", "Nome impianto": "Eni", "Comune": "PIOLTELLO", "idImpianto": 12081, "points": [{"type": "Feature", "properties": {}, "geometry": {"type": "Point", "coordinates": [9.331360636840031, 45.50138514073774]}}], "price": 1.989, "ultima_rilevazione": "05/05/2022 10:52:55"}, {"Gestore": "FERRARI & MARIANI S.N.C. DI FERRARI STEFANO & C.", "Bandiera": "Agip Eni", "Tipo impianto": "Altro", "Indirizzo": "VIALE SICILIA 40 20900", "Nome impianto": "ferrari & mariani snc", "Comune": "MONZA", "idImpianto": 11978, "points": [{"type": "Feature", "properties": {}, "geometry": {"type": "Point", "coordinates": [9.302946925163267, 45.58137197335687]}}], "price": 1.984, "ultima_rilevazione": "09/05/2022 07:44:55"}, {"Gestore": "SUPERSERVICE SNC DEI F.LLI CANTARELLI", "Bandiera": "Agip Eni", "Tipo impianto": "Autostradale", "Indirizzo": "Autostrada A4 MILANO-BRESCIA, Km. 24, dir. BERGAMO", "Nome impianto": "BRIANZA SUD", "Comune": "CAPONAGO", "idImpianto": 24292, "points": [{"type": "Feature", "properties": {}, "geometry": {"type": "Point", "coordinates": [9.394437074661257, 45.574416646651166]}}], "price": 2.074, "ultima_rilevazione": "09/05/2022 08:16:39"}, {"Gestore": "DUELLE S.N.C. DI MARCO E SIMONE LEVATI", "Bandiera": "Agip Eni", "Tipo impianto": "Altro", "Indirizzo": "VIA TORINO S.P.121 KM. 2+400  20063", "Nome impianto": "DUELLE SNC DI SIMONE E MARCO LEVATI", "Comune": "CERNUSCO SUL NAVIGLIO", "idImpianto": 11293, "points": [{"type": "Feature", "properties": {}, "geometry": {"type": "Point", "coordinates": [9.338799389162205, 45.504134696116026]}}], "price": 1.989, "ultima_rilevazione": "09/05/2022 09:28:51"}, {"Gestore": "BIFFI THOMAS", "Bandiera": "Agip Eni", "Tipo impianto": "Altro", "Indirizzo": "STRADA PROVINCIALE 2 MONZA-TREZZO KM.1+400  20863", "Nome impianto": "BIFFI THOMAS - AGIP", "Comune": "CONCOREZZO", "idImpianto": 14347, "points": [{"type": "Feature", "properties": {}, "geometry": {"type": "Point", "coordinates": [9.323086957167106, 45.59119325497423]}}], "price": 1.984, "ultima_rilevazione": "11/05/2022 07:44:08"}]}, "Diesel High Quality": {"1": [{"Gestore": "SERVIZI & GESTIONI ITALIA S.R.L.", "Bandiera": "Q8", "Tipo impianto": "Altro", "Indirizzo": "S.P. 121 - KM. 8+070  20063", "Nome impianto": "CERNUSCO SUL NAVIGLIO - S.P. 121 - KM. 8+070", "Comune": "CERNUSCO SUL NAVIGLIO", "idImpianto": 30796, "points": [{"type": "Feature", "properties": {}, "geometry": {"type": "Point", "coordinates": [9.336739286508193, 45.5403700891952]}}], "price": 2.149, "ultima_rilevazione": "06/05/2022 07:07:16"}, {"Gestore": "SERVIZI & GESTIONI ITALIA S.R.L.", "Bandiera": "Q8", "Tipo impianto": "Altro", "Indirizzo": "S.P. 121 - KM. 8+070  20063", "Nome impianto": "CERNUSCO SUL NAVIGLIO - S.P. 121 - KM. 8+070", "Comune": "CERNUSCO SUL NAVIGLIO", "idImpianto": 30796, "points": [{"type": "Feature", "properties": {}, "geometry": {"type": "Point", "coordinates": [9.336739286508193, 45.5403700891952]}}], "price": 2.119, "ultima_rilevazione": "06/05/2022 07:07:16"}], "3": [{"Gestore": "SERVIZI & GESTIONI ITALIA S.R.L.", "Bandiera": "Q8", "Tipo impianto": "Altro", "Indirizzo": "FZ.S.ALBINO VIA ADDA 71 20052", "Nome impianto": "MONZA-FZ.S.ALBINO VIA ADDA 71", "Comune": "MONZA", "idImpianto": 11638, "points": [{"type": "Feature", "properties": {}, "geometry": {"type": "Point", "coordinates": [9.314026822090112, 45.57211126545646]}}], "price": 2.149, "ultima_rilevazione": "06/05/2022 07:07:08"}, {"Gestore": "FULLPOINT SOCIETA' A RESPONSABILITA' LIMITATA SEMPLIFICATA", "Bandiera": "Q8", "Tipo impianto": "Altro", "Indirizzo": "STRADA PROVINCIALE 120 KM. 5,400 00 20063", "Nome impianto": "fullpoint srls", "Comune": "CERNUSCO SUL NAVIGLIO", "idImpianto": 44576, "points": [{"type": "Feature", "properties": {}, "geometry": {"type": "Point", "coordinates": [9.30619758371904, 45.5262772387745]}}], "price": 2.089, "ultima_rilevazione": "06/05/2022 12:27:55"}, {"Gestore": "FRATELLI PULEO S.N.C. DI PULEO PIETRO E PAOLO", "Bandiera": "Q8", "Tipo impianto": "Altro", "Indirizzo": "VIA STUCCHI 47 20900", "Nome impianto": "STAZ. SERV. Q8 F.LLI PULEO SNC", "Comune": "MONZA", "idImpianto": 14453, "points": [{"type": "Feature", "properties": {}, "geometry": {"type": "Point", "coordinates": [9.308756589889526, 45.57804836296814]}}], "price": 2.299, "ultima_rilevazione": "07/05/2022 06:44:22"}, {"Gestore": "SERVIZI & GESTIONI ITALIA S.R.L.", "Bandiera": "Q8", "Tipo impianto": "Altro", "Indirizzo": "PIAZZA CASTELLO 43 20060", "Nome impianto": "PESSANO CON BORNAGO-PIAZZA CASTELLO 43", "Comune": "PESSANO CON BORNAGO", "idImpianto": 11654, "points": [{"type": "Feature", "properties": {}, "geometry": {"type": "Point", "coordinates": [9.383887171793049, 45.55137231340641]}}], "price": 2.169, "ultima_rilevazione": "09/05/2022 00:31:31"}, {"Gestore": "SERVIZI & GESTIONI ITALIA S.R.L.", "Bandiera": "Q8", "Tipo impianto": "Altro", "Indirizzo": "S.P 242 KM 4+578 S/N  20060", "Nome impianto": "PESSANO CON BORNAGO -S.P 242 KM 4+578", "Comune": "PESSANO CON BORNAGO", "idImpianto": 11711, "points": [{"type": "Feature", "properties": {}, "geometry": {"type": "Point", "coordinates": [9.389155568122874, 45.549163863694574]}}], "price": 2.189, "ultima_rilevazione": "09/05/2022 00:31:31"}, {"Gestore": "SERVIZI & GESTIONI ITALIA S.R.L.", "Bandiera": "Q8", "Tipo impianto": "Altro", "Indirizzo": "FZ.S.ALBINO VIA ADDA 71 20052", "Nome impianto": "MONZA-FZ.S.ALBINO VIA ADDA 71", "Comune": "MONZA", "idImpianto": 11638, "points": [{"type": "Feature", "properties": {}, "geometry": {"type": "Point", "coordinates": [9.314026822090112, 45.57211126545646]}}], "price": 2.129, "ultima_rilevazione": "06/05/2022 07:07:08"}, {"Gestore": "SERVIZI & GESTIONI ITALIA S.R.L.", "Bandiera": "Q8", "Tipo impianto": "Altro", "Indirizzo": "PIAZZA CASTELLO 43 20060", "Nome impianto": "PESSANO CON BORNAGO-PIAZZA CASTELLO 43", "Comune": "PESSANO CON BORNAGO", "idImpianto": 11654, "points": [{"type": "Feature", "properties": {}, "geometry": {"type": "Point", "coordinates": [9.383887171793049, 45.55137231340641]}}], "price": 2.129, "ultima_rilevazione": "09/05/2022 00:31:31"}, {"Gestore": "SERVIZI & GESTIONI ITALIA S.R.L.", "Bandiera": "Q8", "Tipo impianto": "Altro", "Indirizzo": "S.P 242 KM 4+578 S/N  20060", "Nome impianto": "PESSANO CON BORNAGO -S.P 242 KM 4+578", "Comune": "PESSANO CON BORNAGO", "idImpianto": 11711, "points": [{"type": "Feature", "properties": {}, "geometry": {"type": "Point", "coordinates": [9.389155568122874, 45.549163863694574]}}], "price": 2.139, "ultima_rilevazione": "09/05/2022 00:31:31"},