{"area_comune": "[{\"type\": \"Feature\", \"properties\": {}, \"geometry\": {\"type\": \"Polygon\", \"coordinates\": [[[14.301316612609549, 41.095655675428425], [14.309170412330062, 41.096053744732174], [14.320326198691497, 41.08347401437138], [14.320920488919045, 41.081503152384045], [14.321045851301122, 41.07611696260606], [14.3159781410203, 41.06655655873645], [14.313243028579608, 41.06401825679339], [14.311169878031595, 41.06309687822974], [14.29924168125377, 41.06907749998532], [14.299562349789452, 41.075763958350834], [14.299526586737372, 41.07914165694302], [14.298796221636561, 41.085180180298835], [14.296378826766206, 41.08529164153827], [14.295843106022657, 41.08746799592921], [14.296205180670835, 41.08810401803963], [14.298077654390209, 41.08997578960554], [14.294232881564833, 41.09216967852346], [14.292426064554629, 41.09293259157556], [14.289223686658035, 41.09517322194801], [14.28724765090129, 41.09950448176862], [14.28739679091305, 41.1011091111541], [14.290541870406914, 41.105389208529196], [14.291471182655199, 41.10759224928306], [14.293455150329256, 41.10690251271277], [14.294131371609652, 41.10602508075596], [14.294705281753714, 41.1048012713954], [14.296212486996366, 41.09961372015445], [14.301316612609549, 41.095655675428425]]]}}]", "comune": "casagiove", "buffer_1": "[{\"type\": \"Feature\", \"properties\": {}, \"geometry\": {\"type\": \"Polygon\", \"coordinates\": [[[14.310412081460338, 41.10160435057854], [14.32800376615167, 41.09033002303591], [14.328867158000044, 41.08971809339227], [14.329645785390326, 41.08904421087898], [14.330331924077115, 41.088315063272226], [14.330918768367042, 41.087537886529475], [14.331400498565722, 41.08672039293321], [14.331772338608939, 41.085870694516615], [14.33203060331062, 41.08499722253342], [14.332172734764274, 41.08410864377265], [14.332197327543213, 41.08321377454982], [14.332104142456513, 41.08232149322872], [14.331894108731804, 41.08144065214208], [14.331569314610604, 41.0805799897844], [14.322410099547895, 41.06020393279685], [14.321990842564379, 41.059399968540795], [14.321471490546674, 41.058630208945836], [14.320856850669731, 41.05790177418238], [14.320152610940704, 41.057221401978914], [14.319365287519549, 41.05659538534433], [14.318502164407422, 41.056029514407136], [14.317571226061803, 41.05552902290662], [14.316581083561609, 41.05509853982945], [14.315540895004046, 41.05474204663672], [14.314460280867346, 41.05446284047509], [14.31334923511896, 41.05426350371106], [14.3122180328875, 41.054145880068376], [14.311077135547617, 41.0541110575885], [14.309937094090486, 41.05415935857123], [14.308808451668192, 41.054290336588004], [14.307701646207676, 41.0545027805958], [14.3066269139895, 41.0547947261144], [14.305594195078045, 41.0551634733643], [14.304613041473127, 41.05560561219887], [14.292685464036197, 41.06158551025113], [14.29169061659846, 41.062142736415076], [14.290777796123812, 41.06277531513707], [14.289956921681684, 41.06347637461822], [14.289236914356065, 41.064238298841154], [14.288625600257692, 41.065052810242015], [14.288129625387366, 41.06591105957807], [14.287754383279502, 41.06680372201815], [14.287503956218217, 41.06772109841437], [14.27972656125461, 41.106235462350625], [14.27960752112829, 41.107108323331566], [14.279601601192772, 41.10798580444492], [14.27970886242526, 41.10885953859137], [14.279928286465841, 41.10972119407325], [14.280257785160815, 41.110562554060074], [14.280694220318427, 41.11137559497008], [14.281233433494615, 41.112152563019585], [14.281870285529937, 41.11288604820842], [14.28259870546508, 41.11356905503389], [14.283411748371828, 41.11419506925696], [14.284301661550206, 41.11475812008145], [14.285259958461532, 41.11525283715094], [14.286277499691968, 41.11567450181749], [14.287344580172986, 41.1160190921908], [14.288451021824175, 41.11628332153628], [14.289586270731077, 41.11646466965399], [14.290739497926552, 41.11656140693761], [14.291899702808998, 41.11657261088312], [14.293055818205179, 41.116498174889045], [14.29419681606924, 41.11633880926419], [14.295311812803602, 41.1160960344336], [14.296390173190993, 41.115772166408384], [14.297421611940763, 41.115370294659094], [14.29839629187585, 41.1148942526054], [14.299304917819837, 41.11434858100539], [14.300138825285462, 41.113738484595736], [14.300890063116722, 41.113069782398725], [14.301551469295573, 41.11234885217242], [14.310412081460338, 41.10160435057854]]]}}]", "buffer_3": "[{\"type\": \"Feature\", \"properties\": {}, \"geometry\": {\"type\": \"Polygon\", \"coordinates\": [[[14.328607910379263, 41.113499225816106], [14.343363778662164, 41.10404019141506], [14.34595393949789, 41.102204034498875], [14.348289614355586, 41.1001820332384], [14.350347638743166, 41.097994264977025], [14.352107611127847, 41.09566245047822], [14.35355209465791, 41.093209737845584], [14.354666789172319, 41.090660472354614], [14.355440671831321, 41.08803995449943], [14.355866105022551, 41.085374188671196], [14.355938910530064, 41.08268962497365], [14.35565840929421, 41.080012896744094], [14.355027426435175, 41.077370556386064], [14.354052261558152, 41.07478881213137], [14.344887262209415, 41.054414915201434], [14.343628859264893, 41.052003304467206], [14.342070315701333, 41.04969434419064], [14.340226071004787, 41.04750938312389], [14.33811320116069, 41.045468621784764], [14.335751260177014, 41.04359092609183], [14.3331620989482, 41.04189365336471], [14.330369663143827, 41.040392492279715], [14.327399771989898, 41.03910131824139], [14.324279879977471, 41.03803206548886], [14.321038823681688, 41.03719461710297], [14.317706556003216, 41.03659671391609], [14.314313870252917, 41.03624388315493], [14.310892116588187, 41.0361393874669], [14.3074729133756, 41.03628419479573], [14.304087856098525, 41.03667696938279], [14.300768226450243, 41.03731408397908], [14.297544704252148, 41.03818965316019], [14.294447084813592, 41.03929558744493], [14.291504004303949, 41.04062166772931], [14.279577666158024, 41.04660011917973], [14.276593343116128, 41.04827141519028], [14.27385489060906, 41.050168766175965], [14.27139206542699, 41.05227157341901], [14.269231639530235, 41.05455700494424], [14.26739710871244, 41.057000242839294], [14.265908436438162, 41.0595747522176], [14.26478183567461, 41.062252568932614], [14.264029591141401, 41.06500460294424], [14.25623840722504, 41.103518191498225], [14.255880339093537, 41.106136757183585], [14.25586162603095, 41.10876925385704], [14.256182487240947, 41.111390578203874], [14.256839902756816, 41.11397573050475], [14.257827640734224, 41.11650005320644], [14.259136315475438, 41.11893946633462], [14.260753475685034, 41.12127069749195], [14.262663722162907, 41.1234715042342], [14.26484885385183, 41.125520886685656], [14.26728804087724, 41.12739928834645], [14.269958022948826, 41.129088783155304], [14.272833331240587, 41.13057324700147], [14.275886531630421, 41.131838512028175], [14.279088486965094, 41.13287250223492], [14.282408635824158, 41.13366534906601], [14.285815285089011, 41.1342094858664], [14.289275913482983, 41.13449972029009], [14.292757483136924, 41.13453328396118], [14.296226756153144, 41.13430985890787], [14.299650613090174, 41.13383158051585], [14.302996370271979, 41.13310301697632], [14.30623209283815, 41.132131125431385], [14.309326900496348, 41.13092518524672], [14.312251263013735, 41.12949670906246], [14.314977282590059, 41.12785933248862], [14.317478960389375, 41.12602868351693], [14.319732444669201, 41.12402223291621], [14.321716258132575, 41.12185912706043], [14.328607910379263, 41.113499225816106]]]}}]", "buffer_5": "[{\"type\": \"Feature\", \"properties\": {}, \"geometry\": {\"type\": \"Polygon\", \"coordinates\": [[[14.346810263439686, 41.125390798059286], [14.358730298700547, 41.11774789211663], [14.363047207931867, 41.114687016989016], [14.366939652585748, 41.11131642520363], [14.37036903902685, 41.10766960238307], [14.373301390738629, 41.1037827712961], [14.37570768348297, 41.09969453087219], [14.377564130498332, 41.09544547184515], [14.378852415017876, 41.09107777289472], [14.379559867940175, 41.08663478133699], [14.379679589051674, 41.08216058255708], [14.379210510776296, 41.07769956247435], [14.378157404006707, 41.07329596738622], [14.376530826147848, 41.068993465548], [14.367360048540188, 41.0486217310059], [14.365261658272477, 41.04460285023194], [14.362663274545028, 41.04075511418347], [14.359588992987842, 41.037114084508055], [14.356067293402466, 41.03371340762879], [14.352130774912407, 41.03058450491447], [14.347815853742734, 41.0277562834844], [14.34316242644691, 41.025254870267645], [14.338213501690314, 41.023103371722335], [14.333014803963586, 41.02132166138519], [14.3276143528319, 41.0199261971682], [14.322062021528781, 41.01892987005063], [14.316409078873022, 41.018341885531036], [14.310707718624514, 41.01816767891042], [14.30501058049819, 41.01840886517348], [14.299370267124806, 41.01906322392606], [14.29383886128209, 41.02012471953248], [14.28846744771996, 41.02158355628137], [14.283305643868868, 41.023426268094155], [14.278401143650868, 41.025635841980126], [14.266476045605929, 41.03161284790168], [14.261502539896563, 41.03439770421144], [14.256938468226432, 41.03755931420739], [14.252833424453922, 41.04106337444745], [14.249232042901703, 41.04487185840439], [14.24617351218508, 41.04894342750943], [14.243691147034685, 41.0532338783585], [14.241812022865329, 41.05769662130807], [14.240556677208158, 41.06228318533507], [14.23275170938505, 41.100795992296185], [14.23215334994791, 41.105160238948315], [14.232120572705119, 41.109547821542535], [14.232653803453292, 41.113916897909604], [14.233748067474979, 41.11822579418724], [14.235393032794805, 41.12243340272565], [14.237573104808737, 41.12649957488435], [14.24026757153291, 41.130385504943945], [14.243450798219214, 41.13405410143095], [14.24709246959269, 41.13747034226532], [14.251157877485683, 41.140601610288286], [14.255608251181682, 41.143418005910654], [14.260401127343101, 41.14589263383761], [14.26549075598722, 41.148001861073716], [14.27082853859867, 41.14972554368849], [14.276363494129624, 41.15104722012534], [14.282042748344878, 41.151954269163426], [14.28781204172214, 41.15243803098752], [14.293616250921515, 41.152493890183486], [14.299399918694688, 41.15212131985173], [14.305107787016015, 41.15132388641356], [14.310685328185473, 41.15010921507301], [14.316079268677761, 41.148488916284165], [14.321238100592135, 41.1464784739562], [14.32611257569293, 41.14409709650452], [14.330656177218819, 41.14136753221823], [14.334825564877345, 41.138315850761195], [14.338580988726646, 41.13497119295149], [14.34188666797465, 41.13136549126776], [14.346810263439686, 41.125390798059286]]]}}]", "centroid": "[{\"type\": \"Feature\", \"properties\": {}, \"geometry\": {\"type\": \"Point\", \"coordinates\": [14.303419052535057, 41.08515323055079]}}]", "Diesel High Quality": {"1": [{"Gestore": "MARINO CLEMENTE", "Bandiera": "Esso", "Tipo impianto": "Altro", "Indirizzo": "VIA TIFATA SNC 81022", "Nome impianto": "STAZIONE DI SERVIZIO ESSO DI MARINO CLEMENTE", "Comune": "CASAGIOVE", "idImpianto": 32381, "points": [{"type": "Feature", "properties": {}, "geometry": {"type": "Point", "coordinates": [14.301366806030272, 41.08097427048457]}}], "price": 1.899, "ultima_rilevazione": "28/04/2022 10:30:27"}, {"Gestore": "PULIAUTO SRL", "Bandiera": "Q8", "Tipo impianto": "Altro", "Indirizzo": "VIA PONTESELICE SNC 81022", "Nome impianto": "IMPIANTO PONTESELICE", "Comune": "CASAGIOVE", "idImpianto": 44419, "points": [{"type": "Feature", "properties": {}, "geometry": {"type": "Point", "coordinates": [14.313999000123, 41.066265000123]}}], "price": 2.094, "ultima_rilevazione": "28/04/2022 20:13:07"}], "3": [{"Gestore": "D.G. CARBURANTI s.a.s.", "Bandiera": "Q8", "Tipo impianto": "Autostradale", "Indirizzo": "A1 MILANO-NAPOLI, Km. 737+200, Nord 81020", "Nome impianto": "S.NICOLA OVEST", "Comune": "SAN NICOLA LA STRADA", "idImpianto": 3654, "points": [{"type": "Feature", "properties": {}, "geometry": {"type": "Point", "coordinates": [14.321995675563812, 41.04918429607012]}}], "price": 1.969, "ultima_rilevazione": "26/04/2022 15:30:14"}, {"Gestore": "D.G. CARBURANTI s.a.s.", "Bandiera": "Q8", "Tipo impianto": "Autostradale", "Indirizzo": "A1 MILANO-NAPOLI, Km. 737+200, Nord 81020", "Nome impianto": "S.NICOLA OVEST", "Comune": "SAN NICOLA LA STRADA", "idImpianto": 3654, "points": [{"type": "Feature", "properties": {}, "geometry": {"type": "Point", "coordinates": [14.321995675563812, 41.04918429607012]}}], "price": 1.969, "ultima_rilevazione": "26/04/2022 15:30:14"}, {"Gestore": "CIARAMELLA FRANCESCO S.A.S. DI FRANCESCO CIARAMELLA", "Bandiera": "Esso", "Tipo impianto": "Altro", "Indirizzo": "VIA APPIA 90 81020", "Nome impianto": "ESSO", "Comune": "SAN NICOLA LA STRADA", "idImpianto": 50027, "points": [{"type": "Feature", "properties": {}, "geometry": {"type": "Point", "coordinates": [14.33866560459137, 41.05071511630209]}}], "price": 1.769, "ultima_rilevazione": "11/04/2022 07:15:42"}, {"Gestore": "ENERGY AUTO S.A.S. DI PONTILLO FRANCESCA", "Bandiera": "Q8", "Tipo impianto": "Altro", "Indirizzo": "Via Giovanni Falcone 49 81100", "Nome impianto": "Stazione di Servizio Q8 - Energy Auto S.a.s. di Pontillo Francesca", "Comune": "CASERTA", "idImpianto": 51321, "points": [{"type": "Feature", "properties": {}, "geometry": {"type": "Point", "coordinates": [14.353867203704796, 41.08103274404789]}}], "price": 2.009, "ultima_rilevazione": "26/04/2022 12:54:21"}, {"Gestore": "ENRICO MASTROIANNI CARBURANTI SRL", "Bandiera": "Q8", "Tipo impianto": "Altro", "Indirizzo": "VIA CIMITERO  81026", "Nome impianto": "AREA DI SERVIZIO Q8 RECALE", "Comune": "RECALE", "idImpianto": 15629, "points": [{"type": "Feature", "properties": {}, "geometry": {"type": "Point", "coordinates": [14.307212680578232, 41.05101245700886]}}], "price": 2.094, "ultima_rilevazione": "27/04/2022 00:46:14"}, {"Gestore": "EGI-2GO S.R.L.", "Bandiera": "Esso", "Tipo impianto": "Altro", "Indirizzo": "VIA VITTORIO VENETO 5 81100", "Nome impianto": "Caserta", "Comune": "CASERTA", "idImpianto": 47999, "points": [{"type": "Feature", "properties": {}, "geometry": {"type": "Point", "coordinates": [14.330476294477451, 41.07012871403312]}}], "price": 1.939, "ultima_rilevazione": "29/04/2022 06:29:34"}], "5": [{"Gestore": "KING FUEL SOCIETA' A RESPONSABILITA' LIMITATA", "Bandiera": "Q8", "Tipo impianto": "Altro", "Indirizzo": "S.S.7/265KM3+707  81100", "Nome impianto": "Q8", "Comune": "CASERTA", "idImpianto": 45719, "points": [{"type": "Feature", "properties": {}, "geometry": {"type": "Point", "coordinates": [14.360240541909093, 41.05435613493263]}}], "price": 2.059, "ultima_rilevazione": "16/04/2022 14:48:26"}, {"Gestore": "SERVIZI & GESTIONI ITALIA srl", "Bandiera": "Q8", "Tipo impianto": "Altro", "Indirizzo": "VIA MARTIN LUTER KING STAZ.Q8 SNC 81025", "Nome impianto": "MARCIANISE VIA MARTIN LUTER KING STAZ.Q8", "Comune": "MARCIANISE", "idImpianto": 6720, "points": [{"type": "Feature", "properties": {}, "geometry": {"type": "Point", "coordinates": [14.283066193254058, 41.03287474303295]}}], "price": 2.049, "ultima_rilevazione": "29/04/2022 07:13:18"}, {"Gestore": "SERVIZI & GESTIONI ITALIA srl", "Bandiera": "Q8", "Tipo impianto": "Altro", "Indirizzo": "VIA MARTIN LUTER KING STAZ.Q8 SNC 81025", "Nome impianto": "MARCIANISE VIA MARTIN LUTER KING STAZ.Q8", "Comune": "MARCIANISE", "idImpianto": 6720, "points": [{"type": "Feature", "properties": {}, "geometry": {"type": "Point", "coordinates": [14.283066193254058, 41.03287474303295]}}], "price": 2.049, "ultima_rilevazione": "29/04/2022 07:13:18"}]}, "Blue Diesel": {"1": [{"Gestore": "PEDICINI ROBERTO", "Bandiera": "Agip Eni", "Tipo impianto": "Strada Statale", "Indirizzo": "Statale 7 Via Appia, Km. 211+430, dir. NORD", "Nome impianto": "ENI ROBERTO PEDICINI", "Comune": "CASAGIOVE", "idImpianto": 17892, "points": [{"type": "Feature", "properties": {}, "geometry": {"type": "Point", "coordinates": [14.309885501861572, 41.07324649694152]}}], "price": 1.889, "ultima_rilevazione": "27/04/2022 14:05:41"}, {"Gestore": "MONTE DI IGNAZIO E DOMENICO MONTE S.N.C.", "Bandiera": "Agip Eni", "Tipo impianto": "Altro", "Indirizzo": "VIA TESCIONE 89 81100", "Nome impianto": "ENI", "Comune": "CASERTA", "idImpianto": 50074, "points": [{"type": "Feature", "properties": {}, "geometry": {"type": "Point", "coordinates": [14.331007377246124, 41.08518460756699]}}], "price": 1.899, "ultima_rilevazione": "29/04/2022 07:08:10"}, {"Gestore": "MONTE DI IGNAZIO E DOMENICO MONTE S.N.C.", "Bandiera": "Agip Eni", "Tipo impianto": "Altro", "Indirizzo": "VIA TESCIONE 89 81100", "Nome impianto": "ENI", "Comune": "CASERTA", "idImpianto": 50074, "points": [{"type": "Feature", "properties": {}, "geometry": {"type": "Point", "coordinates": [14.331007377246124, 41.08518460756699]}}], "price": 1.939, "ultima_rilevazione": "29/04/2022 07:08:10"}], "3": [{"Gestore": "ANGELUCCI PASQUALE", "Bandiera": "Agip Eni", "Tipo impianto": "Strada Statale", "Indirizzo": "Statale 7 Via Appia, Km. 207+600, dir. sud 81055", "Nome impianto": "ENI", "Comune": "SANTA MARIA CAPUA VETERE", "idImpianto": 4240, "points": [{"type": "Feature", "properties": {}, "geometry": {"type": "Point", "coordinates": [14.266664385795591, 41.08146111804406]}}], "price": 1.939, "ultima_rilevazione": "10/04/2022 09:28:36"}, {"Gestore": "ANGELUCCI PASQUALE", "Bandiera": "Agip Eni", "Tipo impianto": "Strada Statale", "Indirizzo": "Statale 7 Via Appia, Km. 207+600, dir. sud 81055", "Nome impianto": "ENI", "Comune": "SANTA MARIA CAPUA VETERE", "idImpianto": 4240, "points": [{"type": "Feature", "properties": {}, "geometry": {"type": "Point", "coordinates": [14.266664385795591, 41.08146111804406]}}], "price": 1.859, "ultima_rilevazione": "10/04/2022 09:28:36"}, {"Gestore": "NAPOLETANO GENNARO", "Bandiera": "Agip Eni", "Tipo impianto": "Altro", "Indirizzo": "via unita' italiana 1 81100", "Nome impianto": "Ditta Napoletano Gennaro", "Comune": "CASERTA", "idImpianto": 49793, "points": [{"type": "Feature", "properties": {}, "geometry": {"type": "Point", "coordinates": [14.341587872352584, 41.0724436028885]}}], "price": 1.849, "ultima_rilevazione": "20/04/2022 19:24:37"}, {"Gestore": "ZARRILLO SERVICE S.A.S. DI GIOVANNI ZARRILLO & C.", "Bandiera": "Agip Eni", "Tipo impianto": "Altro", "Indirizzo": "VIA RETELLA 22 81020", "Nome impianto": "AGIP", "Comune": "CAPODRISE", "idImpianto": 20072, "points": [{"type": "Feature", "properties": {}, "geometry": {"type": "Point", "coordinates": [14.308586387731566, 41.04346465733506]}}], "price": 1.864, "ultima_rilevazione": "26/04/2022 16:44:35"}, {"Gestore": "CAVASO DANIELE", "Bandiera": "Agip Eni", "Tipo impianto": "Altro", "Indirizzo": "VIALE EUROPA 16 81025", "Nome impianto": "autostazione eni di cavaso daniele", "Comune": "MARCIANISE", "idImpianto": 31479, "points": [{"type": "Feature", "properties": {}, "geometry": {"type": "Point", "coordinates": [14.313824325799942, 41.03707989355365]}}], "price": 1.899, "ultima_rilevazione": "28/04/2022 08:14:35"}, {"Gestore": "Borgheseservicesrl", "Bandiera": "Agip Eni", "Tipo impianto": "Autostradale", "Indirizzo": "Autostrada A1 MILANO-NAPOLI, Km. 737+200, dir. Sud ", "Nome impianto": "S.NICOLA EST", "Comune": "SAN NICOLA LA STRADA", "idImpianto": 3668, "points": [{"type": "Feature", "properties": {}, "geometry": {"type": "Point", "coordinates": [14.322657899475075, 41.05014665284766]}}], "price": 1.984, "ultima_rilevazione": "28/04/2022 13:47:30"}, {"Gestore": "Borgheseservicesrl", "Bandiera": "Agip Eni", "Tipo impianto": "Autostradale", "Indirizzo": "Autostrada A1 MILANO-NAPOLI, Km. 737+200, dir. Sud ", "Nome impianto": "S.NICOLA EST", "Comune": "SAN NICOLA LA STRADA", "idImpianto": 3668, "points": [{"type": "Feature", "properties": {}, "geometry": {"type": "Point", "coordinates": [14.322657899475075, 41.05014665284766]}}], "price": 1.984, "ultima_rilevazione": "28/04/2022 13:47:30"}, {"Gestore": "ENI FUEL S.P.A.", "Bandiera": "Agip Eni", "Tipo impianto": "Altro", "Indirizzo": "SS 87 Km 22 + 200 Viale Carlo III di Borbone  81020", "Nome impianto": "08488 \u2013 San Nicola La Strada", "Comune": "SAN NICOLA LA STRADA", "idImpianto": 50779, "points": [{"type": "Feature", "properties": {}, "geometry": {"type": "Point", "coordinates": [14.325036980839512, 41.03896202319381]}}], "price": 1.899, "ultima_rilevazione": "29/04/2022 07:26:07"}], "5": [{"Gestore": "CARBURANTI S.A.S. DI RAZZANO MICHELE E C.", "Bandiera": "Agip Eni", "Tipo impianto": "Altro", "Indirizzo": "VIA KENNEDY SNC 81025", "Nome impianto": "stazione eni 18451", "Comune": "MARCIANISE", "idImpianto": 19453, "points": [{"type": "Feature", "properties": {}, "geometry": {"type": "Point", "coordinates": [14.296415448188782, 41.02668898643588]}}], "price": 1.894, "ultima_rilevazione": "28/04/2022 08:43:33"}, {"Gestore": "CARBURANTI S.A.S. DI RAZZANO MICHELE E C.", "Bandiera": "Agip Eni", "Tipo impianto": "Altro", "Indirizzo": "VIA XXV  APRILE LOC. GROIA, 81025  81025", "Nome impianto": "stazione eni 18452", "Comune": "MARCIANISE", "idImpianto": 38416, "points": [{"type": "Feature", "properties": {}, "geometry": {"type": "Point", "coordinates": [14.315212368965147, 41.02471951469107]}}], "price": 1.894, "ultima_rilevazione": "28/04/2022 08:44:01"}, {"Gestore": "DITTA COPPOLA GIUSEPPE", "Bandiera": "Agip Eni", "Tipo impianto": "Altro", "Indirizzo": "VIA DEL LAVORO 164 81055", "Nome impianto": "self area agip e autolavaggio", "Comune": "SANTA MARIA CAPUA VETERE", "idImpianto": 15028, "points": [{"type": "Feature", "properties": {}, "geometry": {"type": "Point", "coordinates": [14.241987692590328, 41.08806718113692]}}], "price": 1.899, "ultima_rilevazione": "28/04/2022 09:51:22"}, {"Gestore": "DITTA COPPOLA GIUSEPPE", "Bandiera": "Agip Eni", "Tipo impianto": "Altro", "Indirizzo": "VIA DEL LAVORO 164 81055", "Nome impianto": "self area agip e autolavaggio", "Comune": "SANTA MARIA CAPUA VETERE", "idImpianto": 15028, "points": [{"type": "Feature", "properties": {}, "geometry": {"type": "Point", "coordinates": [14.241987692590328, 41.08806718113692]}}], "price": 1.939, "ultima_rilevazione": "28/04/2022 09:51:22"}, {"Gestore": "DI GIACINTO CARBURANTI S.A.S. DI DI GIACINTO SALVATORE E C.", "Bandiera": "Agip Eni", "Tipo impianto": "Altro", "Indirizzo": "VIA LEONARDO DA VINCI S.N.C. 81025", "Nome impianto": "stazione ENI", "Comune": "MARCIANISE", "idImpianto": 20641, "points": [{"type": "Feature", "properties": {}, "geometry": {"type": "Point", "coordinates": [14.290830279098486, 41.02347225955599]}}], "price": 1.894, "ultima_rilevazione": "28/04/2022 18:08:21"}]}, "Benzina": {"1": [{"Gestore": "LETIZIA GIUSEPPE", "Bandiera": "Api-Ip", "Tipo impianto": "Altro", "Indirizzo": "via nazionale appia km 209.500  81020", "Nome impianto": "totalerg", "Comune": "CASAPULLA", "idImpianto": 15340, "points": [{"type": "Feature", "properties": {}, "geometry": {"type": "Point", "coordinates": [14.287334829568865, 41.07420331818706]}}], "price": 2.359, "ultima_rilevazione": "29/04/2022 06:46:43"}, {"Gestore": "CUTILLO TERESA", "Bandiera": "Api-Ip", "Tipo impianto": "Altro", "Indirizzo": "S.S. 7 Appia  81022", "Nome impianto": "Stazione di Servizio IP Cutillo", "Comune": "CASAGIOVE", "idImpianto": 47366, "points": [{"type": "Feature", "properties": {}, "geometry": {"type": "Point", "coordinates": [14.313786664723883, 41.0730147251997]}}], "price": 1.759, "ultima_rilevazione": "14/04/2022 12:19:23"}, {"Gestore": "SR FUEL DI VINCENZO RAIA", "Bandiera": "Pompe Bianche", "Tipo impianto": "Altro", "Indirizzo": "VIA ROMA 156 81020", "Nome impianto": "SPFUEL", "Comune": "RECALE", "idImpianto": 48385, "points": [{"type": "Feature", "properties": {}, "geometry": {"type": "Point", "coordinates": [14.307806057692076, 41.06477539109586]}}], "price": 1.784, "ultima_rilevazione": "21/04/2022 07:37:23"}, {"Gestore": "SERVICE CAR S.A.S. DI GENNARO DI GIACOMO & C.", "Bandiera": "Api-Ip", "Tipo impianto": "Altro", "Indirizzo": "VIA SAN LEUCIO 27 81100", "Nome impianto": "stazione di servizio IP", "Comune": "CASERTA", "idImpianto": 45753, "points": [{"type": "Feature", "properties": {}, "geometry": {"type": "Point", "coordinates": [14.318686515714605, 41.088686734403474]}}], "price": 1.799, "ultima_rilevazione": "23/04/2022 08:03:13"}, {"Gestore": "PEDICINI ROBERTO", "Bandiera": "Agip Eni", "Tipo impianto": "Strada Statale", "Indirizzo": "Statale 7 Via Appia, Km. 211+430, dir. NORD", "Nome impianto": "ENI ROBERTO PEDICINI", "Comune": "CASAGIOVE", "idImpianto": 17892, "points": [{"type": "Feature", "properties": {}, "geometry": {"type": "Point", "coordinates": [14.309885501861572, 41.07324649694152]}}], "price": 1.779, "ultima_rilevazione": "27/04/2022 14:05:41"}, {"Gestore": "MARINO CLEMENTE", "Bandiera": "Esso", "Tipo impianto": "Altro", "Indirizzo": "VIA TIFATA SNC 81022", "Nome impianto": "STAZIONE DI SERVIZIO ESSO DI MARINO CLEMENTE", "Comune": "CASAGIOVE", "idImpianto": 32381, "points": [{"type": "Feature", "properties": {}, "geometry": {"type": "Point", "coordinates": [14.301366806030272, 41.08097427048457]}}], "price": 1.779, "ultima_rilevazione": "28/04/2022 10:30:27"}, {"Gestore": "TRAGEN S.R.L.", "Bandiera": "Gaffoil", "Tipo impianto": "Altro", "Indirizzo": "VIA APPIA KM.212+145 SNC 81100", "Nome impianto": "GAFFOIL", "Comune": "CASERTA", "idImpianto": 36339, "points": [{"type": "Feature", "properties": {}, "geometry": {"type": "Point", "coordinates": [14.318331778049467, 41.07245102254358]}}], "price": 1.757, "ultima_rilevazione": "28/04/2022 17:50:13"}, {"Gestore": "TAMOIL DI TROISE MICHELE", "Bandiera": "Tamoil", "Tipo impianto": "Altro", "Indirizzo": "VIA SAN GIOVANNI 2 81020", "Nome impianto": "TAMOIL", "Comune": "CASAPULLA", "idImpianto": 33281, "points": [{"type": "Feature", "properties": {}, "geometry": {"type": "Point", "coordinates": [14.298856258392334, 41.08484004039144]}}], "price": 1.788, "ultima_rilevazione": "29/04/2022 07:06:11"}, {"Gestore": "PULIAUTO SRL", "Bandiera": "Q8", "Tipo impianto": "Altro", "Indirizzo": "VIA PONTESELICE SNC 81022", "Nome impianto": "IMPIANTO PONTESELICE", "Comune": "CASAGIOVE", "idImpianto": 44419, "points": [{"type": "Feature", "properties": {}, "geometry": {"type": "Point", "coordinates": [14.313999000123, 41.066265000123]}}], "price": 1.824, "ultima_rilevazione": "28/04/2022 20:13:07"}, {"Gestore": "MONTE DI IGNAZIO E DOMENICO MONTE S.N.C.", "Bandiera": "Agip Eni", "Tipo impianto": "Altro", "Indirizzo": "VIA TESCIONE 89 81100", "Nome impianto": "ENI", "Comune": "CASERTA", "idImpianto": 50074, "points": [{"type": "Feature", "properties": {}, "geometry": {"type": "Point", "coordinates": [14.331007377246124, 41.08518460756699]}}], "price": 1.789, "ultima_rilevazione": "29/04/2022 07:08:10"}, {"Gestore": "TOIL S.P.A.", "Bandiera": "Toil", "Tipo impianto": "Altro", "Indirizzo": "Viale Gramsci - localit\u00e0 Ercole snc 81100", "Nome impianto": "TOIL CASERTA", "Comune": "CASERTA", "idImpianto": 45113, "points": [{"type": "Feature", "properties": {}, "geometry": {"type": "Point", "coordinates": [14.318812538213136, 41.08432147003239]}}], "price": 1.769, "ultima_rilevazione": "29/04/2022 00:18:12"}, {"Gestore": "SERVIZI & GESTIONI ITALIA S.R.L.", "Bandiera": "Q8", "Tipo impianto": "Altro", "Indirizzo": "SS 7 KM. 210+326  81020", "Nome impianto": "SS 7 KM. 210+326 -  CASAPULLA", "Comune": "CASAPULLA", "idImpianto": 28275, "points": [{"type": "Feature", "properties": {}, "geometry": {"type": "Point", "coordinates": [14.296932655889124, 41.07349818008677]}}], "price": 1.794, "ultima_rilevazione": "29/04/2022 01:43:48"}], "3": [{"Gestore": "ANGELUCCI PASQUALE", "Bandiera": "Agip Eni", "Tipo impianto": "Strada Statale", "Indirizzo": "Statale 7 Via Appia, Km. 207+600, dir. sud 81055", "Nome impianto": "ENI", "Comune": "SANTA MARIA CAPUA VETERE", "idImpianto": 4240, "points": [{"type": "Feature", "properties": {}, "geometry": {"type": "Point", "coordinates": [14.266664385795591, 41.08146111804406]}}], "price": 1.789, "ultima_rilevazione": "10/04/2022 09:28:36"}, {"Gestore": "CIARAMELLA FRANCESCO S.A.S. DI FRANCESCO CIARAMELLA", "Bandiera": "Esso", "Tipo impianto": "Altro", "Indirizzo": "VIA APPIA 90 81020", "Nome impianto": "ESSO", "Comune": "SAN NICOLA LA STRADA", "idImpianto": 50027, "points": [{"type": "Feature", "properties": {}, "geometry": {"type": "Point", "coordinates": [14.33866560459137, 41.05071511630209]}}], "price": 1.739, "ultima_rilevazione": "11/04/2022 07:15:42"}, {"Gestore": "VASTANO TIZIANA", "Bandiera": "Api-Ip", "Tipo impianto": "Altro", "Indirizzo": "VIA A. VOLTA 71 81050", "Nome impianto": "STAZIONE SERVIZIO VASTANO TIZIANA", "Comune": "PORTICO DI CASERTA", "idImpianto": 39037, "points": [{"type": "Feature", "properties": {}, "geometry": {"type": "Point", "coordinates": [14.282515317790969, 41.05911433943689]}}], "price": 1.765, "ultima_rilevazione": "19/04/2022 10:50:24"}, {"Gestore": "NAPOLETANO GENNARO", "Bandiera": "Agip Eni", "Tipo impianto": "Altro", "Indirizzo": "via unita' italiana 1 81100", "Nome impianto": "Ditta Napoletano Gennaro", "Comune": "CASERTA", "idImpianto": 49793, "points": [{"type": "Feature", "properties": {}, "geometry": {"type": "Point", "coordinates": [14.341587872352584, 41.0724436028885]}}], "price": 1.779, "ultima_rilevazione": "20/04/2022 19:24:37"}, {"Gestore": "DELTA PETROLI S.R.L.", "Bandiera": "Pompe Bianche", "Tipo impianto": "Altro", "Indirizzo": "VIA ELEUTERIO RUGGIERO  81100", "Nome impianto": "DELTA PETROLI (CE)", "Comune": "CASERTA", "idImpianto": 41648, "points": [{"type": "Feature", "properties": {}, "geometry": {"type": "Point", "coordinates": [14.34679739177227, 41.081512269235446]}}], "price": 1.728, "ultima_rilevazione": "23/04/2022 10:08:15"}, {"Gestore": "PENTA PETROLI SRL", "Bandiera": "Pompe Bianche", "Tipo impianto": "Altro", "Indirizzo": "VIA FUSCO, FRAZ. MEZZANO 12 81100", "Nome impianto": "EWA POINT MEZZANO", "Comune": "CASERTA", "idImpianto": 32991, "points": [{"type": "Feature", "properties": {}, "geometry": {"type": "Point", "coordinates": [14.348132461309431, 41.09603111322016]}}], "price": 1.753, "ultima_rilevazione": "23/04/2022 11:26:36"}, {"Gestore": "PENTA PETROLI SRL", "Bandiera": "Pompe Bianche", "Tipo impianto": "Altro", "Indirizzo": "VIA GIOVANNI PAOLO 1\u00b0 SNC 81055", "Nome impianto": "EWA SANTA MARIA CAPUA VETERE", "Comune": "SANTA MARIA CAPUA VETERE", "idImpianto": 29981, "points": [{"type": "Feature", "properties": {}, "geometry": {"type": "Point", "coordinates": [14.265140891075134, 41.08839587883899]}}], "price": 1.749, "ultima_rilevazione": "23/04/2022 11:28:37"}, {"Gestore": "ENERGY AUTO S.A.S. DI PONTILLO FRANCESCA", "Bandiera": "Q8", "Tipo impianto": "Altro", "Indirizzo": "Via Giovanni Falcone 49 81100", "Nome impianto": "Stazione di Servizio Q8 - Energy Auto S.a.s. di Pontillo Francesca", "Comune": "CASERTA", "idImpianto": 51321, "points": [{"type": "Feature", "properties": {}, "geometry": {"type": "Point", "coordinates": [14.353867203704796, 41.08103274404789]}}], "price": 1.728, "ultima_rilevazione": "26/04/2022 12:54:21"}, {"Gestore": "TRAGEN S.R.L.", "Bandiera": "Gaffoil", "Tipo impianto": "Altro", "Indirizzo": "Via Nazionale Appia Km 208+50  81040", "Nome impianto": "Gaffoil Curti", "Comune": "CURTI", "idImpianto": 19199, "points": [{"type": "Feature", "properties": {}, "geometry": {"type": "Point", "coordinates": [14.27840106189251, 41.07818432957283]}}], "price": 1.775, "ultima_rilevazione": "26/04/2022 14:12:09"}, {"Gestore": "D.G. CARBURANTI s.a.s.", "Bandiera": "Q8", "Tipo impianto": "Autostradale", "Indirizzo": "A1 MILANO-NAPOLI, Km. 737+200, Nord 81020", "Nome impianto": "S.NICOLA OVEST", "Comune": "SAN NICOLA LA STRADA", "idImpianto": 3654, "points": [{"type": "Feature", "properties": {}, "geometry": {"type": "Point", "coordinates": [14.321995675563812, 41.04918429607012]}}], "price": 1.868, "ultima_rilevazione": "26/04/2022 15:30:14"}, {"Gestore": "ZARRILLO SERVICE S.A.S. DI GIOVANNI ZARRILLO & C.", "Bandiera": "Agip Eni", "Tipo impianto": "Altro", "Indirizzo": "VIA RETELLA 22 81020", "Nome impianto": "AGIP", "Comune": "CAPODRISE", "idImpianto": 20072, "points": [{"type": "Feature", "properties": {}, "geometry": {"type": "Point", "coordinates": [14.308586387731566, 41.04346465733506]}}], "price": 1.754, "ultima_rilevazione": "26/04/2022 16:44:35"}, {"Gestore": "ENRICO MASTROIANNI CARBURANTI SRL", "Bandiera": "Q8", "Tipo impianto": "Altro", "Indirizzo": "VIA CIMITERO  81026", "Nome impianto": "AREA DI SERVIZIO Q8 RECALE", "Comune": "RECALE", "idImpianto": 15629, "points": [{"type": "Feature", "properties": {}, "geometry": {"type": "Point", "coordinates": [14.307212680578232, 41.05101245700886]}}], "price": 1.759, "ultima_rilevazione": "27/04/2022 00:46:14"}, {"Gestore": "SYNERGY S.R.L.", "Bandiera": "Pompe Bianche", "Tipo impianto": "Altro", "Indirizzo": "VIA GIUSEPPE GARIBALDI  65 81047", "Nome impianto": "MACERATA CAMPANIA ", "Comune": "MACERATA CAMPANIA", "idImpianto": 48770, "points": [{"type": "Feature", "properties": {}, "geometry": {"type": "Point", "coordinates": [14.279971647238726, 41.06661528614261]}}], "price": 1.719, "ultima_rilevazione": "27/04/2022 16:09:20"}, {"Gestore": "F.D.M. CARBURANTI SRL SEMPLIFICATA", "Bandiera": "Pompe Bianche", "Tipo impianto": "Altro", "Indirizzo": "VIA MARTIRI DI CEFALONIA SP126 23 81047", "Nome impianto": "F.D.M. CARBURANTI SRLS", "Comune": "MACERATA CAMPANIA", "idImpianto": 45148, "points": [{"type": "Feature", "properties": {}, "geometry": {"type": "Point", "coordinates": [14.282564000123, 41.063480000123]}}], "price": 1.799, "ultima_rilevazione": "27/04/2022 17:26:41"}, {"Gestore": "CAVASO DANIELE", "Bandiera": "Agip Eni", "Tipo impianto": "Altro", "Indirizzo": "VIALE EUROPA 16 81025", "Nome impianto": "autostazione eni di cavaso daniele", "Comune": "MARCIANISE", "idImpianto": 31479, "points": [{"type": "Feature", "properties": {}, "geometry": {"type": "Point", "coordinates": [14.313824325799942, 41.03707989355365]}}], "price": 1.769, "ultima_rilevazione": "28/04/2022 08:14:35"}, {"Gestore": "ITALIMPIANTI S.R.L.", "Bandiera": "Pompe Bianche", "Tipo impianto": "Altro", "Indirizzo": "VIA FRATELLI ROSSELLI 19 81050", "Nome impianto": " ITALIMPIANTI", "Comune": "PORTICO DI CASERTA", "idImpianto": 32676, "points": [{"type": "Feature", "properties": {}, "geometry": {"type": "Point", "coordinates": [14.28290730370486, 41.05008535954661]}}], "price": 1.73, "ultima_rilevazione": "28/04/2022 09:09:45"}, {"Gestore": "AMOIL S.R.L.", "Bandiera": "Esso", "Tipo impianto": "Altro", "Indirizzo": "VIA FERRARECCE,88 88 81100", "Nome impianto": "AMOIL SRL", "Comune": "CASERTA", "idImpianto": 47146, "points": [{"type": "Feature", "properties": {}, "geometry": {"type": "Point", "coordinates": [14.337592000123, 41.066280000123]}}], "price": 1.784, "ultima_rilevazione": "28/04/2022 10:40:42"}, {"Gestore": "TRAGEN S.R.L.", "Bandiera": "Gaffoil", "Tipo impianto": "Altro", "Indirizzo": "Via Ponteselice  81047", "Nome impianto": "Gaffoil Musicile", "Comune": "MACERATA CAMPANIA", "idImpianto": 20710, "points": [{"type": "Feature", "properties": {}, "geometry": {"type": "Point", "coordinates": [14.290934354066849, 41.05119854710766]}}], "price": 1.709, "ultima_rilevazione": "28/04/2022 12:43:33"}, {"Gestore": "AP GESTIONE QUATTRO S.R.L.", "Bandiera": "AP Stazioni di Servizio", "Tipo impianto": "Altro", "Indirizzo": "Interno C.C. via P. Borsellino snc 81020", "Nome impianto": "Ap IPERION", "Comune": "CASERTA", "idImpianto": 40459, "points": [{"type": "Feature", "properties": {}, "geometry": {"type": "Point", "coordinates": [14.350547254216508, 41.07698999084189]}}], "price": 1.844, "ultima_rilevazione": "28/04/2022 13:15:18"}, {"Gestore": "IP SERVICE S.R.L.", "Bandiera": "Esso", "Tipo impianto": "Altro", "Indirizzo": "via ponteselice snc 81020", "Nome impianto": "Stazione di Servizio Ip Service \"ESSO\" Capodrise", "Comune": "CAPODRISE", "idImpianto": 40332, "points": [{"type": "Feature", "properties": {}, "geometry": {"type": "Point", "coordinates": [14.293845891952516, 41.04964710591644]}}], "price": 1.709, "ultima_rilevazione": "28/04/2022 13:22:22"}, {"Gestore": "T.D.M. S.R.L.", "Bandiera": "Tamoil", "Tipo impianto": "Altro", "Indirizzo": "VIA APPIA EX VIA POLVERIERA  81100", "Nome impianto": "4653", "Comune": "CASERTA", "idImpianto": 45910, "points": [{"type": "Feature", "properties": {}, "geometry": {"type": "Point", "coordinates": [14.321672457672094, 41.058777624828885]}}], "price": 1.749, "ultima_rilevazione": "29/04/2022 07:44:07"}, {"Gestore": "Borgheseservicesrl", "Bandiera": "Agip Eni", "Tipo impianto": "Autostradale", "Indirizzo": "Autostrada A1 MILANO-NAPOLI, Km. 737+200, dir. Sud ", "Nome impianto": "S.NICOLA EST", "Comune": "SAN NICOLA LA STRADA", "idImpianto": 3668, "points": [{"type": "Feature", "properties": {}, "geometry": {"type": "Point", "coordinates": [14.322657899475075, 41.05014665284766]}}], "price": 1.834, "ultima_rilevazione": "28/04/2022 13:47:30"}, {"Gestore": "ZARRILLO LUIGI", "Bandiera": "Api-Ip", "Tipo impianto": "Altro", "Indirizzo": "via R.MUSONE 75 81025", "Nome impianto": "totalerg", "Comune": "MARCIANISE", "idImpianto": 15099, "points": [{"type": "Feature", "properties": {}, "geometry": {"type": "Point", "coordinates": [14.303971230983734, 41.03724073375078]}}], "price": 1.754, "ultima_rilevazione": "28/04/2022 15:52:45"}, {"Gestore": "PAPALE LUIGI & FIGLI S.A.S. DI PAPALE LUIGI", "Bandiera": "Api-Ip", "Tipo impianto": "Altro", "Indirizzo": "Via Giorgio LA Pira  81100", "Nome impianto": "Area di Servizio \"API IP\" Papale Luigi e Figli S.r.l", "Comune": "CASERTA", "idImpianto": 47287, "points": [{"type": "Feature", "properties": {}, "geometry": {"type": "Point", "coordinates": [14.339781906745923, 41.08792091365572]}}], "price": 1.799, "ultima_rilevazione": "28/04/2022 16:21:41"}, {"Gestore": "CANTELLI RAFFAELE", "Bandiera": "Pompe Bianche", "Tipo impianto": "Altro", "Indirizzo": "via Ventriglia 70 81040", "Nome impianto": "IPERFUEL di Cantelli Raffaele (CURTI)", "Comune": "CURTI", "idImpianto": 41620, "points": [{"type": "Feature", "properties": {}, "geometry": {"type": "Point", "coordinates": [14.27390232682228, 41.07433454640584]}}], "price": 1.778, "ultima_rilevazione": "28/04/2022 18:29:37"}, {"Gestore": "ENI FUEL S.P.A.", "Bandiera": "Agip Eni", "Tipo impianto": "Altro", "Indirizzo": "V.le della Libert\u00e0, Cavalcavia SNC 81100", "Nome impianto": "CASERTA", "Comune": "CASERTA", "idImpianto": 5447, "points": [{"type": "Feature", "properties": {}, "geometry": {"type": "Point", "coordinates": [14.32765362532598, 41.066684732453815]}}], "price": 1.789, "ultima_rilevazione": "29/04/2022 00:14:07"}, {"Gestore": "EGI-2GO S.R.L.", "Bandiera": "Esso", "Tipo impianto": "Altro", "Indirizzo": "VIA VITTORIO VENETO 5 81100", "Nome impianto": "Caserta", "Comune": "CASERTA", "idImpianto": 47999, "points": [{"type": "Feature", "properties": {}, "geometry": {"type": "Point", "coordinates": [14.330476294477451, 41.07012871403312]}}], "price": 1.789, "ultima_rilevazione": "29/04/2022 06:29:34"}, {"Gestore": "ENI FUEL S.P.A.", "Bandiera": "Agip Eni", "Tipo impianto": "Altro", "Indirizzo": "SS 87 Km 22 + 200 Viale Carlo III di Borbone  81020", "Nome impianto": "08488 \u2013 San Nicola La Strada", "Comune": "SAN NICOLA LA STRADA", "idImpianto": 50779, "points": [{"type": "Feature", "properties": {}, "geometry": {"type": "Point", "coordinates": [14.325036980839512, 41.03896202319381]}}], "price": 1.789, "ultima_rilevazione": "29/04/2022 07:26:07"}], "5": [{"Gestore": "KING FUEL SOCIETA' A RESPONSABILITA' LIMITATA", "Bandiera": "Q8", "Tipo impianto": "Altro", "Indirizzo": "S.S.7/265KM3+707  81100", "Nome impianto": "Q8", "Comune": "CASERTA", "idImpianto": 45719, "points": [{"type": "Feature", "properties": {}, "geometry": {"type": "Point", "coordinates": [14.360240541909093, 41.05435613493263]}}], "price": 1.769, "ultima_rilevazione": "16/04/2022 14:48:26"}, {"Gestore": "CAIAZZO ANTONIO", "Bandiera": "Api-Ip", "Tipo impianto": "Altro", "Indirizzo": "VIA DEL LAVORO 168 80133", "Nome impianto": "TOTAL ERG", "Comune": "SANTA MARIA CAPUA VETERE", "idImpianto": 43034, "points": [{"type": "Feature", "properties": {}, "geometry": {"type": "Point", "coordinates": [14.241968000000044, 41.08806602158177]}}], "price": 1.739, "ultima_rilevazione": "20/04/2022 12:48:09"}, {"Gestore": "VERNAGAS GROUP S.R.L.", "Bandiera": "Pompe Bianche", "Tipo impianto": "Altro", "Indirizzo": "S.S. 7 KM 215+500 - LOC. CENTURANO SNC 81100", "Nome impianto": "VERNAOIL - CENTURANO", "Comune": "CASERTA", "idImpianto": 31958, "points": [{"type": "Feature", "properties": {}, "geometry": {"type": "Point", "coordinates": [14.35662876919048, 41.07326656897936]}}], "price": 1.799, "ultima_rilevazione": "20/04/2022 16:06:37"}, {"Gestore": "A.G. OIL SAS DI GOLINO GIOVANNI & C.", "Bandiera": "Esso", "Tipo impianto": "Altro", "Indirizzo": " S.S. 265 KM 34+657 SNC 81025", "Nome impianto": "A.G.OIL", "Comune": "MARCIANISE", "idImpianto": 23464, "points": [{"type": "Feature", "properties": {}, "geometry": {"type": "Point", "coordinates": [14.27826754470516, 41.03726769989665]}}], "price": 1.739, "ultima_rilevazione": "22/04/2022 09:49:41"}, {"Gestore": "LOGI-CA S.R.L.", "Bandiera": "Pompe Bianche", "Tipo impianto": "Altro", "Indirizzo": "SP 325 VIA L. FUCCIA SNC 81025", "Nome impianto": "CPM", "Comune": "MARCIANISE", "idImpianto": 35389, "points": [{"type": "Feature", "properties": {}, "geometry": {"type": "Point", "coordinates": [14.26644881974994, 41.03678309275059]}}], "price": 1.735, "ultima_rilevazione": "22/04/2022 16:35:04"}, {"Gestore": "PENTA PETROLI SRL", "Bandiera": "Pompe Bianche", "Tipo impianto": "Altro", "Indirizzo": "VIA LIBERTA' SNC 81043", "Nome impianto": "EWA POINT SANT'ANGELO IN FORMIS", "Comune": "CAPUA", "idImpianto": 30088, "points": [{"type": "Feature", "properties": {}, "geometry": {"type": "Point", "coordinates": [14.25141267478466, 41.108728933244]}}], "price": 1.719, "ultima_rilevazione": "23/04/2022 11:27:52"}, {"Gestore": "AMATO SANTOLO", "Bandiera": "Api-Ip", "Tipo impianto": "Altro", "Indirizzo": "VIA GALATINA  81100", "Nome impianto": "AMATO SANTOLO", "Comune": "CASERTA", "idImpianto": 24458, "points": [{"type": "Feature", "properties": {}, "geometry": {"type": "Point", "coordinates": [14.36886727809906, 41.06008090532538]}}], "price": 1.739, "ultima_rilevazione": "26/04/2022 07:41:05"}, {"Gestore": "TOM & FEDE S.R.L.", "Bandiera": "Api-Ip", "Tipo impianto": "Altro", "Indirizzo": "VIALE DELLE INDUSTRIE SNC 81100", "Nome impianto": "TOM & FEDE ", "Comune": "CASERTA", "idImpianto": 32400, "points": [{"type": "Feature", "properties": {}, "geometry": {"type": "Point", "coordinates": [14.356964975595474, 41.05073938903236]}}], "price": 1.739, "ultima_rilevazione": "26/04/2022 10:04:56"}, {"Gestore": "MAINA LUIGI", "Bandiera": "Api-Ip", "Tipo impianto": "Altro", "Indirizzo": "via martin lutherking  81025", "Nome impianto": "STAZIONE DI SERVIZIO IP di LUIGI MAINA", "Comune": "MARCIANISE", "idImpianto": 42695, "points": [{"type": "Feature", "properties": {}, "geometry": {"type": "Point", "coordinates": [14.28268969403564, 41.03636633464852]}}], "price": 1.759, "ultima_rilevazione": "26/04/2022 10:41:33"}, {"Gestore": "MARZIA PETROLI S.R.L.", "Bandiera": "Pompe Bianche", "Tipo impianto": "Altro", "Indirizzo": "STRADA PROV.13 AVERSA-S.M.C.V. SNC 81055", "Nome impianto": "Marzia petroli Srl", "Comune": "SANTA MARIA CAPUA VETERE", "idImpianto": 49641, "points": [{"type": "Feature", "properties": {}, "geometry": {"type": "Point", "coordinates": [14.2486145133258, 41.05670764550968]}}], "price": 1.739, "ultima_rilevazione": "26/04/2022 17:58:24"}, {"Gestore": "SACCO VITALIANO S.R.L.", "Bandiera": "Agip Eni", "Tipo impianto": "Altro", "Indirizzo": "VIA MARCHESIELLO 72 81100", "Nome impianto": "AGIP Sacco Vitaliano", "Comune": "CASERTA", "idImpianto": 19380, "points": [{"type": "Feature", "properties": {}, "geometry": {"type": "Point", "coordinates": [14.3562650453689, 41.07615341457402]}}], "price": 1.968, "ultima_rilevazione": "27/04/2022 13:06:04"}, {"Gestore": "F.B. OIL S.A.S. DI ANGELO BONAVOLONTA' E C.", "Bandiera": "Api-Ip", "Tipo impianto": "Altro", "Indirizzo": "VIA GALATINA 167 81055", "Nome impianto": "Area Servizio IP F. B. OIL SAS ", "Comune": "SANTA MARIA CAPUA VETERE", "idImpianto": 46308, "points": [{"type": "Feature", "properties": {}, "geometry": {"type": "Point", "coordinates": [14.253548383712769, 41.08872936731931]}}], "price": 1.789, "ultima_rilevazione": "27/04/2022 13:51:11"}, {"Gestore": "FADDIMM  S.R.L.", "Bandiera": "Repsol", "Tipo impianto": "Altro", "Indirizzo": "VIALE DELLA LIBERTA' 53 81020", "Nome impianto": "REPSOL", "Comune": "SAN MARCO EVANGELISTA", "idImpianto": 46739, "points": [{"type": "Feature", "properties": {}, "geometry": {"type": "Point", "coordinates": [14.335293883432428, 41.03597694204142]}}], "price": 1.768, "ultima_rilevazione": "27/04/2022 20:25:53"}, {"Gestore": "CARBURANTI S.A.S. DI RAZZANO MICHELE E C.", "Bandiera": "Agip Eni", "Tipo impianto": "Altro", "Indirizzo": "VIA KENNEDY SNC 81025", "Nome impianto": "stazione eni 18451", "Comune": "MARCIANISE", "idImpianto": 19453, "points": [{"type": "Feature", "properties": {}, "geometry": {"type": "Point", "coordinates": [14.296415448188782, 41.02668898643588]}}], "price": 1.764, "ultima_rilevazione": "28/04/2022 08:43:33"}, {"Gestore": "CARBURANTI S.A.S. DI RAZZANO MICHELE E C.", "Bandiera": "Agip Eni", "Tipo impianto": "Altro", "Indirizzo": "VIA XXV  APRILE LOC. GROIA, 81025  81025", "Nome impianto": "stazione eni 18452", "Comune": "MARCIANISE", "idImpianto": 38416, "points": [{"type": "Feature", "properties": {}, "geometry": {"type": "Point", "coordinates": [14.315212368965147, 41.02471951469107]}}], "price": 1.764, "ultima_rilevazione": "28/04/2022 08:44:01"}, {"Gestore": "DITTA COPPOLA GIUSEPPE", "Bandiera": "Agip Eni", "Tipo impianto": "Altro", "Indirizzo": "VIA DEL LAVORO 164 81055", "Nome impianto": "self area agip e autolavaggio", "Comune": "SANTA MARIA CAPUA VETERE", "idImpianto": 15028, "points": [{"type": "Feature", "properties": {}, "geometry": {"type": "Point", "coordinates": [14.241987692590328, 41.08806718113692]}}], "price": 1.789, "ultima_rilevazione": "28/04/2022 09:51:22"}, {"Gestore": "TRAGEN S.R.L.", "Bandiera": "Gaffoil", "Tipo impianto": "Altro", "Indirizzo": "via anfiteatro  81055", "Nome impianto": "Gaffoil SMCV", "Comune": "SANTA MARIA CAPUA VETERE", "idImpianto": 14923, "points": [{"type": "Feature", "properties": {}, "geometry": {"type": "Point", "coordinates": [14.250153377652168, 41.08216226937119]}}], "price": 1.724, "ultima_rilevazione": "28/04/2022 12:43:52"}, {"Gestore": "AP GESTIONE QUATTRO S.R.L.", "Bandiera": "AP Stazioni di Servizio", "Tipo impianto": "Altro", "Indirizzo": "Strada Provinciale 336 km. 20+600 (ex SS 87 Sannitica) snc 81020", "Nome impianto": "Ap San Marco Evangelista", "Comune": "SAN MARCO EVANGELISTA", "idImpianto": 37426, "points": [{"type": "Feature", "properties": {}, "geometry": {"type": "Point", "coordinates": [14.325212851199469, 41.0355390110562]}}], "price": 1.834, "ultima_rilevazione": "28/04/2022 13:14:40"}, {"Gestore": "DI GIACINTO CARBURANTI S.A.S. DI DI GIACINTO SALVATORE E C.", "Bandiera": "Agip Eni", "Tipo impianto": "Altro", "Indirizzo": "VIA LEONARDO DA VINCI S.N.C. 81025", "Nome impianto": "stazione ENI", "Comune": "MARCIANISE", "idImpianto": 20641, "points": [{"type": "Feature", "properties": {}, "geometry": {"type": "Point", "coordinates": [14.290830279098486, 41.02347225955599]}}], "price": 1.764, "ultima_rilevazione": "28/04/2022 18:08:21"}, {"Gestore": "GESTIONE ITALIA SOCIETA' A RESPONSABILITA' LIMITATA", "Bandiera": "ALIFUEL", "Tipo impianto": "Altro", "Indirizzo": "Via S.P. Galatina Snc 81055", "Nome impianto": "ALI FUEL - SANTA MARIA CAPUA VETERE", "Comune": "SANTA MARIA CAPUA VETERE", "idImpianto": 41007, "points": [{"type": "Feature", "properties": {}, "geometry": {"type": "Point", "coordinates": [14.252582617057785, 41.10154144233076]}}], "price": 1.749, "ultima_rilevazione": "29/04/2022 06:02:10"}, {"Gestore": "SERVIZI & GESTIONI ITALIA S.R.L.", "Bandiera": "Q8", "Tipo impianto": "Altro", "Indirizzo": "SS.87 SANNITICA KM.21+108  81025", "Nome impianto": "MARCIANISE SS.87 SANNITICA KM.21+108", "Comune": "MARCIANISE", "idImpianto": 25308, "points": [{"type": "Feature", "properties": {}, "geometry": {"type": "Point", "coordinates": [14.32465790674587, 41.02863894681816]}}], "price": 1.764, "ultima_rilevazione": "29/04/2022 01:43:48"}, {"Gestore": "SERVIZI & GESTIONI ITALIA srl", "Bandiera": "Q8", "Tipo impianto": "Altro", "Indirizzo": "VIA MARTIN LUTER KING STAZ.Q8 SNC 81025", "Nome impianto": "MARCIANISE VIA MARTIN LUTER KING STAZ.Q8", "Comune": "MARCIANISE", "idImpianto": 6720, "points": [{"type": "Feature", "properties": {}, "geometry": {"type": "Point", "coordinates": [14.283066193254058, 41.03287474303295]}}], "price": 1.749, "ultima_rilevazione": "29/04/2022 07:13:18"}]}, "Gasolio High Quality": {"1": [], "3": [], "5": [{"Gestore": "A.G. OIL SAS DI GOLINO GIOVANNI & C.", "Bandiera": "Esso", "Tipo impianto": "Altro", "Indirizzo": " S.S. 265 KM 34+657 SNC 81025", "Nome impianto": "A.G.OIL", "Comune": "MARCIANISE", "idImpianto": 23464, "points": [{"type": "Feature", "properties": {}, "geometry": {"type": "Point", "coordinates": [14.27826754470516, 41.03726769989665]}}], "price": 1.919, "ultima_rilevazione": "22/04/2022 09:49:41"}]}, "null": {}, "GPL": {"1": [{"Gestore": "SERVICE CAR S.A.S. DI GENNARO DI GIACOMO & C.", "Bandiera": "Api-Ip", "Tipo impianto": "Altro", "Indirizzo": "VIA SAN LEUCIO 27 81100", "Nome impianto": "stazione di servizio IP", "Comune": "CASERTA", "idImpianto": 45753, "points": [{"type": "Feature", "properties": {}, "geometry": {"type": "Point", "coordinates": [14.318686515714605, 41.088686734403474]}}], "price": 0.799, "ultima_rilevazione": "23/04/2022 08:03:13"}, {"Gestore": "VERNAGAS GROUP S.R.L.", "Bandiera": "Pompe Bianche", "Tipo impianto": "Altro", "Indirizzo": "VIA DELLE LENZE 1 81022", "Nome impianto": "VERNAGAS GROUP S.R.L.", "Comune": "CASAGIOVE", "idImpianto": 19552, "points": [{"type": "Feature", "properties": {}, "geometry": {"type": "Point", "coordinates": [14.300569467475952, 41.0774549159528]}}], "price": 0.785, "ultima_rilevazione": "23/04/2022 09:30:18"}, {"Gestore": "PULIAUTO SRL", "Bandiera": "Q8", "Tipo impianto": "Altro", "Indirizzo": "VIA PONTESELICE SNC 81022", "Nome impianto": "IMPIANTO PONTESELICE", "Comune": "CASAGIOVE", "idImpianto": 44419, "points": [{"type": "Feature", "properties": {}, "geometry": {"type": "Point", "coordinates": [14.313999000123, 41.066265000123]}}], "price": 0.789, "ultima_rilevazione": "28/04/2022 20:13:07"}, {"Gestore": "TOIL S.P.A.", "Bandiera": "Toil", "Tipo impianto": "Altro", "Indirizzo": "Viale Gramsci - localit\u00e0 Ercole snc 81100", "Nome impianto": "TOIL CASERTA", "Comune": "CASERTA", "idImpianto": 45113, "points": [{"type": "Feature", "properties": {}, "geometry": {"type": "Point", "coordinates": [14.318812538213136, 41.08432147003239]}}], "price": 0.785, "ultima_rilevazione": "29/04/2022 00:18:12"}, {"Gestore": "EDILIZIA MACERATESE S.R.L. -  DI D'ALBORE ANTONIO", "Bandiera": "Pompe Bianche", "Tipo impianto": "Altro", "Indirizzo": "VIA SAN LORENZO 37 81047", "Nome impianto": "EM PETROLI", "Comune": "MACERATA CAMPANIA", "idImpianto": 35110, "points": [{"type": "Feature", "properties": {}, "geometry": {"type": "Point", "coordinates": [14.290562868118286, 41.06658961224053]}}], "price": 0.799, "ultima_rilevazione": "29/04/2022 06:03:27"}], "3": [{"Gestore": "PENTA PETROLI SRL", "Bandiera": "Pompe Bianche", "Tipo impianto": "Altro", "Indirizzo": "VIA GIOVANNI PAOLO 1\u00b0 SNC 81055", "Nome impianto": "EWA SANTA MARIA CAPUA VETERE", "Comune": "SANTA MARIA CAPUA VETERE", "idImpianto": 29981, "points": [{"type": "Feature", "properties": {}, "geometry": {"type": "Point", "coordinates": [14.265140891075134, 41.08839587883899]}}], "price": 0.789, "ultima_rilevazione": "23/04/2022 11:28:37"}, {"Gestore": "ENRICO MASTROIANNI CARBURANTI SRL", "Bandiera": "Q8", "Tipo impianto": "Altro", "Indirizzo": "VIA CIMITERO  81026", "Nome impianto": "AREA DI SERVIZIO Q8 RECALE", "Comune": "RECALE", "idImpianto": 15629, "points": [{"type": "Feature", "properties": {}, "geometry": {"type": "Point", "coordinates": [14.307212680578232, 41.05101245700886]}}], "price": 0.799, "ultima_rilevazione": "27/04/2022 00:46:14"}, {"Gestore": "Borgheseservicesrl", "Bandiera": "Agip Eni", "Tipo impianto": "Autostradale", "Indirizzo": "Autostrada A1 MILANO-NAPOLI, Km. 737+200, dir. Sud ", "Nome impianto": "S.NICOLA EST", "Comune": "SAN NICOLA LA STRADA", "idImpianto": 3668, "points": [{"type": "Feature", "properties": {}, "geometry": {"type": "Point", "coordinates": [14.322657899475075, 41.05014665284766]}}], "price": 0.945, "ultima_rilevazione": "28/04/2022 13:47:30"}, {"Gestore": "PAPALE LUIGI & FIGLI S.A.S. DI PAPALE LUIGI", "Bandiera": "Api-Ip", "Tipo impianto": "Altro", "Indirizzo": "Via Giorgio LA Pira  81100", "Nome impianto": "Area di Servizio \"API IP\" Papale Luigi e Figli S.r.l", "Comune": "CASERTA", "idImpianto": 47287, "points": [{"type": "Feature", "properties": {}, "geometry": {"type": "Point", "coordinates": [14.339781906745923, 41.08792091365572]}}], "price": 0.85, "ultima_rilevazione": "28/04/2022 16:21:41"}], "5": [{"Gestore": "LOGI-CA S.R.L.", "Bandiera": "Pompe Bianche", "Tipo impianto": "Altro", "Indirizzo": "SP 325 VIA L. FUCCIA SNC 81025", "Nome impianto": "CPM", "Comune": "MARCIANISE", "idImpianto": 35389, "points": [{"type": "Feature", "properties": {}, "geometry": {"type": "Point", "coordinates": [14.26644881974994, 41.03678309275059]}}], "price": 0.798, "ultima_rilevazione": "22/04/2022 16:35:04"}, {"Gestore": "MARZIA PETROLI S.R.L.", "Bandiera": "Pompe Bianche", "Tipo impianto": "Altro", "Indirizzo": "STRADA PROV.13 AVERSA-S.M.C.V. SNC 81055", "Nome impianto": "Marzia petroli Srl", "Comune": "SANTA MARIA CAPUA VETERE", "idImpianto": 49641, "points": [{"type": "Feature", "properties": {}, "geometry": {"type": "Point", "coordinates": [14.2486145133258, 41.05670764550968]}}], "price": 0.829, "ultima_rilevazione": "26/04/2022 17:58:24"}, {"Gestore": "CARBURANTI S.A.S. DI RAZZANO MICHELE E C.", "Bandiera": "Agip Eni", "Tipo impianto": "Altro", "Indirizzo": "VIA XXV APRILE  81025", "Nome impianto": "stazione eni 18470/18461", "Comune": "MARCIANISE", "idImpianto": 38418, "points": [{"type": "Feature", "properties": {}, "geometry": {"type": "Point", "coordinates": [14.313537329435349, 41.02469766053227]}}], "price": 0.78, "ultima_rilevazione": "28/04/2022 08:44:34"}, {"Gestore": "GESTIONE ITALIA SOCIETA' A RESPONSABILITA' LIMITATA", "Bandiera": "ALIFUEL", "Tipo impianto": "Altro", "Indirizzo": "Via S.P. Galatina Snc 81055", "Nome impianto": "ALI FUEL - SANTA MARIA CAPUA VETERE", "Comune": "SANTA MARIA CAPUA VETERE", "idImpianto": 41007, "points": [{"type": "Feature", "properties": {}, "geometry": {"type": "Point", "coordinates": [14.252582617057785, 41.10154144233076]}}], "price": 0.799, "ultima_rilevazione": "29/04/2022 06:02:10"}]}, "Gasolio": {"1": [{"Gestore": "LETIZIA GIUSEPPE", "Bandiera": "Api-Ip", "Tipo impianto": "Altro", "Indirizzo": "via nazionale appia km 209.500  81020", "Nome impianto": "totalerg", "Comune": "CASAPULLA", "idImpianto": 15340, "points": [{"type": "Feature", "properties": {}, "geometry": {"type": "Point", "coordinates": [14.287334829568865, 41.07420331818706]}}], "price": 2.229, "ultima_rilevazione": "29/04/2022 06:46:43"}, {"Gestore": "CUTILLO TERESA", "Bandiera": "Api-Ip", "Tipo impianto": "Altro", "Indirizzo": "S.S. 7 Appia  81022", "Nome impianto": "Stazione di Servizio IP Cutillo", "Comune": "CASAGIOVE", "idImpianto": 47366, "points": [{"type": "Feature", "properties": {}, "geometry": {"type": "Point", "coordinates": [14.313786664723883, 41.0730147251997]}}], "price": 1.749, "ultima_rilevazione": "14/04/2022 12:19:23"}, {"Gestore": "SR FUEL DI VINCENZO RAIA", "Bandiera": "Pompe Bianche", "Tipo impianto": "Altro", "Indirizzo": "VIA ROMA 156 81020", "Nome impianto": "SPFUEL", "Comune": "RECALE", "idImpianto": 48385, "points": [{"type": "Feature", "properties": {}, "geometry": {"type": "Point", "coordinates": [14.307806057692076, 41.06477539109586]}}], "price": 1.784, "ultima_rilevazione": "21/04/2022 07:37:23"}, {"Gestore": "SERVICE CAR S.A.S. DI GENNARO DI GIACOMO & C.", "Bandiera": "Api-Ip", "Tipo impianto": "Altro", "Indirizzo": "VIA SAN LEUCIO 27 81100", "Nome impianto": "stazione di servizio IP", "Comune": "CASERTA", "idImpianto": 45753, "points": [{"type": "Feature", "properties": {}, "geometry": {"type": "Point", "coordinates": [14.318686515714605, 41.088686734403474]}}], "price": 1.799, "ultima_rilevazione": "23/04/2022 08:03:13"}, {"Gestore": "PEDICINI ROBERTO", "Bandiera": "Agip Eni", "Tipo impianto": "Strada Statale", "Indirizzo": "Statale 7 Via Appia, Km. 211+430, dir. NORD", "Nome impianto": "ENI ROBERTO PEDICINI", "Comune": "CASAGIOVE", "idImpianto": 17892, "points": [{"type": "Feature", "properties": {}, "geometry": {"type": "Point", "coordinates": [14.309885501861572, 41.07324649694152]}}], "price": 1.789, "ultima_rilevazione": "27/04/2022 14:05:41"}, {"Gestore": "MARINO CLEMENTE", "Bandiera": "Esso", "Tipo impianto": "Altro", "Indirizzo": "VIA TIFATA SNC 81022", "Nome impianto": "STAZIONE DI SERVIZIO ESSO DI MARINO CLEMENTE", "Comune": "CASAGIOVE", "idImpianto": 32381, "points": [{"type": "Feature", "properties": {}, "geometry": {"type": "Point", "coordinates": [14.301366806030272, 41.08097427048457]}}], "price": 1.799, "ultima_rilevazione": "28/04/2022 10:30:27"}, {"Gestore": "TRAGEN S.R.L.", "Bandiera": "Gaffoil", "Tipo impianto": "Altro", "Indirizzo": "VIA APPIA KM.212+145 SNC 81100", "Nome impianto": "GAFFOIL", "Comune": "CASERTA", "idImpianto": 36339, "points": [{"type": "Feature", "properties": {}, "geometry": {"type": "Point", "coordinates": [14.318331778049467, 41.07245102254358]}}], "price": 1.767, "ultima_rilevazione": "28/04/2022 17:50:13"}, {"Gestore": "TAMOIL DI TROISE MICHELE", "Bandiera": "Tamoil", "Tipo impianto": "Altro", "Indirizzo": "VIA SAN GIOVANNI 2 81020", "Nome impianto": "TAMOIL", "Comune": "CASAPULLA", "idImpianto": 33281, "points": [{"type": "Feature", "properties": {}, "geometry": {"type": "Point", "coordinates": [14.298856258392334, 41.08484004039144]}}], "price": 1.798, "ultima_rilevazione": "29/04/2022 07:06:11"}, {"Gestore": "PULIAUTO SRL", "Bandiera": "Q8", "Tipo impianto": "Altro", "Indirizzo": "VIA PONTESELICE SNC 81022", "Nome impianto": "IMPIANTO PONTESELICE", "Comune": "CASAGIOVE", "idImpianto": 44419, "points": [{"type": "Feature", "properties": {}, "geometry": {"type": "Point", "coordinates": [14.313999000123, 41.066265000123]}}], "price": 1.814, "ultima_rilevazione": "28/04/2022 20:13:07"}, {"Gestore": "MONTE DI IGNAZIO E DOMENICO MONTE S.N.C.", "Bandiera": "Agip Eni", "Tipo impianto": "Altro", "Indirizzo": "VIA TESCIONE 89 81100", "Nome impianto": "ENI", "Comune": "CASERTA", "idImpianto": 50074, "points": [{"type": "Feature", "properties": {}, "geometry": {"type": "Point", "coordinates": [14.331007377246124, 41.08518460756699]}}], "price": 1.799, "ultima_rilevazione": "29/04/2022 07:08:10"}, {"Gestore": "TOIL S.P.A.", "Bandiera": "Toil", "Tipo impianto": "Altro", "Indirizzo": "Viale Gramsci - localit\u00e0 Ercole snc 81100", "Nome impianto": "TOIL CASERTA", "Comune": "CASERTA", "idImpianto": 45113, "points": [{"type": "Feature", "properties": {}, "geometry": {"type": "Point", "coordinates": [14.318812538213136, 41.08432147003239]}}], "price": 1.799, "ultima_rilevazione": "29/04/2022 00:18:12"}, {"Gestore": "SERVIZI & GESTIONI ITALIA S.R.L.", "Bandiera": "Q8", "Tipo impianto": "Altro", "Indirizzo": "SS 7 KM. 210+326  81020", "Nome impianto": "SS 7 KM. 210+326 -  CASAPULLA", "Comune": "CASAPULLA", "idImpianto": 28275, "points": [{"type": "Feature", "properties": {}, "geometry": {"type": "Point", "coordinates": [14.296932655889124, 41.07349818008677]}}], "price": 1.815, "ultima_rilevazione": "29/04/2022 01:43:48"}], "3": [{"Gestore": "ANGELUCCI PASQUALE", "Bandiera": "Agip Eni", "Tipo impianto": "Strada Statale", "Indirizzo": "Statale 7 Via Appia, Km. 207+600, dir. sud 81055", "Nome impianto": "ENI", "Comune": "SANTA MARIA CAPUA VETERE", "idImpianto": 4240, "points": [{"type": "Feature", "properties": {}, "geometry": {"type": "Point", "coordinates": [14.266664385795591, 41.08146111804406]}}], "price": 1.759, "ultima_rilevazione": "10/04/2022 09:28:36"}, {"Gestore": "CIARAMELLA FRANCESCO S.A.S. DI FRANCESCO CIARAMELLA", "Bandiera": "Esso", "Tipo impianto": "Altro", "Indirizzo": "VIA APPIA 90 81020", "Nome impianto": "ESSO", "Comune": "SAN NICOLA LA STRADA", "idImpianto": 50027, "points": [{"type": "Feature", "properties": {}, "geometry": {"type": "Point", "coordinates": [14.33866560459137, 41.05071511630209]}}], "price": 1.739, "ultima_rilevazione": "11/04/2022 07:15:42"}, {"Gestore": "VASTANO TIZIANA", "Bandiera": "Api-Ip", "Tipo impianto": "Altro", "Indirizzo": "VIA A. VOLTA 71 81050", "Nome impianto": "STAZIONE SERVIZIO VASTANO TIZIANA", "Comune": "PORTICO DI CASERTA", "idImpianto": 39037, "points": [{"type": "Feature", "properties": {}, "geometry": {"type": "Point", "coordinates": [14.282515317790969, 41.05911433943689]}}], "price": 1.767, "ultima_rilevazione": "19/04/2022 10:50:24"}, {"Gestore": "NAPOLETANO GENNARO", "Bandiera": "Agip Eni", "Tipo impianto": "Altro", "Indirizzo": "via unita' italiana 1 81100", "Nome impianto": "Ditta Napoletano Gennaro", "Comune": "CASERTA", "idImpianto": 49793, "points": [{"type": "Feature", "properties": {}, "geometry": {"type": "Point", "coordinates": [14.341587872352584, 41.0724436028885]}}], "price": 1.749, "ultima_rilevazione": "20/04/2022 19:24:37"}, {"Gestore": "DELTA PETROLI S.R.L.", "Bandiera": "Pompe Bianche", "Tipo impianto": "Altro", "Indirizzo": "VIA ELEUTERIO RUGGIERO  81100", "Nome impianto": "DELTA PETROLI (CE)", "Comune": "CASERTA", "idImpianto": 41648, "points": [{"type": "Feature", "properties": {}, "geometry": {"type": "Point", "coordinates": [14.34679739177227, 41.081512269235446]}}], "price": 1.763, "ultima_rilevazione": "23/04/2022 10:08:15"}, {"Gestore": "PENTA PETROLI SRL", "Bandiera": "Pompe Bianche", "Tipo impianto": "Altro", "Indirizzo": "VIA FUSCO, FRAZ. MEZZANO 12 81100", "Nome impianto": "EWA POINT MEZZANO", "Comune": "CASERTA", "idImpianto": 32991, "points": [{"type": "Feature", "properties": {}, "geometry": {"type": "Point", "coordinates": [14.348132461309431, 41.09603111322016]}}], "price": 1.739, "ultima_rilevazione": "23/04/2022 11:26:36"}, {"Gestore": "PENTA PETROLI SRL", "Bandiera": "Pompe Bianche", "Tipo impianto": "Altro", "Indirizzo": "VIA GIOVANNI PAOLO 1\u00b0 SNC 81055", "Nome impianto": "EWA SANTA MARIA CAPUA VETERE", "Comune": "SANTA MARIA CAPUA VETERE", "idImpianto": 29981, "points": [{"type": "Feature", "properties": {}, "geometry": {"type": "Point", "coordinates": [14.265140891075134, 41.08839587883899]}}], "price": 1.749, "ultima_rilevazione": "23/04/2022 11:28:37"}, {"Gestore": "ENERGY AUTO S.A.S. DI PONTILLO FRANCESCA", "Bandiera": "Q8", "Tipo impianto": "Altro", "Indirizzo": "Via Giovanni Falcone 49 81100", "Nome impianto": "Stazione di Servizio Q8 - Energy Auto S.a.s. di Pontillo Francesca", "Comune": "CASERTA", "idImpianto": 51321, "points": [{"type": "Feature", "properties": {}, "geometry": {"type": "Point", "coordinates": [14.353867203704796, 41.08103274404789]}}], "price": 1.798, "ultima_rilevazione": "26/04/2022 12:54:21"}, {"Gestore": "TRAGEN S.R.L.", "Bandiera": "Gaffoil", "Tipo impianto": "Altro", "Indirizzo": "Via Nazionale Appia Km 208+50  81040", "Nome impianto": "Gaffoil Curti", "Comune": "CURTI", "idImpianto": 19199, "points": [{"type": "Feature", "properties": {}, "geometry": {"type": "Point", "coordinates": [14.27840106189251, 41.07818432957283]}}], "price": 1.767, "ultima_rilevazione": "26/04/2022 14:12:09"}, {"Gestore": "D.G. CARBURANTI s.a.s.", "Bandiera": "Q8", "Tipo impianto": "Autostradale", "Indirizzo": "A1 MILANO-NAPOLI, Km. 737+200, Nord 81020", "Nome impianto": "S.NICOLA OVEST", "Comune": "SAN NICOLA LA STRADA", "idImpianto": 3654, "points": [{"type": "Feature", "properties": {}, "geometry": {"type": "Point", "coordinates": [14.321995675563812, 41.04918429607012]}}], "price": 1.928, "ultima_rilevazione": "26/04/2022 15:30:14"}, {"Gestore": "ZARRILLO SERVICE S.A.S. DI GIOVANNI ZARRILLO & C.", "Bandiera": "Agip Eni", "Tipo impianto": "Altro", "Indirizzo": "VIA RETELLA 22 81020", "Nome impianto": "AGIP", "Comune": "CAPODRISE", "idImpianto": 20072, "points": [{"type": "Feature", "properties": {}, "geometry": {"type": "Point", "coordinates": [14.308586387731566, 41.04346465733506]}}], "price": 1.764, "ultima_rilevazione": "26/04/2022 16:44:35"}, {"Gestore": "ENRICO MASTROIANNI CARBURANTI SRL", "Bandiera": "Q8", "Tipo impianto": "Altro", "Indirizzo": "VIA CIMITERO  81026", "Nome impianto": "AREA DI SERVIZIO Q8 RECALE", "Comune": "RECALE", "idImpianto": 15629, "points": [{"type": "Feature", "properties": {}, "geometry": {"type": "Point", "coordinates": [14.307212680578232, 41.05101245700886]}}], "price": 1.749, "ultima_rilevazione": "27/04/2022 00:46:14"}, {"Gestore": "SYNERGY S.R.L.", "Bandiera": "Pompe Bianche", "Tipo impianto": "Altro", "Indirizzo": "VIA GIUSEPPE GARIBALDI  65 81047", "Nome impianto": "MACERATA CAMPANIA ", "Comune": "MACERATA CAMPANIA", "idImpianto": 48770, "points": [{"type": "Feature", "properties": {}, "geometry": {"type": "Point", "coordinates": [14.279971647238726, 41.06661528614261]}}], "price": 1.708, "ultima_rilevazione": "27/04/2022 16:09:20"}, {"Gestore": "F.D.M. CARBURANTI SRL SEMPLIFICATA", "Bandiera": "Pompe Bianche", "Tipo impianto": "Altro", "Indirizzo": "VIA MARTIRI DI CEFALONIA SP126 23 81047", "Nome impianto": "F.D.M. CARBURANTI SRLS", "Comune": "MACERATA CAMPANIA", "idImpianto": 45148, "points": [{"type": "Feature", "properties": {}, "geometry": {"type": "Point", "coordinates": [14.282564000123, 41.063480000123]}}], "price": 1.799, "ultima_rilevazione": "27/04/2022 17:26:41"}, {"Gestore": "CAVASO DANIELE", "Bandiera": "Agip Eni", "Tipo impianto": "Altro", "Indirizzo": "VIALE EUROPA 16 81025", "Nome impianto": "autostazione eni di cavaso daniele", "Comune": "MARCIANISE", "idImpianto": 31479, "points": [{"type": "Feature", "properties": {}, "geometry": {"type": "Point", "coordinates": [14.313824325799942, 41.03707989355365]}}], "price": 1.799, "ultima_rilevazione": "28/04/2022 08:14:35"}, {"Gestore": "ITALIMPIANTI S.R.L.", "Bandiera": "Pompe Bianche", "Tipo impianto": "Altro", "Indirizzo": "VIA FRATELLI ROSSELLI 19 81050", "Nome impianto": " ITALIMPIANTI", "Comune": "PORTICO DI CASERTA", "idImpianto": 32676, "points": [{"type": "Feature", "properties": {}, "geometry": {"type": "Point", "coordinates": [14.28290730370486, 41.05008535954661]}}], "price": 1.71, "ultima_rilevazione": "28/04/2022 09:09:45"}, {"Gestore": "AMOIL S.R.L.", "Bandiera": "Esso", "Tipo impianto": "Altro", "Indirizzo": "VIA FERRARECCE,88 88 81100", "Nome impianto": "AMOIL SRL", "Comune": "CASERTA", "idImpianto": 47146, "points": [{"type": "Feature", "properties": {}, "geometry": {"type": "Point", "coordinates": [14.337592000123, 41.066280000123]}}], "price": 1.794, "ultima_rilevazione": "28/04/2022 10:40:42"}, {"Gestore": "TRAGEN S.R.L.", "Bandiera": "Gaffoil", "Tipo impianto": "Altro", "Indirizzo": "Via Ponteselice  81047", "Nome impianto": "Gaffoil Musicile", "Comune": "MACERATA CAMPANIA", "idImpianto": 20710, "points": [{"type": "Feature", "properties": {}, "geometry": {"type": "Point", "coordinates": [14.290934354066849, 41.05119854710766]}}], "price": 1.728, "ultima_rilevazione": "28/04/2022 12:43:33"}, {"Gestore": "AP GESTIONE QUATTRO S.R.L.", "Bandiera": "AP Stazioni di Servizio", "Tipo impianto": "Altro", "Indirizzo": "Interno C.C. via P. Borsellino snc 81020", "Nome impianto": "Ap IPERION", "Comune": "CASERTA", "idImpianto": 40459, "points": [{"type": "Feature", "properties": {}, "geometry": {"type": "Point", "coordinates": [14.350547254216508, 41.07698999084189]}}], "price": 1.844, "ultima_rilevazione": "28/04/2022 13:15:18"}, {"Gestore": "IP SERVICE S.R.L.", "Bandiera": "Esso", "Tipo impianto": "Altro", "Indirizzo": "via ponteselice snc 81020", "Nome impianto": "Stazione di Servizio Ip Service \"ESSO\" Capodrise", "Comune": "CAPODRISE", "idImpianto": 40332, "points": [{"type": "Feature", "properties": {}, "geometry": {"type": "Point", "coordinates": [14.293845891952516, 41.04964710591644]}}], "price": 1.729, "ultima_rilevazione": "28/04/2022 13:22:22"}, {"Gestore": "T.D.M. S.R.L.", "Bandiera": "Tamoil", "Tipo impianto": "Altro", "Indirizzo": "VIA APPIA EX VIA POLVERIERA  81100", "Nome impianto": "4653", "Comune": "CASERTA", "idImpianto": 45910, "points": [{"type": "Feature", "properties": {}, "geometry": {"type": "Point", "coordinates": [14.321672457672094, 41.058777624828885]}}], "price": 1.759, "ultima_rilevazione": "29/04/2022 07:44:07"}, {"Gestore": "Borgheseservicesrl", "Bandiera": "Agip Eni", "Tipo impianto": "Autostradale", "Indirizzo": "Autostrada A1 MILANO-NAPOLI, Km. 737+200, dir. Sud ", "Nome impianto": "S.NICOLA EST", "Comune": "SAN NICOLA LA STRADA", "idImpianto": 3668, "points": [{"type": "Feature", "properties": {}, "geometry": {"type": "Point", "coordinates": [14.322657899475075, 41.05014665284766]}}], "price": 1.884, "ultima_rilevazione": "28/04/2022 13:47:30"}, {"Gestore": "ZARRILLO LUIGI", "Bandiera": "Api-Ip", "Tipo impianto": "Altro", "Indirizzo": "via R.MUSONE 75 81025", "Nome impianto": "totalerg", "Comune": "MARCIANISE", "idImpianto": 15099, "points": [{"type": "Feature", "properties": {}, "geometry": {"type": "Point", "coordinates": [14.303971230983734, 41.03724073375078]}}], "price": 1.754, "ultima_rilevazione": "28/04/2022 15:52:45"}, {"Gestore": "PAPALE LUIGI & FIGLI S.A.S. DI PAPALE LUIGI", "Bandiera": "Api-Ip", "Tipo impianto": "Altro", "Indirizzo": "Via Giorgio LA Pira  81100", "Nome impianto": "Area di Servizio \"API IP\" Papale Luigi e Figli S.r.l", "Comune": "CASERTA", "idImpianto": 47287, "points": [{"type": "Feature", "properties": {}, "geometry": {"type": "Point", "coordinates": [14.339781906745923, 41.08792091365572]}}], "price": 1.779, "ultima_rilevazione": "28/04/2022 16:21:41"}, {"Gestore": "CANTELLI RAFFAELE", "Bandiera": "Pompe Bianche", "Tipo impianto": "Altro", "Indirizzo": "via Ventriglia 70 81040", "Nome impianto": "IPERFUEL di Cantelli Raffaele (CURTI)", "Comune": "CURTI", "idImpianto": 41620, "points": [{"type": "Feature", "properties": {}, "geometry": {"type": "Point", "coordinates": [14.27390232682228, 41.07433454640584]}}], "price": 1.798, "ultima_rilevazione": "28/04/2022 18:29:37"}, {"Gestore": "ENI FUEL S.P.A.", "Bandiera": "Agip Eni", "Tipo impianto": "Altro", "Indirizzo": "V.le della Libert\u00e0, Cavalcavia SNC 81100", "Nome impianto": "CASERTA", "Comune": "CASERTA", "idImpianto": 5447, "points": [{"type": "Feature", "properties": {}, "geometry": {"type": "Point", "coordinates": [14.32765362532598, 41.066684732453815]}}], "price": 1.799, "ultima_rilevazione": "29/04/2022 00:14:07"}, {"Gestore": "EGI-2GO S.R.L.", "Bandiera": "Esso", "Tipo impianto": "Altro", "Indirizzo": "VIA VITTORIO VENETO 5 81100", "Nome impianto": "Caserta", "Comune": "CASERTA", "idImpianto": 47999, "points": [{"type": "Feature", "properties": {}, "geometry": {"type": "Point", "coordinates": [14.330476294477451, 41.07012871403312]}}], "price": 1.789, "ultima_rilevazione": "29/04/2022 06:29:34"}, {"Gestore": "ENI FUEL S.P.A.", "Bandiera": "Agip Eni", "Tipo impianto": "Altro", "Indirizzo": "SS 87 Km 22 + 200 Viale Carlo III di Borbone  81020", "Nome impianto": "08488 \u2013 San Nicola La Strada", "Comune": "SAN NICOLA LA STRADA", "idImpianto": 50779, "points": [{"type": "Feature", "properties": {}, "geometry": {"type": "Point", "coordinates": [14.325036980839512, 41.03896202319381]}}], "price": 1.799, "ultima_rilevazione": "29/04/2022 07:26:07"}], "5": [{"Gestore": "KING FUEL SOCIETA' A RESPONSABILITA' LIMITATA", "Bandiera": "Q8", "Tipo impianto": "Altro", "Indirizzo": "S.S.7/265KM3+707  81100", "Nome impianto": "Q8", "Comune": "CASERTA", "idImpianto": 45719, "points": [{"type": "Feature", "properties": {}, "geometry": {"type": "Point", "coordinates": [14.360240541909093, 41.05435613493263]}}], "price": 1.759, "ultima_rilevazione": "16/04/2022 14:48:26"}, {"Gestore": "CAIAZZO ANTONIO", "Bandiera": "Api-Ip", "Tipo impianto": "Altro", "Indirizzo": "VIA DEL LAVORO 168 80133", "Nome impianto": "TOTAL ERG", "Comune": "SANTA MARIA CAPUA VETERE", "idImpianto": 43034, "points": [{"type": "Feature", "properties": {}, "geometry": {"type": "Point", "coordinates": [14.241968000000044, 41.08806602158177]}}], "price": 1.729, "ultima_rilevazione": "20/04/2022 12:48:09"}, {"Gestore": "VERNAGAS GROUP S.R.L.", "Bandiera": "Pompe Bianche", "Tipo impianto": "Altro", "Indirizzo": "S.S. 7 KM 215+500 - LOC. CENTURANO SNC 81100", "Nome impianto": "VERNAOIL - CENTURANO", "Comune": "CASERTA", "idImpianto": 31958, "points": [{"type": "Feature", "properties": {}, "geometry": {"type": "Point", "coordinates": [14.35662876919048, 41.07326656897936]}}], "price": 1.799, "ultima_rilevazione": "20/04/2022 16:06:37"}, {"Gestore": "A.G. OIL SAS DI GOLINO GIOVANNI & C.", "Bandiera": "Esso", "Tipo impianto": "Altro", "Indirizzo": " S.S. 265 KM 34+657 SNC 81025", "Nome impianto": "A.G.OIL", "Comune": "MARCIANISE", "idImpianto": 23464, "points": [{"type": "Feature", "properties": {}, "geometry": {"type": "Point", "coordinates": [14.27826754470516, 41.03726769989665]}}], "price": 1.739, "ultima_rilevazione": "22/04/2022 09:49:41"}, {"Gestore": "LOGI-CA S.R.L.", "Bandiera": "Pompe Bianche", "Tipo impianto": "Altro", "Indirizzo": "SP 325 VIA L. FUCCIA SNC 81025", "Nome impianto": "CPM", "Comune": "MARCIANISE", "idImpianto": 35389, "points": [{"type": "Feature", "properties": {}, "geometry": {"type": "Point", "coordinates": [14.26644881974994, 41.03678309275059]}}], "price": 1.735, "ultima_rilevazione": "22/04/2022 16:35:04"}, {"Gestore": "PENTA PETROLI SRL", "Bandiera": "Pompe Bianche", "Tipo impianto": "Altro", "Indirizzo": "VIA LIBERTA' SNC 81043", "Nome impianto": "EWA POINT SANT'ANGELO IN FORMIS", "Comune": "CAPUA", "idImpianto": 30088, "points": [{"type": "Feature", "properties": {}, "geometry": {"type": "Point", "coordinates": [14.25141267478466, 41.108728933244]}}], "price": 1.733, "ultima_rilevazione": "23/04/2022 11:27:52"}, {"Gestore": "AMATO SANTOLO", "Bandiera": "Api-Ip", "Tipo impianto": "Altro", "Indirizzo": "VIA GALATINA  81100", "Nome impianto": "AMATO SANTOLO", "Comune": "CASERTA", "idImpianto": 24458, "points": [{"type": "Feature", "properties": {}, "geometry": {"type": "Point", "coordinates": [14.36886727809906, 41.06008090532538]}}], "price": 1.739, "ultima_rilevazione": "26/04/2022 07:41:05"}, {"Gestore": "TOM & FEDE S.R.L.", "Bandiera": "Api-Ip", "Tipo impianto": "Altro", "Indirizzo": "VIALE DELLE INDUSTRIE SNC 81100", "Nome impianto": "TOM & FEDE ", "Comune": "CASERTA", "idImpianto": 32400, "points": [{"type": "Feature", "properties": {}, "geometry": {"type": "Point", "coordinates": [14.356964975595474, 41.05073938903236]}}], "price": 1.749, "ultima_rilevazione": "26/04/2022 10:04:56"}, {"Gestore": "MAINA LUIGI", "Bandiera": "Api-Ip", "Tipo impianto": "Altro", "Indirizzo": "via martin lutherking  81025", "Nome impianto": "STAZIONE DI SERVIZIO IP di LUIGI MAINA", "Comune": "MARCIANISE", "idImpianto": 42695, "points": [{"type": "Feature", "properties": {}, "geometry": {"type": "Point", "coordinates": [14.28268969403564, 41.03636633464852]}}], "price": 1.749, "ultima_rilevazione": "26/04/2022 10:41:33"}, {"Gestore": "MARZIA PETROLI S.R.L.", "Bandiera": "Pompe Bianche", "Tipo impianto": "Altro", "Indirizzo": "STRADA PROV.13 AVERSA-S.M.C.V. SNC 81055", "Nome impianto": "Marzia petroli Srl", "Comune": "SANTA MARIA CAPUA VETERE", "idImpianto": 49641, "points": [{"type": "Feature", "properties": {}, "geometry": {"type": "Point", "coordinates": [14.2486145133258, 41.05670764550968]}}], "price": 1.719, "ultima_rilevazione": "26/04/2022 17:58:24"}, {"Gestore": "SACCO VITALIANO S.R.L.", "Bandiera": "Agip Eni", "Tipo impianto": "Altro", "Indirizzo": "VIA MARCHESIELLO 72 81100", "Nome impianto": "AGIP Sacco Vitaliano", "Comune": "CASERTA", "idImpianto": 19380, "points": [{"type": "Feature", "properties": {}, "geometry": {"type": "Point", "coordinates": [14.3562650453689, 41.07615341457402]}}], "price": 1.988, "ultima_rilevazione": "27/04/2022 13:06:04"}, {"Gestore": "F.B. OIL S.A.S. DI ANGELO BONAVOLONTA' E C.", "Bandiera": "Api-Ip", "Tipo impianto": "Altro", "Indirizzo": "VIA GALATINA 167 81055", "Nome impianto": "Area Servizio IP F. B. OIL SAS ", "Comune": "SANTA MARIA CAPUA VETERE", "idImpianto": 46308, "points": [{"type": "Feature", "properties": {}, "geometry": {"type": "Point", "coordinates": [14.253548383712769, 41.08872936731931]}}], "price": 1.799, "ultima_rilevazione": "27/04/2022 13:51:11"}, {"Gestore": "FADDIMM  S.R.L.", "Bandiera": "Repsol", "Tipo impianto": "Altro", "Indirizzo": "VIALE DELLA LIBERTA' 53 81020", "Nome impianto": "REPSOL", "Comune": "SAN MARCO EVANGELISTA", "idImpianto": 46739, "points": [{"type": "Feature", "properties": {}, "geometry": {"type": "Point", "coordinates": [14.335293883432428, 41.03597694204142]}}], "price": 1.763, "ultima_rilevazione": "27/04/2022 20:25:53"}, {"Gestore": "CARBURANTI S.A.S. DI RAZZANO MICHELE E C.", "Bandiera": "Agip Eni", "Tipo impianto": "Altro", "Indirizzo": "VIA KENNEDY SNC 81025", "Nome impianto": "stazione eni 18451", "Comune": "MARCIANISE", "idImpianto": 19453, "points": [{"type": "Feature", "properties": {}, "geometry": {"type": "Point", "coordinates": [14.296415448188782, 41.02668898643588]}}], "price": 1.794, "ultima_rilevazione": "28/04/2022 08:43:33"}, {"Gestore": "CARBURANTI S.A.S. DI RAZZANO MICHELE E C.", "Bandiera": "Agip Eni", "Tipo impianto": "Altro", "Indirizzo": "VIA XXV  APRILE LOC. GROIA, 81025  81025", "Nome impianto": "stazione eni 18452", "Comune": "MARCIANISE", "idImpianto": 38416, "points": [{"type": "Feature", "properties": {}, "geometry": {"type": "Point", "coordinates": [14.315212368965147, 41.02471951469107]}}], "price": 1.794, "ultima_rilevazione": "28/04/2022 08:44:01"}, {"Gestore": "DITTA COPPOLA GIUSEPPE", "Bandiera": "Agip Eni", "Tipo impianto": "Altro", "Indirizzo": "VIA DEL LAVORO 164 81055", "Nome impianto": "self area agip e autolavaggio", "Comune": "SANTA MARIA CAPUA VETERE", "idImpianto": 15028, "points": [{"type": "Feature", "properties": {}, "geometry": {"type": "Point", "coordinates": [14.241987692590328, 41.08806718113692]}}], "price": 1.799, "ultima_rilevazione": "28/04/2022 09:51:22"}, {"Gestore": "TRAGEN S.R.L.", "Bandiera": "Gaffoil", "Tipo impianto": "Altro", "Indirizzo": "via anfiteatro  81055", "Nome impianto": "Gaffoil SMCV", "Comune": "SANTA MARIA CAPUA VETERE", "idImpianto": 14923, "points": [{"type": "Feature", "properties": {}, "geometry": {"type": "Point", "coordinates": [14.250153377652168, 41.08216226937119]}}], "price": 1.748, "ultima_rilevazione": "28/04/2022 12:43:52"}, {"Gestore": "AP GESTIONE QUATTRO S.R.L.", "Bandiera": "AP Stazioni di Servizio", "Tipo impianto": "Altro", "Indirizzo": "Strada Provinciale 336 km. 20+600 (ex SS 87 Sannitica) snc 81020", "Nome impianto": "Ap San Marco Evangelista", "Comune": "SAN MARCO EVANGELISTA", "idImpianto": 37426, "points": [{"type": "Feature", "properties": {}, "geometry": {"type": "Point", "coordinates": [14.325212851199469, 41.0355390110562]}}], "price": 1.824, "ultima_rilevazione": "28/04/2022 13:14:40"}, {"Gestore": "DI GIACINTO CARBURANTI S.A.S. DI DI GIACINTO SALVATORE E C.", "Bandiera": "Agip Eni", "Tipo impianto": "Altro", "Indirizzo": "VIA LEONARDO DA VINCI S.N.C. 81025", "Nome impianto": "stazione ENI", "Comune": "MARCIANISE", "idImpianto": 20641, "points": [{"type": "Feature", "properties": {}, "geometry": {"type": "Point", "coordinates": [14.290830279098486, 41.02347225955599]}}], "price": 1.794, "ultima_rilevazione": "28/04/2022 18:08:21"}, {"Gestore": "GESTIONE ITALIA SOCIETA' A RESPONSABILITA' LIMITATA", "Bandiera": "ALIFUEL", "Tipo impianto": "Altro", "Indirizzo": "Via S.P. Galatina Snc 81055", "Nome impianto": "ALI FUEL - SANTA MARIA CAPUA VETERE", "Comune": "SANTA MARIA CAPUA VETERE", "idImpianto": 41007, "points": [{"type": "Feature", "properties": {}, "geometry": {"type": "Point", "coordinates": [14.252582617057785, 41.10154144233076]}}], "price": 1.759, "ultima_rilevazione": "29/04/2022 06:02:10"}, {"Gestore": "SERVIZI & GESTIONI ITALIA S.R.L.", "Bandiera": "Q8", "Tipo impianto": "Altro", "Indirizzo": "SS.87 SANNITICA KM.21+108  81025", "Nome impianto": "MARCIANISE SS.87 SANNITICA KM.21+108", "Comune": "MARCIANISE", "idImpianto": 25308, "points": [{"type": "Feature", "properties": {}, "geometry": {"type": "Point", "coordinates": [14.32465790674587, 41.02863894681816]}}], "price": 1.804, "ultima_rilevazione": "29/04/2022 01:43:48"}, {"Gestore": "SERVIZI & GESTIONI ITALIA srl", "Bandiera": "Q8", "Tipo impianto": "Altro", "Indirizzo": "VIA MARTIN LUTER KING STAZ.Q8 SNC 81025", "Nome impianto": "MARCIANISE VIA MARTIN LUTER KING STAZ.Q8", "Comune": "MARCIANISE", "idImpianto": 6720, "points": [{"type": "Feature", "properties": {}, "geometry": {"type": "Point", "coordinates": [14.283066193254058, 41.03287474303295]}}], "price": 1.749, "ultima_rilevazione": "29/04/2022 07:13:18"}]}, "Metano": {"1": [], "3": [{"Gestore": "C.M.C. CARBURANTI S.R.L.", "Bandiera": "Pompe Bianche", "Tipo impianto": "Strada Statale", "Indirizzo": "Strada Statale, Km. SNC, Nord 81043", "Nome impianto": "CMC CARBURANTI", "Comune": "CAPUA", "idImpianto": 47439, "points": [{"type": "Feature", "properties": {}, "geometry": {"type": "Point", "coordinates": [14.29036049702836, 41.12883713453458]}}], "price": 1.56, "ultima_rilevazione": "28/04/2022 10:50:53"}, {"Gestore": "Borgheseservicesrl", "Bandiera": "Agip Eni", "Tipo impianto": "Autostradale", "Indirizzo": "Autostrada A1 MILANO-NAPOLI, Km. 737+200, dir. Sud ", "Nome impianto": "S.NICOLA EST", "Comune": "SAN NICOLA LA STRADA", "idImpianto": 3668, "points": [{"type": "Feature", "properties": {}, "geometry": {"type": "Point", "coordinates": [14.322657899475075, 41.05014665284766]}}], "price": 2.69, "ultima_rilevazione": "28/04/2022 13:47:30"}], "5": [{"Gestore": "AMATO SANTOLO", "Bandiera": "Api-Ip", "Tipo impianto": "Altro", "Indirizzo": "VIA GALATINA  81100", "Nome impianto": "AMATO SANTOLO", "Comune": "CASERTA", "idImpianto": 24458, "points": [{"type": "Feature", "properties": {}, "geometry": {"type": "Point", "coordinates": [14.36886727809906, 41.06008090532538]}}], "price": 1.59, "ultima_rilevazione": "26/04/2022 07:41:05"}, {"Gestore": "CARBURANTI S.A.S. DI RAZZANO MICHELE E C.", "Bandiera": "Agip Eni", "Tipo impianto": "Altro", "Indirizzo": "VIA XXV APRILE  81025", "Nome impianto": "stazione eni 18470/18461", "Comune": "MARCIANISE", "idImpianto": 38418, "points": [{"type": "Feature", "properties": {}, "geometry": {"type": "Point", "coordinates": [14.313537329435349, 41.02469766053227]}}], "price": 2.549, "ultima_rilevazione": "28/04/2022 08:44:34"}, {"Gestore": "AP GESTIONE QUATTRO S.R.L.", "Bandiera": "AP Stazioni di Servizio", "Tipo impianto": "Altro", "Indirizzo": "Strada Provinciale 336 km. 20+600 (ex SS 87 Sannitica) snc 81020", "Nome impianto": "Ap San Marco Evangelista", "Comune": "SAN MARCO EVANGELISTA", "idImpianto": 37426, "points": [{"type": "Feature", "properties": {}, "geometry": {"type": "Point", "coordinates": [14.325212851199469, 41.0355390110562]}}], "price": 2.999, "ultima_rilevazione": "28/04/2022 13:14:40"}]}}