{"area_comune": "[{\"type\": \"Feature\", \"properties\": {}, \"geometry\": {\"type\": \"Polygon\", \"coordinates\": [[[8.833434745988852, 45.69678551936559], [8.834338088051398, 45.69403697113846], [8.833445502190909, 45.69099230942393], [8.83301008750479, 45.690151822129444], [8.834297533088069, 45.683782477708576], [8.843321438730454, 45.66645989734843], [8.84672767468547, 45.66688323941253], [8.846287345223569, 45.6600734928687], [8.846834107454976, 45.658841603844714], [8.849034847668262, 45.655438929365054], [8.849488677712388, 45.65504559878105], [8.850400559296817, 45.65267685240936], [8.850722901872555, 45.65063456023474], [8.849651906645223, 45.64785772194581], [8.845706938811837, 45.642653841010734], [8.832237361168772, 45.64078751996919], [8.82697200931249, 45.64704858719133], [8.81954503829907, 45.65845408080032], [8.808115888251779, 45.67513756143681], [8.806512836539627, 45.68048936225361], [8.806610769132122, 45.68456619122545], [8.812492842967245, 45.688590151250075], [8.819244115358858, 45.68866986151697], [8.823245063633511, 45.691324309626175], [8.824246616679657, 45.69243481767139], [8.825838404212488, 45.6942694778711], [8.828788087100468, 45.69919755601976], [8.829182333238114, 45.700980284193754], [8.8294899120607, 45.70495458834056], [8.829012126085875, 45.705898962190496], [8.833432371443608, 45.705275434359564], [8.833434745988852, 45.69678551936559]]]}}]", "comune": "cassano-magnago", "buffer_1": "[{\"type\": \"Feature\", \"properties\": {}, \"geometry\": {\"type\": \"Polygon\", \"coordinates\": [[[8.845596175647962, 45.6996822994771], [8.845858158056503, 45.69907198029412], [8.863136819036459, 45.652919148914094], [8.863396242248797, 45.6520547969405], [8.863533608444287, 45.651176773947384], [8.863547600411781, 45.650293535980715], [8.863438089205767, 45.649413588916175], [8.863206135165244, 45.648545406543214], [8.862853977482736, 45.64769734897343], [8.862385012432402, 45.64687758215828], [8.86180376047485, 45.646093999289974], [8.861115822562693, 45.64535414484131], [8.86032782607377, 45.64466514197356], [8.859447360897681, 45.64403362400915], [8.858482906294531, 45.643465670626405], [8.839998356873505, 45.63361987492996], [8.838943129457594, 45.63311371377866], [8.837821362025256, 45.63268372103013], [8.836644186934945, 45.63233416338416], [8.835423285622085, 45.63206850933181], [8.834170772805983, 45.631889394784324], [8.83289907642643, 45.63179859695418], [8.831620814494025, 45.63179701674591], [8.830348670068023, 45.63188466983002], [8.829095265593432, 45.63206068648814], [8.82787303783536, 45.63232332023065], [8.826694114642772, 45.63266996510211], [8.825570194756244, 45.63309718150382], [8.824512431844981, 45.633600730279056], [8.823531323917543, 45.634175614724896], [8.822636609198906, 45.63481613011655], [8.821837169503887, 45.63551592025522], [8.821140942064451, 45.636268040481944], [8.820554840686293, 45.63706502653467], [8.794823779837301, 45.67676425293152], [8.794359066101796, 45.677585394343346], [8.794011408311079, 45.67843451353033], [8.793784160282446, 45.67930343222616], [8.793679516466964, 45.68018378108771], [8.793698490602262, 45.681067080286816], [8.793840905727226, 45.68194482118098], [8.794105395663202, 45.68280854827683], [8.79448941795608, 45.68364994069667], [8.794989278162937, 45.68446089236274], [8.79560016525713, 45.68523359012564], [8.818096400705144, 45.71064531330864], [8.8188130477538, 45.71137216815098], [8.81962796830753, 45.71204630035699], [8.820533313438625, 45.71266121421005], [8.821520362045582, 45.713210984398835], [8.82257960486731, 45.71369031317175], [8.823700836133066, 45.71409458144464], [8.824873251963353, 45.7144198933659], [8.826085554570389, 45.71466311390777], [8.82732606124942, 45.71482189911849], [8.828582817104778, 45.71489471874246], [8.829843710417418, 45.714880870988516], [8.831096589534686, 45.71478048930321], [8.832329380147735, 45.71459454108323], [8.833530201818347, 45.71432481833945], [8.834687482624242, 45.713973920403326], [8.835790070810642, 45.71354522884334], [8.836827342365632, 45.713042874834755], [8.837789303477058, 45.712471699299435], [8.838666686879547, 45.71183720620195], [8.839451041160476, 45.71114550945493], [8.840134812163216, 45.71040327394766], [8.840711415703788, 45.70961765126943], [8.841175300902448, 45.708796210749455], [8.845596175647962, 45.6996822994771]]]}}]", "buffer_3": "[{\"type\": \"Feature\", \"properties\": {}, \"geometry\": {\"type\": \"Polygon\", \"coordinates\": [[[8.869922810830703, 45.7054719757426], [8.870708028768297, 45.70364084992504], [8.887967689125901, 45.657484279634154], [8.88874485275134, 45.654891053449994], [8.889155771334352, 45.65225689235314], [8.889196538604647, 45.649607168007336], [8.888866814173285, 45.64696739842586], [8.888169824804178, 45.64436300221078], [8.88711233136442, 45.64181905388565], [8.88570456184753, 45.63936004267316], [8.883960111186154, 45.63700963703105], [8.881895808883673, 45.63479045719912], [8.879531555794642, 45.63272385792959], [8.876890131669539, 45.63082972347103], [8.873996975347792, 45.62912627675588], [8.855514410444552, 45.61928296886588], [8.852349171114149, 45.61776488271706], [8.8489845291916, 45.61647526360102], [8.845453855599516, 45.615426897414046], [8.841792160930645, 45.61463017749926], [8.838035749402106, 45.61409300201206], [8.834221860244066, 45.61382069594149], [8.830388300012732, 45.61381595854485], [8.826573069399487, 45.61407883670598], [8.822813988157668, 45.61460672447558], [8.819148321785397, 45.615394388797775], [8.815612413587045, 45.61643402117327], [8.812241325687287, 45.61771531475747], [8.809068492490795, 45.61922556614434], [8.806125389967733, 45.62094980084676], [8.803441224001151, 45.62287092125221], [8.801042640858004, 45.62496987561225], [8.798953462642146, 45.62722584641763], [8.797194450356361, 45.62961645631826], [8.77145033064383, 45.6693104480494], [8.770055310499213, 45.67177358255876], [8.769011312587512, 45.67432071530408], [8.768328437701319, 45.67692732013688], [8.768013312631323, 45.67956829485415], [8.768069024457496, 45.682218202748366], [8.768495088831282, 45.68485151751135], [8.769287452630339, 45.68744286913762], [8.770438531037597, 45.6899672884581], [8.77193727876301, 45.69240044794286], [8.77376929479302, 45.69471889644272], [8.796259412345634, 45.72013486547862], [8.798408921101782, 45.72231582280035], [8.80085347991867, 45.724338634126816], [8.803569549857281, 45.72618379635499], [8.806530966322235, 45.72783351736446], [8.809709191150896, 45.72927188810442], [8.81307358796006, 45.73048503652501], [8.816591718080991, 45.73146126184368], [8.820229654200487, 45.73219114782843], [8.823952308641825, 45.73266765398505], [8.82772377306673, 45.732886183750324], [8.831507666259988, 45.732844629020796], [8.835267486573628, 45.73254339057784], [8.838966965558646, 45.731985374207824], [8.842570419299683, 45.73117596255573], [8.846043093992241, 45.73012296298892], [8.84935150236235, 45.72883653198489], [8.852463747624553, 45.72732907678669], [8.855349831804254, 45.72561513529321], [8.857981945413309, 45.723711235364476], [8.86033473566115, 45.721635734922195], [8.862385550605406, 45.719408644412766], [8.864114656892962, 45.71705143336987], [8.86550542901205, 45.71458682296626], [8.869922810830703, 45.7054719757426]]]}}]", "buffer_5": "[{\"type\": \"Feature\", \"properties\": {}, \"geometry\": {\"type\": \"Polygon\", \"coordinates\": [[[8.894254476887262, 45.711256470793685], [8.895561956907512, 45.70820431444225], [8.912802602233363, 45.66204401269611], [8.914096030478332, 45.65772168603648], [8.914778927497158, 45.65333126485739], [8.914844858497295, 45.64891504108547], [8.914293333581712, 45.64451554532782], [8.913129806892544, 45.64017513725348], [8.911365618604073, 45.63593559799922], [8.909017880533865, 45.63183772851089], [8.906109306671658, 45.62792095766095], [8.902667990436518, 45.62422296387546], [8.898727130959388, 45.62077931386307], [8.894324711146943, 45.61762312186365], [8.889503130710557, 45.61478473263102], [8.87102255292228, 45.60494391077173], [8.865747892672161, 45.60241442883986], [8.86014125662388, 45.60026566163545], [8.854258219405962, 45.598518895371875], [8.84815707587887, 45.59719143212542], [8.841898266609107, 45.59629641957058], [8.83554378280579, 45.59584272164157], [8.829156556433102, 45.59583483135769], [8.822799841337146, 45.59627282664617], [8.81653659130116, 45.59715236958433], [8.810428840968791, 45.59846474906797], [8.80453709555088, 45.60019696649782], [8.798919735157327, 45.602331863664446], [8.79363243947201, 45.60484829160666], [8.788727638316152, 45.60772131882512], [8.784253993424235, 45.61092247685188], [8.780255916487684, 45.61442004081351], [8.776773128205997, 45.618179342282836], [8.773840262724194, 45.622163111395494], [8.748083102247106, 45.66185186461323], [8.745756605506818, 45.66595660543439], [8.744014902844516, 45.67020145133061], [8.742874894359685, 45.67454553984521], [8.742347697013631, 45.67894704373445], [8.742438532343513, 45.68336357317137], [8.743146670666487, 45.687752583733555], [8.744465432522196, 45.692071786258865], [8.746382247554608, 45.69627955462019], [8.7488787704764, 45.70033532747617], [8.751931053196873, 45.70420000009812], [8.774415039914556, 45.72962021413055], [8.777996831998454, 45.73325579763354], [8.782070756971727, 45.73662784119377], [8.786597596484961, 45.739703813023354], [8.791533740839405, 45.74245403257039], [8.79683160920316, 45.74485195837315], [8.802440109177711, 45.746874445631136], [8.808305131241337, 45.74850197093799], [8.814370073218996, 45.749718821942075], [8.82057638960157, 45.75051325004586], [8.826864160265087, 45.750877584620994], [8.833172672927153, 45.750808307597865], [8.83944101352605, 45.750306087684265], [8.845608658620177, 45.749375773870355], [8.851616063883064, 45.74802634828498], [8.857405242812362, 45.746270838873905], [8.862920329879358, 45.74412619277272], [8.868108122517082, 45.74161311163779], [8.87291859657755, 45.73875585057714], [8.877305390178535, 45.7355819826821], [8.881226251203527, 45.73212213149891], [8.884643444110324, 45.728409674091814], [8.887524112138355, 45.72448041763313], [8.889840591477018, 45.72037225270924], [8.894254476887262, 45.711256470793685]]]}}]", "centroid": "[{\"type\": \"Feature\", \"properties\": {}, \"geometry\": {\"type\": \"Point\", \"coordinates\": [8.830015672986224, 45.672621864737245]}}]", "Diesel High Quality": {"1": [], "3": [{"Gestore": "LEPRI MARCO", "Bandiera": "Esso", "Tipo impianto": "Strada Statale", "Indirizzo": "Statale 33 del Sempione, Km. 144, dir. NORD 21052", "Nome impianto": "ESSO SEMPIONE", "Comune": "BUSTO ARSIZIO", "idImpianto": 9058, "points": [{"type": "Feature", "properties": {}, "geometry": {"type": "Point", "coordinates": [8.841612339019775, 45.62873718186091]}}], "price": 2.076, "ultima_rilevazione": "21/07/2022 09:51:56"}, {"Gestore": "LEPRI MARCO", "Bandiera": "Esso", "Tipo impianto": "Altro", "Indirizzo": "CORSO ITALIA  21052", "Nome impianto": "ESSO ITALIA", "Comune": "BUSTO ARSIZIO", "idImpianto": 9059, "points": [{"type": "Feature", "properties": {}, "geometry": {"type": "Point", "coordinates": [8.83901059627533, 45.615347715796815]}}], "price": 2.076, "ultima_rilevazione": "21/07/2022 09:52:27"}, {"Gestore": "BOSATELLI BRUNO & C. - S.A.S.", "Bandiera": "Esso", "Tipo impianto": "Altro", "Indirizzo": "VIA PER FAGNANO 24 21052", "Nome impianto": "ESSO", "Comune": "BUSTO ARSIZIO", "idImpianto": 10021, "points": [{"type": "Feature", "properties": {}, "geometry": {"type": "Point", "coordinates": [8.857867866754532, 45.62548446746924]}}], "price": 2.066, "ultima_rilevazione": "21/07/2022 18:19:47"}, {"Gestore": "BROMAR S.N.C. DI BROCCOLO SONIA E C.", "Bandiera": "Q8", "Tipo impianto": "Altro", "Indirizzo": "VIA TORINO, ANGOLO VIA CHECCHI 82 21013", "Nome impianto": "BROMAR S.N.C.", "Comune": "GALLARATE", "idImpianto": 10555, "points": [{"type": "Feature", "properties": {}, "geometry": {"type": "Point", "coordinates": [8.792936000123, 45.644901000123]}}], "price": 2.264, "ultima_rilevazione": "23/07/2022 08:24:29"}, {"Gestore": "BROMAR S.N.C. DI BROCCOLO SONIA E C.", "Bandiera": "Q8", "Tipo impianto": "Altro", "Indirizzo": "VIA TORINO, ANGOLO VIA CHECCHI 82 21013", "Nome impianto": "BROMAR S.N.C.", "Comune": "GALLARATE", "idImpianto": 10555, "points": [{"type": "Feature", "properties": {}, "geometry": {"type": "Point", "coordinates": [8.792936000123, 45.644901000123]}}], "price": 2.294, "ultima_rilevazione": "23/07/2022 08:24:29"}, {"Gestore": "IP SERVICES S.R.L.", "Bandiera": "Api-Ip", "Tipo impianto": "Altro", "Indirizzo": "via Sanzio 15 21013", "Nome impianto": "Gallarate Sanzio", "Comune": "GALLARATE", "idImpianto": 38380, "points": [{"type": "Feature", "properties": {}, "geometry": {"type": "Point", "coordinates": [8.795668647815774, 45.66804046676662]}}], "price": 1.899, "ultima_rilevazione": "24/07/2022 09:03:14"}, {"Gestore": "SERVIZI & GESTIONI ITALIA S.R.L.", "Bandiera": "Q8", "Tipo impianto": "Altro", "Indirizzo": "CORSO ITALIA 23 21052", "Nome impianto": "BUSTO ARSIZIO-CORSO ITALIA 23", "Comune": "BUSTO ARSIZIO", "idImpianto": 11922, "points": [{"type": "Feature", "properties": {}, "geometry": {"type": "Point", "coordinates": [8.846762449073822, 45.62081875947187]}}], "price": 2.129, "ultima_rilevazione": "25/07/2022 00:36:29"}, {"Gestore": "SERVIZI & GESTIONI ITALIA S.R.L.", "Bandiera": "Q8", "Tipo impianto": "Altro", "Indirizzo": "CORSO ITALIA 23 21052", "Nome impianto": "BUSTO ARSIZIO-CORSO ITALIA 23", "Comune": "BUSTO ARSIZIO", "idImpianto": 11922, "points": [{"type": "Feature", "properties": {}, "geometry": {"type": "Point", "coordinates": [8.846762449073822, 45.62081875947187]}}], "price": 2.199, "ultima_rilevazione": "25/07/2022 00:36:29"}], "5": [{"Gestore": "MALNATI, RIGANTI & C. S.N.C.", "Bandiera": "Esso", "Tipo impianto": "Altro", "Indirizzo": "VIALE MILANO 27, 21040", "Nome impianto": "MALNATI RIGANTI & C. Snc", "Comune": "CARONNO VARESINO", "idImpianto": 8319, "points": [{"type": "Feature", "properties": {}, "geometry": {"type": "Point", "coordinates": [8.832143964279112, 45.73282738197626]}}], "price": 2.003, "ultima_rilevazione": "23/07/2022 08:42:58"}, {"Gestore": "SERVIZI & GESTIONI ITALIA srl", "Bandiera": "Q8", "Tipo impianto": "Altro", "Indirizzo": "V.LE RIMEMBRANZE 53 21052", "Nome impianto": "BUSTO ARSIZIO V.LE RIMEMBRANZE  53", "Comune": "BUSTO ARSIZIO", "idImpianto": 6459, "points": [{"type": "Feature", "properties": {}, "geometry": {"type": "Point", "coordinates": [8.833518582942133, 45.60909492679454]}}], "price": 2.129, "ultima_rilevazione": "25/07/2022 00:36:30"}, {"Gestore": "SERVIZI & GESTIONI ITALIA srl", "Bandiera": "Q8", "Tipo impianto": "Altro", "Indirizzo": "V.LE RIMEMBRANZE 53 21052", "Nome impianto": "BUSTO ARSIZIO V.LE RIMEMBRANZE  53", "Comune": "BUSTO ARSIZIO", "idImpianto": 6459, "points": [{"type": "Feature", "properties": {}, "geometry": {"type": "Point", "coordinates": [8.833518582942133, 45.60909492679454]}}], "price": 2.199, "ultima_rilevazione": "25/07/2022 00:36:30"}]}, "Blue Diesel": {"1": [{"Gestore": "COZZI ANDREA", "Bandiera": "Agip Eni", "Tipo impianto": "Altro", "Indirizzo": "VIA VARESE 14 21013", "Nome impianto": "ENI", "Comune": "GALLARATE", "idImpianto": 28889, "points": [{"type": "Feature", "properties": {}, "geometry": {"type": "Point", "coordinates": [8.797299733729574, 45.67431099042725]}}], "price": 1.969, "ultima_rilevazione": "23/07/2022 06:59:21"}, {"Gestore": "COZZI ANDREA", "Bandiera": "Agip Eni", "Tipo impianto": "Altro", "Indirizzo": "VIA VARESE 14 21013", "Nome impianto": "ENI", "Comune": "GALLARATE", "idImpianto": 28889, "points": [{"type": "Feature", "properties": {}, "geometry": {"type": "Point", "coordinates": [8.797299733729574, 45.67431099042725]}}], "price": 2.029, "ultima_rilevazione": "23/07/2022 06:59:21"}, {"Gestore": "GESTIONI INNOVATIVE ITALIA S.R.L.", "Bandiera": "Agip Eni", "Tipo impianto": "Altro", "Indirizzo": "VIA IV NOVEMBRE 16, 21012", "Nome impianto": "PV 2828", "Comune": "CASSANO MAGNAGO", "idImpianto": 25391, "points": [{"type": "Feature", "properties": {}, "geometry": {"type": "Point", "coordinates": [8.822863698005676, 45.67164085351821]}}], "price": 1.944, "ultima_rilevazione": "25/07/2022 00:14:06"}, {"Gestore": "BEMA SAS DI ANDREA BERTOLASO & C.", "Bandiera": "Agip Eni", "Tipo impianto": "Altro", "Indirizzo": "VIA BONICALZA 127 21012", "Nome impianto": "Eni 02862 Cassano Magnago", "Comune": "CASSANO MAGNAGO", "idImpianto": 45389, "points": [{"type": "Feature", "properties": {}, "geometry": {"type": "Point", "coordinates": [8.843454000123, 45.660386000123]}}], "price": 1.969, "ultima_rilevazione": "25/07/2022 06:48:54"}], "3": [{"Gestore": "ELLEPI SERVICE DI LUCA PULVIRENTI", "Bandiera": "Agip Eni", "Tipo impianto": "Altro", "Indirizzo": "via ercole ferrario 1 21013", "Nome impianto": "02908", "Comune": "GALLARATE", "idImpianto": 28790, "points": [{"type": "Feature", "properties": {}, "geometry": {"type": "Point", "coordinates": [8.792808172521973, 45.65281493830711]}}], "price": 1.999, "ultima_rilevazione": "21/07/2022 17:24:44"}, {"Gestore": "ELLEPI SERVICE DI LUCA PULVIRENTI", "Bandiera": "Agip Eni", "Tipo impianto": "Altro", "Indirizzo": "via ercole ferrario 1 21013", "Nome impianto": "02908", "Comune": "GALLARATE", "idImpianto": 28790, "points": [{"type": "Feature", "properties": {}, "geometry": {"type": "Point", "coordinates": [8.792808172521973, 45.65281493830711]}}], "price": 2.059, "ultima_rilevazione": "21/07/2022 17:24:44"}, {"Gestore": "DEDA ASTRIT", "Bandiera": "Agip Eni", "Tipo impianto": "Altro", "Indirizzo": "VIA PER FAGNANO 32 21052", "Nome impianto": "eni 52359", "Comune": "BUSTO ARSIZIO", "idImpianto": 46044, "points": [{"type": "Feature", "properties": {}, "geometry": {"type": "Point", "coordinates": [8.857783000123, 45.626435000123]}}], "price": 2.014, "ultima_rilevazione": "23/07/2022 06:43:36"}, {"Gestore": "CEPPI ROBERTO", "Bandiera": "Agip Eni", "Tipo impianto": "Altro", "Indirizzo": "VIALE ARMANDO DIAZ 28 21052", "Nome impianto": "ENI PV 02805", "Comune": "BUSTO ARSIZIO", "idImpianto": 38949, "points": [{"type": "Feature", "properties": {}, "geometry": {"type": "Point", "coordinates": [8.852900235581956, 45.62159883144696]}}], "price": 2.009, "ultima_rilevazione": "23/07/2022 08:09:19"}, {"Gestore": "LU.PI. DI LUCA PIVA", "Bandiera": "Agip Eni", "Tipo impianto": "Altro", "Indirizzo": "Via Carlo No\u00e8 48 21013", "Nome impianto": "Eni Station", "Comune": "GALLARATE", "idImpianto": 48492, "points": [{"type": "Feature", "properties": {}, "geometry": {"type": "Point", "coordinates": [8.782354151727843, 45.655678477844525]}}], "price": 1.969, "ultima_rilevazione": "23/07/2022 08:12:39"}, {"Gestore": "LU.PI. DI LUCA PIVA", "Bandiera": "Agip Eni", "Tipo impianto": "Altro", "Indirizzo": "Via Carlo No\u00e8 48 21013", "Nome impianto": "Eni Station", "Comune": "GALLARATE", "idImpianto": 48492, "points": [{"type": "Feature", "properties": {}, "geometry": {"type": "Point", "coordinates": [8.782354151727843, 45.655678477844525]}}], "price": 2.019, "ultima_rilevazione": "23/07/2022 08:12:39"}, {"Gestore": "VINCI S.A.S. DI VINCI SALVATORE & C.", "Bandiera": "Agip Eni", "Tipo impianto": "Altro", "Indirizzo": "via busto fagnano 36 21057", "Nome impianto": "02874 OLGIATE OLONA", "Comune": "OLGIATE OLONA", "idImpianto": 7166, "points": [{"type": "Feature", "properties": {}, "geometry": {"type": "Point", "coordinates": [8.858649730682373, 45.631588145862736]}}], "price": 1.974, "ultima_rilevazione": "23/07/2022 13:17:01"}, {"Gestore": "VINCI S.A.S. DI VINCI SALVATORE & C.", "Bandiera": "Agip Eni", "Tipo impianto": "Altro", "Indirizzo": "via busto fagnano 36 21057", "Nome impianto": "02874 OLGIATE OLONA", "Comune": "OLGIATE OLONA", "idImpianto": 7166, "points": [{"type": "Feature", "properties": {}, "geometry": {"type": "Point", "coordinates": [8.858649730682373, 45.631588145862736]}}], "price": 2.024, "ultima_rilevazione": "23/07/2022 13:17:01"}, {"Gestore": "BUSELLATO MASSIMO", "Bandiera": "Agip Eni", "Tipo impianto": "Altro", "Indirizzo": "VIA AMBROSOLI ANG. VIA MILANO 15 21013", "Nome impianto": "ENI BUSELLATO", "Comune": "GALLARATE", "idImpianto": 40509, "points": [{"type": "Feature", "properties": {}, "geometry": {"type": "Point", "coordinates": [8.807483911514282, 45.65049049417369]}}], "price": 2.034, "ultima_rilevazione": "24/07/2022 21:00:20"}, {"Gestore": "BUSELLATO MASSIMO", "Bandiera": "Agip Eni", "Tipo impianto": "Altro", "Indirizzo": "VIA AMBROSOLI ANG. VIA MILANO 15 21013", "Nome impianto": "ENI BUSELLATO", "Comune": "GALLARATE", "idImpianto": 40509, "points": [{"type": "Feature", "properties": {}, "geometry": {"type": "Point", "coordinates": [8.807483911514282, 45.65049049417369]}}], "price": 1.974, "ultima_rilevazione": "24/07/2022 21:00:20"}, {"Gestore": "C.R. S.N.C. DI CANDIANI SIMONE  &  RAVASI PAOLO", "Bandiera": "Agip Eni", "Tipo impianto": "Altro", "Indirizzo": "VIA TORINO 76 21013", "Nome impianto": "crsnc", "Comune": "GALLARATE", "idImpianto": 10817, "points": [{"type": "Feature", "properties": {}, "geometry": {"type": "Point", "coordinates": [8.793311690807286, 45.64576312759459]}}], "price": 1.974, "ultima_rilevazione": "25/07/2022 06:48:10"}], "5": [{"Gestore": "RAIMONDI MAURO", "Bandiera": "Agip Eni", "Tipo impianto": "Altro", "Indirizzo": "VIA ARMANDO DIAZ 1 21057", "Nome impianto": "RAIMONDI MAURO", "Comune": "OLGIATE OLONA", "idImpianto": 14944, "points": [{"type": "Feature", "properties": {}, "geometry": {"type": "Point", "coordinates": [8.888167440891266, 45.63324351402306]}}], "price": 1.974, "ultima_rilevazione": "24/07/2022 20:57:45"}, {"Gestore": "RAIMONDI MAURO", "Bandiera": "Agip Eni", "Tipo impianto": "Altro", "Indirizzo": "VIA ARMANDO DIAZ 1 21057", "Nome impianto": "RAIMONDI MAURO", "Comune": "OLGIATE OLONA", "idImpianto": 14944, "points": [{"type": "Feature", "properties": {}, "geometry": {"type": "Point", "coordinates": [8.888167440891266, 45.63324351402306]}}], "price": 2.044, "ultima_rilevazione": "24/07/2022 20:57:45"}, {"Gestore": "IAMETTI S.A.S. DI IAMETTI DANILO E MARCO", "Bandiera": "Agip Eni", "Tipo impianto": "Altro", "Indirizzo": "VIALE PIRANDELLO 2 21052", "Nome impianto": "IAMETTI SAS", "Comune": "BUSTO ARSIZIO", "idImpianto": 14390, "points": [{"type": "Feature", "properties": {}, "geometry": {"type": "Point", "coordinates": [8.847196151520507, 45.60283165537623]}}], "price": 2.034, "ultima_rilevazione": "25/07/2022 07:19:58"}, {"Gestore": "IAMETTI S.A.S. DI IAMETTI DANILO E MARCO", "Bandiera": "Agip Eni", "Tipo impianto": "Altro", "Indirizzo": "VIALE PIRANDELLO 2 21052", "Nome impianto": "IAMETTI SAS", "Comune": "BUSTO ARSIZIO", "idImpianto": 14390, "points": [{"type": "Feature", "properties": {}, "geometry": {"type": "Point", "coordinates": [8.847196151520507, 45.60283165537623]}}], "price": 1.974, "ultima_rilevazione": "25/07/2022 07:19:58"}, {"Gestore": "ENI FUEL S.P.A.", "Bandiera": "Agip Eni", "Tipo impianto": "Altro", "Indirizzo": "VIA XX SETTEMBRE, 60  21052", "Nome impianto": "2807 \u2013 Busto Arsizio", "Comune": "BUSTO ARSIZIO", "idImpianto": 49792, "points": [{"type": "Feature", "properties": {}, "geometry": {"type": "Point", "coordinates": [8.867198119656962, 45.61297865138692]}}], "price": 1.974, "ultima_rilevazione": "25/07/2022 07:28:26"}, {"Gestore": "ENI FUEL S.P.A.", "Bandiera": "Agip Eni", "Tipo impianto": "Altro", "Indirizzo": "VIA XX SETTEMBRE, 60  21052", "Nome impianto": "2807 \u2013 Busto Arsizio", "Comune": "BUSTO ARSIZIO", "idImpianto": 49792, "points": [{"type": "Feature", "properties": {}, "geometry": {"type": "Point", "coordinates": [8.867198119656962, 45.61297865138692]}}], "price": 2.024, "ultima_rilevazione": "25/07/2022 07:28:26"}]}, "Gasolio High Quality": {"1": [], "3": [{"Gestore": "GAIA S.A.S. DI GAIARIN DAVIDE & C.", "Bandiera": "Sommese Petroli", "Tipo impianto": "Altro", "Indirizzo": "VIA ARMANDO DIAZ 40 21054", "Nome impianto": "Gaia S.a.s.", "Comune": "FAGNANO OLONA", "idImpianto": 36188, "points": [{"type": "Feature", "properties": {}, "geometry": {"type": "Point", "coordinates": [8.867793474204973, 45.66553496346702]}}], "price": 1.999, "ultima_rilevazione": "24/07/2022 11:56:06"}], "5": [{"Gestore": "BRUSAMOLIN CATIA", "Bandiera": "Esso", "Tipo impianto": "Altro", "Indirizzo": "via giuseppe verdi 49 21017", "Nome impianto": "stazione di servizio Esso", "Comune": "SAMARATE", "idImpianto": 16269, "points": [{"type": "Feature", "properties": {}, "geometry": {"type": "Point", "coordinates": [8.780278166570952, 45.62814871832988]}}], "price": 2.069, "ultima_rilevazione": "22/07/2022 08:14:58"}, {"Gestore": "SEVERO CARBURANTI DI SEVERO ALESSANDRO", "Bandiera": "Sommese Petroli", "Tipo impianto": "Altro", "Indirizzo": "via gramsci 94 21010", "Nome impianto": "Sommese Petroli", "Comune": "CARDANO AL CAMPO", "idImpianto": 41177, "points": [{"type": "Feature", "properties": {}, "geometry": {"type": "Point", "coordinates": [8.766267714120886, 45.65280249852187]}}], "price": 2.019, "ultima_rilevazione": "23/07/2022 12:37:26"}, {"Gestore": "SOMMESE CARBURANTE S.R.L.", "Bandiera": "Sommese Petroli", "Tipo impianto": "Altro", "Indirizzo": "Via Giovanni Amendola 160 21052", "Nome impianto": "BUSTO VIA AMENDOLA", "Comune": "BUSTO ARSIZIO", "idImpianto": 50978, "points": [{"type": "Feature", "properties": {}, "geometry": {"type": "Point", "coordinates": [8.819097709966561, 45.60333064015385]}}], "price": 2.019, "ultima_rilevazione": "25/07/2022 06:06:09"}]}, "Benzina": {"1": [{"Gestore": "DO & FA SNC DI CANNATA' DOMENICO E C.", "Bandiera": "Api-Ip", "Tipo impianto": "Altro", "Indirizzo": "VIA MARCONI 125 21012", "Nome impianto": "DO&FA SNC", "Comune": "CASSANO MAGNAGO", "idImpianto": 44282, "points": [{"type": "Feature", "properties": {}, "geometry": {"type": "Point", "coordinates": [8.821145000123, 45.690611000123]}}], "price": 1.899, "ultima_rilevazione": "22/07/2022 08:04:21"}, {"Gestore": "COZZI ANDREA", "Bandiera": "Agip Eni", "Tipo impianto": "Altro", "Indirizzo": "VIA VARESE 14 21013", "Nome impianto": "ENI", "Comune": "GALLARATE", "idImpianto": 28889, "points": [{"type": "Feature", "properties": {}, "geometry": {"type": "Point", "coordinates": [8.797299733729574, 45.67431099042725]}}], "price": 1.879, "ultima_rilevazione": "23/07/2022 06:59:21"}, {"Gestore": "IP SERVICES S.R.L.", "Bandiera": "Api-Ip", "Tipo impianto": "Altro", "Indirizzo": "S.P. 12 VIA COMO  21050", "Nome impianto": "CAIRATE - BOLLADELLO", "Comune": "CAIRATE", "idImpianto": 36260, "points": [{"type": "Feature", "properties": {}, "geometry": {"type": "Point", "coordinates": [8.844366107969336, 45.68073092003936]}}], "price": 1.884, "ultima_rilevazione": "24/07/2022 09:00:58"}, {"Gestore": "IP SERVICES S.R.L.", "Bandiera": "Api-Ip", "Tipo impianto": "Strada Statale", "Indirizzo": "Statale 336 dell'Aeroporto della Malpensa, Km. KM. 1,850, dir. BUSTO ARSIZIO 21052", "Nome impianto": "BUSTO ARSIZIO", "Comune": "BUSTO ARSIZIO", "idImpianto": 24961, "points": [{"type": "Feature", "properties": {}, "geometry": {"type": "Point", "coordinates": [8.8329019239427, 45.63975625942259]}}], "price": 1.909, "ultima_rilevazione": "24/07/2022 09:02:13"}, {"Gestore": "MAIORIELLO MARCO", "Bandiera": "Tamoil", "Tipo impianto": "Altro", "Indirizzo": "VIA RONCHETTI 30 21044", "Nome impianto": "TAMOIL DI MAIORIELLO  MARCO", "Comune": "CAVARIA CON PREMEZZO", "idImpianto": 33723, "points": [{"type": "Feature", "properties": {}, "geometry": {"type": "Point", "coordinates": [8.801982700824738, 45.69239708563681]}}], "price": 1.899, "ultima_rilevazione": "25/07/2022 07:08:14"}, {"Gestore": "VARGAS SRL", "Bandiera": "Pompe Bianche", "Tipo impianto": "Altro", "Indirizzo": "VIA OLONA 181 21013", "Nome impianto": "vargas s.r.l.", "Comune": "GALLARATE", "idImpianto": 4135, "points": [{"type": "Feature", "properties": {}, "geometry": {"type": "Point", "coordinates": [8.816686804893493, 45.64914025334275]}}], "price": 1.869, "ultima_rilevazione": "25/07/2022 00:10:11"}, {"Gestore": "GESTIONI INNOVATIVE ITALIA S.R.L.", "Bandiera": "Agip Eni", "Tipo impianto": "Altro", "Indirizzo": "VIA IV NOVEMBRE 16, 21012", "Nome impianto": "PV 2828", "Comune": "CASSANO MAGNAGO", "idImpianto": 25391, "points": [{"type": "Feature", "properties": {}, "geometry": {"type": "Point", "coordinates": [8.822863698005676, 45.67164085351821]}}], "price": 1.874, "ultima_rilevazione": "25/07/2022 00:14:06"}, {"Gestore": "CAR-TEL S.N.C. DI TELESCA R.  &  CARTINI M. L.", "Bandiera": "Sommese Petroli", "Tipo impianto": "Altro", "Indirizzo": "Via Venegoni 14/16, 21012  21012", "Nome impianto": "Sommese Petroli ", "Comune": "CASSANO MAGNAGO", "idImpianto": 21271, "points": [{"type": "Feature", "properties": {}, "geometry": {"type": "Point", "coordinates": [8.816861055819686, 45.66864118622309]}}], "price": 1.919, "ultima_rilevazione": "25/07/2022 06:58:05"}, {"Gestore": "BEMA SAS DI ANDREA BERTOLASO & C.", "Bandiera": "Agip Eni", "Tipo impianto": "Altro", "Indirizzo": "VIA BONICALZA 127 21012", "Nome impianto": "Eni 02862 Cassano Magnago", "Comune": "CASSANO MAGNAGO", "idImpianto": 45389, "points": [{"type": "Feature", "properties": {}, "geometry": {"type": "Point", "coordinates": [8.843454000123, 45.660386000123]}}], "price": 1.879, "ultima_rilevazione": "25/07/2022 06:48:54"}], "3": [{"Gestore": "TURRI VERONICA", "Bandiera": "KEROPETROL", "Tipo impianto": "Altro", "Indirizzo": "VIA MILANO 3 21040", "Nome impianto": "Keropetrol", "Comune": "JERAGO CON ORAGO", "idImpianto": 29438, "points": [{"type": "Feature", "properties": {}, "geometry": {"type": "Point", "coordinates": [8.795823352184243, 45.70695030184689]}}], "price": 1.949, "ultima_rilevazione": "20/07/2022 16:54:59"}, {"Gestore": "LEPRI MARCO", "Bandiera": "Esso", "Tipo impianto": "Strada Statale", "Indirizzo": "Statale 33 del Sempione, Km. 144, dir. NORD 21052", "Nome impianto": "ESSO SEMPIONE", "Comune": "BUSTO ARSIZIO", "idImpianto": 9058, "points": [{"type": "Feature", "properties": {}, "geometry": {"type": "Point", "coordinates": [8.841612339019775, 45.62873718186091]}}], "price": 1.966, "ultima_rilevazione": "21/07/2022 09:51:56"}, {"Gestore": "LEPRI MARCO", "Bandiera": "Esso", "Tipo impianto": "Altro", "Indirizzo": "CORSO ITALIA  21052", "Nome impianto": "ESSO ITALIA", "Comune": "BUSTO ARSIZIO", "idImpianto": 9059, "points": [{"type": "Feature", "properties": {}, "geometry": {"type": "Point", "coordinates": [8.83901059627533, 45.615347715796815]}}], "price": 1.966, "ultima_rilevazione": "21/07/2022 09:52:27"}, {"Gestore": "PREALPINA DISTRIBUZIONE CARBURANTI S.R.L.", "Bandiera": "Pompe Bianche", "Tipo impianto": "Altro", "Indirizzo": "VIA ASSISI  21013", "Nome impianto": "PREALPINA DISTRIBUZIONE CARBURANTI SRL", "Comune": "GALLARATE", "idImpianto": 41799, "points": [{"type": "Feature", "properties": {}, "geometry": {"type": "Point", "coordinates": [8.777800717782725, 45.67986173067121]}}], "price": 1.898, "ultima_rilevazione": "21/07/2022 10:11:06"}, {"Gestore": "PREALPINA DISTRIBUZIONE CARBURANTI S.R.L.", "Bandiera": "Pompe Bianche", "Tipo impianto": "Altro", "Indirizzo": "VIA MONTE SAN MARTINO 19 21013", "Nome impianto": "PREALPINA DISTRIBUZIONE CARBURANTI SRL", "Comune": "GALLARATE", "idImpianto": 41800, "points": [{"type": "Feature", "properties": {}, "geometry": {"type": "Point", "coordinates": [8.774024695158005, 45.66904496299664]}}], "price": 1.898, "ultima_rilevazione": "21/07/2022 10:11:56"}, {"Gestore": "ELLEPI SERVICE DI LUCA PULVIRENTI", "Bandiera": "Agip Eni", "Tipo impianto": "Altro", "Indirizzo": "via ercole ferrario 1 21013", "Nome impianto": "02908", "Comune": "GALLARATE", "idImpianto": 28790, "points": [{"type": "Feature", "properties": {}, "geometry": {"type": "Point", "coordinates": [8.792808172521973, 45.65281493830711]}}], "price": 1.909, "ultima_rilevazione": "21/07/2022 17:24:44"}, {"Gestore": "BOSATELLI BRUNO & C. - S.A.S.", "Bandiera": "Esso", "Tipo impianto": "Altro", "Indirizzo": "VIA PER FAGNANO 24 21052", "Nome impianto": "ESSO", "Comune": "BUSTO ARSIZIO", "idImpianto": 10021, "points": [{"type": "Feature", "properties": {}, "geometry": {"type": "Point", "coordinates": [8.857867866754532, 45.62548446746924]}}], "price": 1.956, "ultima_rilevazione": "21/07/2022 18:19:47"}, {"Gestore": "ELDAGAS - S.R.L.", "Bandiera": "Pompe Bianche", "Tipo impianto": "Altro", "Indirizzo": "VIA MONTE ROSA 85 21050", "Nome impianto": "ELDA GAS 1", "Comune": "CAIRATE", "idImpianto": 47651, "points": [{"type": "Feature", "properties": {}, "geometry": {"type": "Point", "coordinates": [8.85530563558198, 45.68314771128692]}}], "price": 1.899, "ultima_rilevazione": "22/07/2022 16:48:26"}, {"Gestore": "V3 GARAGE S.A.S. DI VIGANO' PAOLO & C.", "Bandiera": "Esso", "Tipo impianto": "Altro", "Indirizzo": "VIA DEL LAVORO 26 21048", "Nome impianto": "V3 GARAGE SAS", "Comune": "SOLBIATE ARNO", "idImpianto": 26290, "points": [{"type": "Feature", "properties": {}, "geometry": {"type": "Point", "coordinates": [8.811409324407578, 45.71950060321544]}}], "price": 1.999, "ultima_rilevazione": "22/07/2022 16:53:47"}, {"Gestore": "MENTASTI SERGIO", "Bandiera": "Api-Ip", "Tipo impianto": "Altro", "Indirizzo": "VIA CARONNO VARESINO 17 21048", "Nome impianto": "IP", "Comune": "SOLBIATE ARNO", "idImpianto": 45996, "points": [{"type": "Feature", "properties": {}, "geometry": {"type": "Point", "coordinates": [8.817383000123, 45.727061000123]}}], "price": 1.979, "ultima_rilevazione": "23/07/2022 06:27:32"}, {"Gestore": "DEDA ASTRIT", "Bandiera": "Agip Eni", "Tipo impianto": "Altro", "Indirizzo": "VIA PER FAGNANO 32 21052", "Nome impianto": "eni 52359", "Comune": "BUSTO ARSIZIO", "idImpianto": 46044, "points": [{"type": "Feature", "properties": {}, "geometry": {"type": "Point", "coordinates": [8.857783000123, 45.626435000123]}}], "price": 1.924, "ultima_rilevazione": "23/07/2022 06:43:36"}, {"Gestore": "CEPPI ROBERTO", "Bandiera": "Agip Eni", "Tipo impianto": "Altro", "Indirizzo": "VIALE ARMANDO DIAZ 28 21052", "Nome impianto": "ENI PV 02805", "Comune": "BUSTO ARSIZIO", "idImpianto": 38949, "points": [{"type": "Feature", "properties": {}, "geometry": {"type": "Point", "coordinates": [8.852900235581956, 45.62159883144696]}}], "price": 1.919, "ultima_rilevazione": "23/07/2022 08:09:19"}, {"Gestore": "LU.PI. DI LUCA PIVA", "Bandiera": "Agip Eni", "Tipo impianto": "Altro", "Indirizzo": "Via Carlo No\u00e8 48 21013", "Nome impianto": "Eni Station", "Comune": "GALLARATE", "idImpianto": 48492, "points": [{"type": "Feature", "properties": {}, "geometry": {"type": "Point", "coordinates": [8.782354151727843, 45.655678477844525]}}], "price": 1.869, "ultima_rilevazione": "23/07/2022 08:12:39"}, {"Gestore": "BROMAR S.N.C. DI BROCCOLO SONIA E C.", "Bandiera": "Q8", "Tipo impianto": "Altro", "Indirizzo": "VIA TORINO, ANGOLO VIA CHECCHI 82 21013", "Nome impianto": "BROMAR S.N.C.", "Comune": "GALLARATE", "idImpianto": 10555, "points": [{"type": "Feature", "properties": {}, "geometry": {"type": "Point", "coordinates": [8.792936000123, 45.644901000123]}}], "price": 1.929, "ultima_rilevazione": "23/07/2022 08:24:29"}, {"Gestore": "VINCI S.A.S. DI VINCI SALVATORE & C.", "Bandiera": "Agip Eni", "Tipo impianto": "Altro", "Indirizzo": "via busto fagnano 36 21057", "Nome impianto": "02874 OLGIATE OLONA", "Comune": "OLGIATE OLONA", "idImpianto": 7166, "points": [{"type": "Feature", "properties": {}, "geometry": {"type": "Point", "coordinates": [8.858649730682373, 45.631588145862736]}}], "price": 1.874, "ultima_rilevazione": "23/07/2022 13:17:01"}, {"Gestore": "AUTORIPARAZIONI MARTIGNONI CORRADO", "Bandiera": "Pompe Bianche", "Tipo impianto": "Altro", "Indirizzo": "VIA SAN ROCCO 311 21050", "Nome impianto": "POMPE BIANCHE", "Comune": "CASTELSEPRIO", "idImpianto": 18798, "points": [{"type": "Feature", "properties": {}, "geometry": {"type": "Point", "coordinates": [8.862280830688405, 45.71264320534582]}}], "price": 1.919, "ultima_rilevazione": "23/07/2022 20:38:11"}, {"Gestore": "IP SERVICES S.R.L.", "Bandiera": "Api-Ip", "Tipo impianto": "Altro", "Indirizzo": "VIA PER FAGNANO 46 21057", "Nome impianto": "OLGIATE OLONA", "Comune": "OLGIATE OLONA", "idImpianto": 27295, "points": [{"type": "Feature", "properties": {}, "geometry": {"type": "Point", "coordinates": [8.85911206994058, 45.63571781676173]}}], "price": 1.929, "ultima_rilevazione": "24/07/2022 09:01:12"}, {"Gestore": "IP SERVICES S.R.L.", "Bandiera": "Api-Ip", "Tipo impianto": "Altro", "Indirizzo": "VIA CARLO NOE' 35  21013", "Nome impianto": "GALLARATE  - CARLO NOE' 35", "Comune": "GALLARATE", "idImpianto": 24620, "points": [{"type": "Feature", "properties": {}, "geometry": {"type": "Point", "coordinates": [8.783059766864653, 45.66112624437493]}}], "price": 1.899, "ultima_rilevazione": "24/07/2022 09:01:15"}, {"Gestore": "IP SERVICES S.R.L.", "Bandiera": "Api-Ip", "Tipo impianto": "Altro", "Indirizzo": "via Sanzio 15 21013", "Nome impianto": "Gallarate Sanzio", "Comune": "GALLARATE", "idImpianto": 38380, "points": [{"type": "Feature", "properties": {}, "geometry": {"type": "Point", "coordinates": [8.795668647815774, 45.66804046676662]}}], "price": 1.909, "ultima_rilevazione": "24/07/2022 09:03:14"}, {"Gestore": "IP SERVICES S.R.L.", "Bandiera": "Api-Ip", "Tipo impianto": "Altro", "Indirizzo": "Via per Busto   21058", "Nome impianto": "SOLBIATE OLONA", "Comune": "SOLBIATE OLONA", "idImpianto": 10096, "points": [{"type": "Feature", "properties": {}, "geometry": {"type": "Point", "coordinates": [8.865092396736145, 45.64576541117171]}}], "price": 1.929, "ultima_rilevazione": "24/07/2022 09:04:20"}, {"Gestore": "IP SERVICES S.R.L.", "Bandiera": "Api-Ip", "Tipo impianto": "Altro", "Indirizzo": "Via Torino   21013", "Nome impianto": "Gallarate via Torino", "Comune": "GALLARATE", "idImpianto": 10130, "points": [{"type": "Feature", "properties": {}, "geometry": {"type": "Point", "coordinates": [8.79481032023773, 45.65067258728234]}}], "price": 1.899, "ultima_rilevazione": "24/07/2022 09:04:30"}, {"Gestore": "GAIA S.A.S. DI GAIARIN DAVIDE & C.", "Bandiera": "Sommese Petroli", "Tipo impianto": "Altro", "Indirizzo": "VIA ARMANDO DIAZ 40 21054", "Nome impianto": "Gaia S.a.s.", "Comune": "FAGNANO OLONA", "idImpianto": 36188, "points": [{"type": "Feature", "properties": {}, "geometry": {"type": "Point", "coordinates": [8.867793474204973, 45.66553496346702]}}], "price": 1.919, "ultima_rilevazione": "24/07/2022 11:56:06"}, {"Gestore": "PAGANI ORNELLA", "Bandiera": "Tamoil", "Tipo impianto": "Altro", "Indirizzo": "via per carnago 3", "Nome impianto": "tamoil", "Comune": "SOLBIATE ARNO", "idImpianto": 15594, "points": [{"type": "Feature", "properties": {}, "geometry": {"type": "Point", "coordinates": [8.821405876721201, 45.71796479729656]}}], "price": 1.999, "ultima_rilevazione": "24/07/2022 18:56:02"}, {"Gestore": "BUSELLATO MASSIMO", "Bandiera": "Agip Eni", "Tipo impianto": "Altro", "Indirizzo": "VIA AMBROSOLI ANG. VIA MILANO 15 21013", "Nome impianto": "ENI BUSELLATO", "Comune": "GALLARATE", "idImpianto": 40509, "points": [{"type": "Feature", "properties": {}, "geometry": {"type": "Point", "coordinates": [8.807483911514282, 45.65049049417369]}}], "price": 1.884, "ultima_rilevazione": "24/07/2022 21:00:20"}, {"Gestore": "LO TURCO BRUNO", "Bandiera": "Pompe Bianche", "Tipo impianto": "Altro", "Indirizzo": "Via.C.Noe 43 21013", "Nome impianto": "Distributore Lo Turco Bruno", "Comune": "GALLARATE", "idImpianto": 17205, "points": [{"type": "Feature", "properties": {}, "geometry": {"type": "Point", "coordinates": [8.782966448561638, 45.658904859555896]}}], "price": 1.899, "ultima_rilevazione": "24/07/2022 22:53:22"}, {"Gestore": "SERVIZI & GESTIONI ITALIA srl", "Bandiera": "Q8", "Tipo impianto": "Altro", "Indirizzo": "VIA C. NOE' 79 21013", "Nome impianto": "GALLARATE VIA C. NOE' 79", "Comune": "GALLARATE", "idImpianto": 6458, "points": [{"type": "Feature", "properties": {}, "geometry": {"type": "Point", "coordinates": [8.782875680950951, 45.655528206039214]}}], "price": 1.899, "ultima_rilevazione": "25/07/2022 00:36:29"}, {"Gestore": "SERVIZI & GESTIONI ITALIA S.R.L.", "Bandiera": "Q8", "Tipo impianto": "Altro", "Indirizzo": "CORSO ITALIA 23 21052", "Nome impianto": "BUSTO ARSIZIO-CORSO ITALIA 23", "Comune": "BUSTO ARSIZIO", "idImpianto": 11922, "points": [{"type": "Feature", "properties": {}, "geometry": {"type": "Point", "coordinates": [8.846762449073822, 45.62081875947187]}}], "price": 1.899, "ultima_rilevazione": "25/07/2022 00:36:29"}, {"Gestore": "SERVIZI & GESTIONI ITALIA S.R.L.", "Bandiera": "Q8", "Tipo impianto": "Altro", "Indirizzo": "VIA ERCOLE FERRARIO 37 SS. 33 21013", "Nome impianto": "GALLARATE - VIA ERCOLE FERRARIO 37 SS.", "Comune": "GALLARATE", "idImpianto": 31851, "points": [{"type": "Feature", "properties": {}, "geometry": {"type": "Point", "coordinates": [8.785941079258919, 45.65343803154252]}}], "price": 1.899, "ultima_rilevazione": "25/07/2022 00:36:30"}, {"Gestore": "SERVIZI & GESTIONI ITALIA S.R.L.", "Bandiera": "Q8", "Tipo impianto": "Altro", "Indirizzo": "VIALE MALPENSA 19 21052", "Nome impianto": "BUSTO ARSIZIO VIALE MALPENSA 19", "Comune": "BUSTO ARSIZIO", "idImpianto": 23156, "points": [{"type": "Feature", "properties": {}, "geometry": {"type": "Point", "coordinates": [8.849781362951717, 45.63720059681254]}}], "price": 1.899, "ultima_rilevazione": "25/07/2022 00:36:30"}, {"Gestore": "SOMMESE CARBURANTE S.R.L.", "Bandiera": "Sommese Petroli", "Tipo impianto": "Altro", "Indirizzo": "Via Per Cassano 80 21052", "Nome impianto": "SOMMESE CARBURANTE BUSTO ", "Comune": "BUSTO ARSIZIO", "idImpianto": 39853, "points": [{"type": "Feature", "properties": {}, "geometry": {"type": "Point", "coordinates": [8.846336471163909, 45.636349970305154]}}], "price": 1.929, "ultima_rilevazione": "25/07/2022 00:56:08"}, {"Gestore": "SOMMESE CARBURANTE S.R.L.", "Bandiera": "Sommese Petroli", "Tipo impianto": "Altro", "Indirizzo": "VIALE MILANO 33 21013", "Nome impianto": "SOMMESE CARBURANTE VIALE MILANO", "Comune": "GALLARATE", "idImpianto": 34333, "points": [{"type": "Feature", "properties": {}, "geometry": {"type": "Point", "coordinates": [8.801605022186209, 45.655140743708245]}}], "price": 1.889, "ultima_rilevazione": "25/07/2022 06:04:07"}, {"Gestore": "SOMMESE CARBURANTE S.R.L.", "Bandiera": "Sommese Petroli", "Tipo impianto": "Strada Statale", "Indirizzo": "33 del Sempione, Km. 40+252, nord 21013", "Nome impianto": "SOMMESE - SEMPIONE", "Comune": "GALLARATE", "idImpianto": 43823, "points": [{"type": "Feature", "properties": {}, "geometry": {"type": "Point", "coordinates": [8.778295516967773, 45.66498502191534]}}], "price": 1.889, "ultima_rilevazione": "25/07/2022 06:04:08"}, {"Gestore": "SOMMESE CARBURANTE S.R.L.", "Bandiera": "Retitalia", "Tipo impianto": "Altro", "Indirizzo": "VIA ALCIDE DE GASPERI  126 21057", "Nome impianto": "SOMMESE CARBURANTE OLGIATE", "Comune": "OLGIATE OLONA", "idImpianto": 34089, "points": [{"type": "Feature", "properties": {}, "geometry": {"type": "Point", "coordinates": [8.88465194543835, 45.63889968669999]}}], "price": 1.919, "ultima_rilevazione": "25/07/2022 06:06:09"}, {"Gestore": "C.R. S.N.C. DI CANDIANI SIMONE  &  RAVASI PAOLO", "Bandiera": "Agip Eni", "Tipo impianto": "Altro", "Indirizzo": "VIA TORINO 76 21013", "Nome impianto": "crsnc", "Comune": "GALLARATE", "idImpianto": 10817, "points": [{"type": "Feature", "properties": {}, "geometry": {"type": "Point", "coordinates": [8.793311690807286, 45.64576312759459]}}], "price": 1.874, "ultima_rilevazione": "25/07/2022 06:48:10"}, {"Gestore": "SOMMESE CARBURANTE S.R.L.", "Bandiera": "Sommese Petroli", "Tipo impianto": "Altro", "Indirizzo": "Via Luigi Riva 21 21013", "Nome impianto": "SOMMESE CARBURANTE VIA RIVA", "Comune": "GALLARATE", "idImpianto": 42778, "points": [{"type": "Feature", "properties": {}, "geometry": {"type": "Point", "coordinates": [8.79571833372961, 45.66626589283417]}}], "price": 1.949, "ultima_rilevazione": "25/07/2022 07:12:05"}, {"Gestore": "KANT S.A.S. DI MASATO CHRISTIAN & C.", "Bandiera": "Tamoil", "Tipo impianto": "Altro", "Indirizzo": "VIA CASSANO MAGNAGO 60BIS 21052", "Nome impianto": "KANT SAS di Masato Christian", "Comune": "BUSTO ARSIZIO", "idImpianto": 14992, "points": [{"type": "Feature", "properties": {}, "geometry": {"type": "Point", "coordinates": [8.847899436950684, 45.63089004819352]}}], "price": 1.929, "ultima_rilevazione": "25/07/2022 07:32:02"}], "5": [{"Gestore": "FUMAGALLI & MORANDI S.N.C DI FUMAGALLI ANTONELLA & C.", "Bandiera": "Sommese Petroli", "Tipo impianto": "Altro", "Indirizzo": "VIA GIUSEPPE GARIBALDI 83 21055", "Nome impianto": "FUMAGALLI & MORANDI", "Comune": "GORLA MINORE", "idImpianto": 19217, "points": [{"type": "Feature", "properties": {}, "geometry": {"type": "Point", "coordinates": [8.896482135582005, 45.65115185264066]}}], "price": 1.999, "ultima_rilevazione": "18/07/2022 14:16:01"}, {"Gestore": "ARPI S.A.S. DI ARRU MELISSA & C.", "Bandiera": "Api-Ip", "Tipo impianto": "Altro", "Indirizzo": "SP19 Km11 direzione Gorla Minore  21055", "Nome impianto": "Totalerg", "Comune": "GORLA MINORE", "idImpianto": 37667, "points": [{"type": "Feature", "properties": {}, "geometry": {"type": "Point", "coordinates": [8.90462078154087, 45.652237173918735]}}], "price": 1.969, "ultima_rilevazione": "20/07/2022 19:31:35"}, {"Gestore": "PREALPINA DISTRIBUZIONE CARBURANTI S.R.L.", "Bandiera": "Pompe Bianche", "Tipo impianto": "Altro", "Indirizzo": "VIA ROMA, ANG. MEDAGLIE D'ORO  21011", "Nome impianto": "PREALPINA DISTRIBUZIONE CARBURANTI SRL_", "Comune": "CASORATE SEMPIONE", "idImpianto": 4185, "points": [{"type": "Feature", "properties": {}, "geometry": {"type": "Point", "coordinates": [8.749526739120483, 45.66520207437205]}}], "price": 1.898, "ultima_rilevazione": "21/07/2022 10:09:47"}, {"Gestore": "PREALPINA DISTRIBUZIONE CARBURANTI S.R.L.", "Bandiera": "Pompe Bianche", "Tipo impianto": "Altro", "Indirizzo": "VIA DIAZ 71 21050", "Nome impianto": "PREALPINA DISTRIBUZIONE CARBURANTI SRL", "Comune": "MARNATE", "idImpianto": 41798, "points": [{"type": "Feature", "properties": {}, "geometry": {"type": "Point", "coordinates": [8.89830759814754, 45.631638269104215]}}], "price": 1.899, "ultima_rilevazione": "21/07/2022 10:48:35"}, {"Gestore": "BRUSAMOLIN CATIA", "Bandiera": "Esso", "Tipo impianto": "Altro", "Indirizzo": "via giuseppe verdi 49 21017", "Nome impianto": "stazione di servizio Esso", "Comune": "SAMARATE", "idImpianto": 16269, "points": [{"type": "Feature", "properties": {}, "geometry": {"type": "Point", "coordinates": [8.780278166570952, 45.62814871832988]}}], "price": 1.989, "ultima_rilevazione": "22/07/2022 08:14:58"}, {"Gestore": "TOTALERG DI GIUDICE LORENA", "Bandiera": "Api-Ip", "Tipo impianto": "Altro", "Indirizzo": "VIA XX SETTEMBRE 54 21052", "Nome impianto": "TotalErg ", "Comune": "BUSTO ARSIZIO", "idImpianto": 38454, "points": [{"type": "Feature", "properties": {}, "geometry": {"type": "Point", "coordinates": [8.866095088954921, 45.61281552864417]}}], "price": 1.899, "ultima_rilevazione": "22/07/2022 09:41:09"}, {"Gestore": "CASTELLANELLI S.N.C. DI CASTELLANELLI PIETRO & C.", "Bandiera": "Tamoil", "Tipo impianto": "Altro", "Indirizzo": "VIA TRIESTE 37 21011", "Nome impianto": "Castellanelli", "Comune": "CASORATE SEMPIONE", "idImpianto": 19081, "points": [{"type": "Feature", "properties": {}, "geometry": {"type": "Point", "coordinates": [8.754543108003986, 45.6713737257454]}}], "price": 2.089, "ultima_rilevazione": "22/07/2022 10:04:06"}, {"Gestore": "AMBROGIO MORO S.P.A.", "Bandiera": "Moro", "Tipo impianto": "Altro", "Indirizzo": "VIA DE GASPERI 15 21057", "Nome impianto": "Moro_Olgiate Olona", "Comune": "OLGIATE OLONA", "idImpianto": 29418, "points": [{"type": "Feature", "properties": {}, "geometry": {"type": "Point", "coordinates": [8.886073544774604, 45.62942081847766]}}], "price": 1.909, "ultima_rilevazione": "22/07/2022 14:47:52"}, {"Gestore": "GS SPA", "Bandiera": "Tamoil", "Tipo impianto": "Altro", "Indirizzo": "Corso XX settembre 91 21052", "Nome impianto": "Carrefour Tamoil Busto Arsizio", "Comune": "BUSTO ARSIZIO", "idImpianto": 48733, "points": [{"type": "Feature", "properties": {}, "geometry": {"type": "Point", "coordinates": [8.876524726736776, 45.61425777724803]}}], "price": 1.899, "ultima_rilevazione": "22/07/2022 16:08:48"}, {"Gestore": "MALNATI, RIGANTI & C. S.N.C.", "Bandiera": "Esso", "Tipo impianto": "Altro", "Indirizzo": "VIALE MILANO 27, 21040", "Nome impianto": "MALNATI RIGANTI & C. Snc", "Comune": "CARONNO VARESINO", "idImpianto": 8319, "points": [{"type": "Feature", "properties": {}, "geometry": {"type": "Point", "coordinates": [8.832143964279112, 45.73282738197626]}}], "price": 1.91, "ultima_rilevazione": "23/07/2022 08:42:58"}, {"Gestore": "SEVERO CARBURANTI DI SEVERO ALESSANDRO", "Bandiera": "Sommese Petroli", "Tipo impianto": "Altro", "Indirizzo": "via gramsci 94 21010", "Nome impianto": "Sommese Petroli", "Comune": "CARDANO AL CAMPO", "idImpianto": 41177, "points": [{"type": "Feature", "properties": {}, "geometry": {"type": "Point", "coordinates": [8.766267714120886, 45.65280249852187]}}], "price": 1.949, "ultima_rilevazione": "23/07/2022 12:37:26"}, {"Gestore": "IP SERVICES S.R.L.", "Bandiera": "Api-Ip", "Tipo impianto": "Altro", "Indirizzo": "VIALE BORRI 14 21052", "Nome impianto": "BUSTO ARSIZIO - BORRI 14", "Comune": "BUSTO ARSIZIO", "idImpianto": 29759, "points": [{"type": "Feature", "properties": {}, "geometry": {"type": "Point", "coordinates": [8.862762449073784, 45.606515011405214]}}], "price": 1.899, "ultima_rilevazione": "24/07/2022 09:02:46"}, {"Gestore": "CASTELLUCCIO SERVICE S.A.S. DI NESCI ERNESTO & C.", "Bandiera": "Agip Eni", "Tipo impianto": "Altro", "Indirizzo": "Via Piave 14 21050", "Nome impianto": "Eni Lonate Ceppino Pv 2933", "Comune": "LONATE CEPPINO", "idImpianto": 51215, "points": [{"type": "Feature", "properties": {}, "geometry": {"type": "Point", "coordinates": [8.879017829895014, 45.70529406718423]}}], "price": 1.884, "ultima_rilevazione": "24/07/2022 11:59:17"}, {"Gestore": "MAIORIELLO MARCO", "Bandiera": "Tamoil", "Tipo impianto": "Altro", "Indirizzo": "VIA  CARABELLI  4 21041", "Nome impianto": "MAIO  ALBIZZATE", "Comune": "ALBIZZATE", "idImpianto": 49086, "points": [{"type": "Feature", "properties": {}, "geometry": {"type": "Point", "coordinates": [8.799760626750434, 45.726971747716206]}}], "price": 1.959, "ultima_rilevazione": "24/07/2022 17:04:06"}, {"Gestore": "RAIMONDI MAURO", "Bandiera": "Agip Eni", "Tipo impianto": "Altro", "Indirizzo": "VIA ARMANDO DIAZ 1 21057", "Nome impianto": "RAIMONDI MAURO", "Comune": "OLGIATE OLONA", "idImpianto": 14944, "points": [{"type": "Feature", "properties": {}, "geometry": {"type": "Point", "coordinates": [8.888167440891266, 45.63324351402306]}}], "price": 1.894, "ultima_rilevazione": "24/07/2022 20:57:45"}, {"Gestore": "SERVIZI & GESTIONI ITALIA S.R.L.", "Bandiera": "Q8", "Tipo impianto": "Altro", "Indirizzo": "VIALE BOCCACCIO 24 21052", "Nome impianto": "BUSTO ARSIZIO-VIALE BOCCACCIO 24", "Comune": "BUSTO ARSIZIO", "idImpianto": 11920, "points": [{"type": "Feature", "properties": {}, "geometry": {"type": "Point", "coordinates": [8.861526822090127, 45.60159704228577]}}], "price": 1.899, "ultima_rilevazione": "25/07/2022 00:36:29"}, {"Gestore": "SERVIZI & GESTIONI ITALIA S.R.L.", "Bandiera": "Q8", "Tipo impianto": "Altro", "Indirizzo": "STRADA PROVINCIALE 12 21050", "Nome impianto": "CAIRATE-STRADA PROVINCIALE 12", "Comune": "CAIRATE", "idImpianto": 11925, "points": [{"type": "Feature", "properties": {}, "geometry": {"type": "Point", "coordinates": [8.886607288360665, 45.688237473809096]}}], "price": 1.929, "ultima_rilevazione": "25/07/2022 00:36:29"}, {"Gestore": "SERVIZI & GESTIONI ITALIA srl", "Bandiera": "Q8", "Tipo impianto": "Altro", "Indirizzo": "V.LE RIMEMBRANZE 53 21052", "Nome impianto": "BUSTO ARSIZIO V.LE RIMEMBRANZE  53", "Comune": "BUSTO ARSIZIO", "idImpianto": 6459, "points": [{"type": "Feature", "properties": {}, "geometry": {"type": "Point", "coordinates": [8.833518582942133, 45.60909492679454]}}], "price": 1.899, "ultima_rilevazione": "25/07/2022 00:36:30"}, {"Gestore": "SOMMESE CARBURANTE S.R.L.", "Bandiera": "Sommese Petroli", "Tipo impianto": "Altro", "Indirizzo": "Via Giovanni Amendola 160 21052", "Nome impianto": "BUSTO VIA AMENDOLA", "Comune": "BUSTO ARSIZIO", "idImpianto": 50978, "points": [{"type": "Feature", "properties": {}, "geometry": {"type": "Point", "coordinates": [8.819097709966561, 45.60333064015385]}}], "price": 1.939, "ultima_rilevazione": "25/07/2022 06:06:09"}, {"Gestore": "GAVAZZI MARCO", "Bandiera": "Sommese Petroli", "Tipo impianto": "Altro", "Indirizzo": "VIA CAPPUCCINI 20 21013", "Nome impianto": "SOMMESE gallarate", "Comune": "GALLARATE", "idImpianto": 34446, "points": [{"type": "Feature", "properties": {}, "geometry": {"type": "Point", "coordinates": [8.78462332431286, 45.64854362799238]}}], "price": 1.919, "ultima_rilevazione": "25/07/2022 07:02:06"}, {"Gestore": "IAMETTI S.A.S. DI IAMETTI DANILO E MARCO", "Bandiera": "Agip Eni", "Tipo impianto": "Altro", "Indirizzo": "VIALE PIRANDELLO 2 21052", "Nome impianto": "IAMETTI SAS", "Comune": "BUSTO ARSIZIO", "idImpianto": 14390, "points": [{"type": "Feature", "properties": {}, "geometry": {"type": "Point", "coordinates": [8.847196151520507, 45.60283165537623]}}], "price": 1.884, "ultima_rilevazione": "25/07/2022 07:19:58"}, {"Gestore": "ENI FUEL S.P.A.", "Bandiera": "Agip Eni", "Tipo impianto": "Altro", "Indirizzo": "VIA XX SETTEMBRE, 60  21052", "Nome impianto": "2807 \u2013 Busto Arsizio", "Comune": "BUSTO ARSIZIO", "idImpianto": 49792, "points": [{"type": "Feature", "properties": {}, "geometry": {"type": "Point", "coordinates": [8.867198119656962, 45.61297865138692]}}], "price": 1.874, "ultima_rilevazione": "25/07/2022 07:28:26"}]}, "null": {}, "GPL": {"1": [{"Gestore": "IP SERVICES S.R.L.", "Bandiera": "Api-Ip", "Tipo impianto": "Strada Statale", "Indirizzo": "Statale 336 dell'Aeroporto della Malpensa, Km. KM. 1,850, dir. BUSTO ARSIZIO 21052", "Nome impianto": "BUSTO ARSIZIO", "Comune": "BUSTO ARSIZIO", "idImpianto": 24961, "points": [{"type": "Feature", "properties": {}, "geometry": {"type": "Point", "coordinates": [8.8329019239427, 45.63975625942259]}}], "price": 0.799, "ultima_rilevazione": "24/07/2022 09:02:13"}, {"Gestore": "VARGAS SRL", "Bandiera": "Pompe Bianche", "Tipo impianto": "Altro", "Indirizzo": "VIA OLONA 181 21013", "Nome impianto": "vargas s.r.l.", "Comune": "GALLARATE", "idImpianto": 4135, "points": [{"type": "Feature", "properties": {}, "geometry": {"type": "Point", "coordinates": [8.816686804893493, 45.64914025334275]}}], "price": 0.799, "ultima_rilevazione": "25/07/2022 00:10:11"}], "3": [{"Gestore": "PREALPINA DISTRIBUZIONE CARBURANTI S.R.L.", "Bandiera": "Pompe Bianche", "Tipo impianto": "Altro", "Indirizzo": "VIA ASSISI  21013", "Nome impianto": "PREALPINA DISTRIBUZIONE CARBURANTI SRL", "Comune": "GALLARATE", "idImpianto": 41799, "points": [{"type": "Feature", "properties": {}, "geometry": {"type": "Point", "coordinates": [8.777800717782725, 45.67986173067121]}}], "price": 0.869, "ultima_rilevazione": "21/07/2022 10:11:06"}, {"Gestore": "ELDAGAS - S.R.L.", "Bandiera": "Pompe Bianche", "Tipo impianto": "Altro", "Indirizzo": "VIA MONTE ROSA 85 21050", "Nome impianto": "ELDA GAS 1", "Comune": "CAIRATE", "idImpianto": 47651, "points": [{"type": "Feature", "properties": {}, "geometry": {"type": "Point", "coordinates": [8.85530563558198, 45.68314771128692]}}], "price": 0.809, "ultima_rilevazione": "22/07/2022 16:48:26"}], "5": [{"Gestore": "ARPI S.A.S. DI ARRU MELISSA & C.", "Bandiera": "Api-Ip", "Tipo impianto": "Altro", "Indirizzo": "SP19 Km11 direzione Gorla Minore  21055", "Nome impianto": "Totalerg", "Comune": "GORLA MINORE", "idImpianto": 37667, "points": [{"type": "Feature", "properties": {}, "geometry": {"type": "Point", "coordinates": [8.90462078154087, 45.652237173918735]}}], "price": 0.85, "ultima_rilevazione": "20/07/2022 19:31:35"}, {"Gestore": "PREALPINA DISTRIBUZIONE CARBURANTI S.R.L.", "Bandiera": "Pompe Bianche", "Tipo impianto": "Altro", "Indirizzo": "VIA ROMA, ANG. MEDAGLIE D'ORO  21011", "Nome impianto": "PREALPINA DISTRIBUZIONE CARBURANTI SRL_", "Comune": "CASORATE SEMPIONE", "idImpianto": 4185, "points": [{"type": "Feature", "properties": {}, "geometry": {"type": "Point", "coordinates": [8.749526739120483, 45.66520207437205]}}], "price": 0.869, "ultima_rilevazione": "21/07/2022 10:09:47"}, {"Gestore": "ELDAGAS - S.R.L.", "Bandiera": "Pompe Bianche", "Tipo impianto": "Strada Statale", "Indirizzo": "Strada Statale, Km. 22, Varese 21049", "Nome impianto": "ELDA GAS", "Comune": "TRADATE", "idImpianto": 43530, "points": [{"type": "Feature", "properties": {}, "geometry": {"type": "Point", "coordinates": [8.888719923008125, 45.70678771519606]}}], "price": 0.809, "ultima_rilevazione": "22/07/2022 16:48:31"}]}, "Gasolio": {"1": [{"Gestore": "DO & FA SNC DI CANNATA' DOMENICO E C.", "Bandiera": "Api-Ip", "Tipo impianto": "Altro", "Indirizzo": "VIA MARCONI 125 21012", "Nome impianto": "DO&FA SNC", "Comune": "CASSANO MAGNAGO", "idImpianto": 44282, "points": [{"type": "Feature", "properties": {}, "geometry": {"type": "Point", "coordinates": [8.821145000123, 45.690611000123]}}], "price": 1.869, "ultima_rilevazione": "22/07/2022 08:04:21"}, {"Gestore": "COZZI ANDREA", "Bandiera": "Agip Eni", "Tipo impianto": "Altro", "Indirizzo": "VIA VARESE 14 21013", "Nome impianto": "ENI", "Comune": "GALLARATE", "idImpianto": 28889, "points": [{"type": "Feature", "properties": {}, "geometry": {"type": "Point", "coordinates": [8.797299733729574, 45.67431099042725]}}], "price": 1.869, "ultima_rilevazione": "23/07/2022 06:59:21"}, {"Gestore": "IP SERVICES S.R.L.", "Bandiera": "Api-Ip", "Tipo impianto": "Altro", "Indirizzo": "S.P. 12 VIA COMO  21050", "Nome impianto": "CAIRATE - BOLLADELLO", "Comune": "CAIRATE", "idImpianto": 36260, "points": [{"type": "Feature", "properties": {}, "geometry": {"type": "Point", "coordinates": [8.844366107969336, 45.68073092003936]}}], "price": 1.844, "ultima_rilevazione": "24/07/2022 09:00:58"}, {"Gestore": "IP SERVICES S.R.L.", "Bandiera": "Api-Ip", "Tipo impianto": "Strada Statale", "Indirizzo": "Statale 336 dell'Aeroporto della Malpensa, Km. KM. 1,850, dir. BUSTO ARSIZIO 21052", "Nome impianto": "BUSTO ARSIZIO", "Comune": "BUSTO ARSIZIO", "idImpianto": 24961, "points": [{"type": "Feature", "properties": {}, "geometry": {"type": "Point", "coordinates": [8.8329019239427, 45.63975625942259]}}], "price": 1.899, "ultima_rilevazione": "24/07/2022 09:02:13"}, {"Gestore": "MAIORIELLO MARCO", "Bandiera": "Tamoil", "Tipo impianto": "Altro", "Indirizzo": "VIA RONCHETTI 30 21044", "Nome impianto": "TAMOIL DI MAIORIELLO  MARCO", "Comune": "CAVARIA CON PREMEZZO", "idImpianto": 33723, "points": [{"type": "Feature", "properties": {}, "geometry": {"type": "Point", "coordinates": [8.801982700824738, 45.69239708563681]}}], "price": 1.879, "ultima_rilevazione": "25/07/2022 07:08:14"}, {"Gestore": "VARGAS SRL", "Bandiera": "Pompe Bianche", "Tipo impianto": "Altro", "Indirizzo": "VIA OLONA 181 21013", "Nome impianto": "vargas s.r.l.", "Comune": "GALLARATE", "idImpianto": 4135, "points": [{"type": "Feature", "properties": {}, "geometry": {"type": "Point", "coordinates": [8.816686804893493, 45.64914025334275]}}], "price": 1.869, "ultima_rilevazione": "25/07/2022 00:10:11"}, {"Gestore": "GESTIONI INNOVATIVE ITALIA S.R.L.", "Bandiera": "Agip Eni", "Tipo impianto": "Altro", "Indirizzo": "VIA IV NOVEMBRE 16, 21012", "Nome impianto": "PV 2828", "Comune": "CASSANO MAGNAGO", "idImpianto": 25391, "points": [{"type": "Feature", "properties": {}, "geometry": {"type": "Point", "coordinates": [8.822863698005676, 45.67164085351821]}}], "price": 1.844, "ultima_rilevazione": "25/07/2022 00:14:06"}, {"Gestore": "CAR-TEL S.N.C. DI TELESCA R.  &  CARTINI M. L.", "Bandiera": "Sommese Petroli", "Tipo impianto": "Altro", "Indirizzo": "Via Venegoni 14/16, 21012  21012", "Nome impianto": "Sommese Petroli ", "Comune": "CASSANO MAGNAGO", "idImpianto": 21271, "points": [{"type": "Feature", "properties": {}, "geometry": {"type": "Point", "coordinates": [8.816861055819686, 45.66864118622309]}}], "price": 1.879, "ultima_rilevazione": "25/07/2022 06:58:05"}, {"Gestore": "BEMA SAS DI ANDREA BERTOLASO & C.", "Bandiera": "Agip Eni", "Tipo impianto": "Altro", "Indirizzo": "VIA BONICALZA 127 21012", "Nome impianto": "Eni 02862 Cassano Magnago", "Comune": "CASSANO MAGNAGO", "idImpianto": 45389, "points": [{"type": "Feature", "properties": {}, "geometry": {"type": "Point", "coordinates": [8.843454000123, 45.660386000123]}}], "price": 1.869, "ultima_rilevazione": "25/07/2022 06:48:54"}], "3": [{"Gestore": "TURRI VERONICA", "Bandiera": "KEROPETROL", "Tipo impianto": "Altro", "Indirizzo": "VIA MILANO 3 21040", "Nome impianto": "Keropetrol", "Comune": "JERAGO CON ORAGO", "idImpianto": 29438, "points": [{"type": "Feature", "properties": {}, "geometry": {"type": "Point", "coordinates": [8.795823352184243, 45.70695030184689]}}], "price": 1.939, "ultima_rilevazione": "20/07/2022 16:54:59"}, {"Gestore": "LEPRI MARCO", "Bandiera": "Esso", "Tipo impianto": "Strada Statale", "Indirizzo": "Statale 33 del Sempione, Km. 144, dir. NORD 21052", "Nome impianto": "ESSO SEMPIONE", "Comune": "BUSTO ARSIZIO", "idImpianto": 9058, "points": [{"type": "Feature", "properties": {}, "geometry": {"type": "Point", "coordinates": [8.841612339019775, 45.62873718186091]}}], "price": 1.926, "ultima_rilevazione": "21/07/2022 09:51:56"}, {"Gestore": "LEPRI MARCO", "Bandiera": "Esso", "Tipo impianto": "Altro", "Indirizzo": "CORSO ITALIA  21052", "Nome impianto": "ESSO ITALIA", "Comune": "BUSTO ARSIZIO", "idImpianto": 9059, "points": [{"type": "Feature", "properties": {}, "geometry": {"type": "Point", "coordinates": [8.83901059627533, 45.615347715796815]}}], "price": 1.926, "ultima_rilevazione": "21/07/2022 09:52:27"}, {"Gestore": "PREALPINA DISTRIBUZIONE CARBURANTI S.R.L.", "Bandiera": "Pompe Bianche", "Tipo impianto": "Altro", "Indirizzo": "VIA ASSISI  21013", "Nome impianto": "PREALPINA DISTRIBUZIONE CARBURANTI SRL", "Comune": "GALLARATE", "idImpianto": 41799, "points": [{"type": "Feature", "properties": {}, "geometry": {"type": "Point", "coordinates": [8.777800717782725, 45.67986173067121]}}], "price": 1.878, "ultima_rilevazione": "21/07/2022 10:11:06"}, {"Gestore": "PREALPINA DISTRIBUZIONE CARBURANTI S.R.L.", "Bandiera": "Pompe Bianche", "Tipo impianto": "Altro", "Indirizzo": "VIA MONTE SAN MARTINO 19 21013", "Nome impianto": "PREALPINA DISTRIBUZIONE CARBURANTI SRL", "Comune": "GALLARATE", "idImpianto": 41800, "points": [{"type": "Feature", "properties": {}, "geometry": {"type": "Point", "coordinates": [8.774024695158005, 45.66904496299664]}}], "price": 1.878, "ultima_rilevazione": "21/07/2022 10:11:56"}, {"Gestore": "ELLEPI SERVICE DI LUCA PULVIRENTI", "Bandiera": "Agip Eni", "Tipo impianto": "Altro", "Indirizzo": "via ercole ferrario 1 21013", "Nome impianto": "02908", "Comune": "GALLARATE", "idImpianto": 28790, "points": [{"type": "Feature", "properties": {}, "geometry": {"type": "Point", "coordinates": [8.792808172521973, 45.65281493830711]}}], "price": 1.899, "ultima_rilevazione": "21/07/2022 17:24:44"}, {"Gestore": "BOSATELLI BRUNO & C. - S.A.S.", "Bandiera": "Esso", "Tipo impianto": "Altro", "Indirizzo": "VIA PER FAGNANO 24 21052", "Nome impianto": "ESSO", "Comune": "BUSTO ARSIZIO", "idImpianto": 10021, "points": [{"type": "Feature", "properties": {}, "geometry": {"type": "Point", "coordinates": [8.857867866754532, 45.62548446746924]}}], "price": 1.916, "ultima_rilevazione": "21/07/2022 18:19:47"}, {"Gestore": "ELDAGAS - S.R.L.", "Bandiera": "Pompe Bianche", "Tipo impianto": "Altro", "Indirizzo": "VIA MONTE ROSA 85 21050", "Nome impianto": "ELDA GAS 1", "Comune": "CAIRATE", "idImpianto": 47651, "points": [{"type": "Feature", "properties": {}, "geometry": {"type": "Point", "coordinates": [8.85530563558198, 45.68314771128692]}}], "price": 1.889, "ultima_rilevazione": "22/07/2022 16:48:26"}, {"Gestore": "V3 GARAGE S.A.S. DI VIGANO' PAOLO & C.", "Bandiera": "Esso", "Tipo impianto": "Altro", "Indirizzo": "VIA DEL LAVORO 26 21048", "Nome impianto": "V3 GARAGE SAS", "Comune": "SOLBIATE ARNO", "idImpianto": 26290, "points": [{"type": "Feature", "properties": {}, "geometry": {"type": "Point", "coordinates": [8.811409324407578, 45.71950060321544]}}], "price": 1.979, "ultima_rilevazione": "22/07/2022 16:53:47"}, {"Gestore": "MENTASTI SERGIO", "Bandiera": "Api-Ip", "Tipo impianto": "Altro", "Indirizzo": "VIA CARONNO VARESINO 17 21048", "Nome impianto": "IP", "Comune": "SOLBIATE ARNO", "idImpianto": 45996, "points": [{"type": "Feature", "properties": {}, "geometry": {"type": "Point", "coordinates": [8.817383000123, 45.727061000123]}}], "price": 1.959, "ultima_rilevazione": "23/07/2022 06:27:32"}, {"Gestore": "DEDA ASTRIT", "Bandiera": "Agip Eni", "Tipo impianto": "Altro", "Indirizzo": "VIA PER FAGNANO 32 21052", "Nome impianto": "eni 52359", "Comune": "BUSTO ARSIZIO", "idImpianto": 46044, "points": [{"type": "Feature", "properties": {}, "geometry": {"type": "Point", "coordinates": [8.857783000123, 45.626435000123]}}], "price": 1.914, "ultima_rilevazione": "23/07/2022 06:43:36"}, {"Gestore": "CEPPI ROBERTO", "Bandiera": "Agip Eni", "Tipo impianto": "Altro", "Indirizzo": "VIALE ARMANDO DIAZ 28 21052", "Nome impianto": "ENI PV 02805", "Comune": "BUSTO ARSIZIO", "idImpianto": 38949, "points": [{"type": "Feature", "properties": {}, "geometry": {"type": "Point", "coordinates": [8.852900235581956, 45.62159883144696]}}], "price": 1.909, "ultima_rilevazione": "23/07/2022 08:09:19"}, {"Gestore": "LU.PI. DI LUCA PIVA", "Bandiera": "Agip Eni", "Tipo impianto": "Altro", "Indirizzo": "Via Carlo No\u00e8 48 21013", "Nome impianto": "Eni Station", "Comune": "GALLARATE", "idImpianto": 48492, "points": [{"type": "Feature", "properties": {}, "geometry": {"type": "Point", "coordinates": [8.782354151727843, 45.655678477844525]}}], "price": 1.869, "ultima_rilevazione": "23/07/2022 08:12:39"}, {"Gestore": "BROMAR S.N.C. DI BROCCOLO SONIA E C.", "Bandiera": "Q8", "Tipo impianto": "Altro", "Indirizzo": "VIA TORINO, ANGOLO VIA CHECCHI 82 21013", "Nome impianto": "BROMAR S.N.C.", "Comune": "GALLARATE", "idImpianto": 10555, "points": [{"type": "Feature", "properties": {}, "geometry": {"type": "Point", "coordinates": [8.792936000123, 45.644901000123]}}], "price": 1.899, "ultima_rilevazione": "23/07/2022 08:24:29"}, {"Gestore": "VINCI S.A.S. DI VINCI SALVATORE & C.", "Bandiera": "Agip Eni", "Tipo impianto": "Altro", "Indirizzo": "via busto fagnano 36 21057", "Nome impianto": "02874 OLGIATE OLONA", "Comune": "OLGIATE OLONA", "idImpianto": 7166, "points": [{"type": "Feature", "properties": {}, "geometry": {"type": "Point", "coordinates": [8.858649730682373, 45.631588145862736]}}], "price": 1.874, "ultima_rilevazione": "23/07/2022 13:17:01"}, {"Gestore": "AUTORIPARAZIONI MARTIGNONI CORRADO", "Bandiera": "Pompe Bianche", "Tipo impianto": "Altro", "Indirizzo": "VIA SAN ROCCO 311 21050", "Nome impianto": "POMPE BIANCHE", "Comune": "CASTELSEPRIO", "idImpianto": 18798, "points": [{"type": "Feature", "properties": {}, "geometry": {"type": "Point", "coordinates": [8.862280830688405, 45.71264320534582]}}], "price": 1.909, "ultima_rilevazione": "23/07/2022 20:38:11"}, {"Gestore": "IP SERVICES S.R.L.", "Bandiera": "Api-Ip", "Tipo impianto": "Altro", "Indirizzo": "VIA PER FAGNANO 46 21057", "Nome impianto": "OLGIATE OLONA", "Comune": "OLGIATE OLONA", "idImpianto": 27295, "points": [{"type": "Feature", "properties": {}, "geometry": {"type": "Point", "coordinates": [8.85911206994058, 45.63571781676173]}}], "price": 1.889, "ultima_rilevazione": "24/07/2022 09:01:12"}, {"Gestore": "IP SERVICES S.R.L.", "Bandiera": "Api-Ip", "Tipo impianto": "Altro", "Indirizzo": "VIA CARLO NOE' 35  21013", "Nome impianto": "GALLARATE  - CARLO NOE' 35", "Comune": "GALLARATE", "idImpianto": 24620, "points": [{"type": "Feature", "properties": {}, "geometry": {"type": "Point", "coordinates": [8.783059766864653, 45.66112624437493]}}], "price": 1.889, "ultima_rilevazione": "24/07/2022 09:01:15"}, {"Gestore": "IP SERVICES S.R.L.", "Bandiera": "Api-Ip", "Tipo impianto": "Altro", "Indirizzo": "via Sanzio 15 21013", "Nome impianto": "Gallarate Sanzio", "Comune": "GALLARATE", "idImpianto": 38380, "points": [{"type": "Feature", "properties": {}, "geometry": {"type": "Point", "coordinates": [8.795668647815774, 45.66804046676662]}}], "price": 1.899, "ultima_rilevazione": "24/07/2022 09:03:14"}, {"Gestore": "IP SERVICES S.R.L.", "Bandiera": "Api-Ip", "Tipo impianto": "Altro", "Indirizzo": "Via per Busto   21058", "Nome impianto": "SOLBIATE OLONA", "Comune": "SOLBIATE OLONA", "idImpianto": 10096, "points": [{"type": "Feature", "properties": {}, "geometry": {"type": "Point", "coordinates": [8.865092396736145, 45.64576541117171]}}], "price": 1.889, "ultima_rilevazione": "24/07/2022 09:04:20"}, {"Gestore": "IP SERVICES S.R.L.", "Bandiera": "Api-Ip", "Tipo impianto": "Altro", "Indirizzo": "Via Torino   21013", "Nome impianto": "Gallarate via Torino", "Comune": "GALLARATE", "idImpianto": 10130, "points": [{"type": "Feature", "properties": {}, "geometry": {"type": "Point", "coordinates": [8.79481032023773, 45.65067258728234]}}], "price": 1.889, "ultima_rilevazione": "24/07/2022 09:04:30"}, {"Gestore": "GAIA S.A.S. DI GAIARIN DAVIDE & C.", "Bandiera": "Sommese Petroli", "Tipo impianto": "Altro", "Indirizzo": "VIA ARMANDO DIAZ 40 21054", "Nome impianto": "Gaia S.a.s.", "Comune": "FAGNANO OLONA", "idImpianto": 36188, "points": [{"type": "Feature", "properties": {}, "geometry": {"type": "Point", "coordinates": [8.867793474204973, 45.66553496346702]}}], "price": 1.899, "ultima_rilevazione": "24/07/2022 11:56:06"}, {"Gestore": "PAGANI ORNELLA", "Bandiera": "Tamoil", "Tipo impianto": "Altro", "Indirizzo": "via per carnago 3", "Nome impianto": "tamoil", "Comune": "SOLBIATE ARNO", "idImpianto": 15594, "points": [{"type": "Feature", "properties": {}, "geometry": {"type": "Point", "coordinates": [8.821405876721201, 45.71796479729656]}}], "price": 1.979, "ultima_rilevazione": "24/07/2022 18:56:02"}, {"Gestore": "BUSELLATO MASSIMO", "Bandiera": "Agip Eni", "Tipo impianto": "Altro", "Indirizzo": "VIA AMBROSOLI ANG. VIA MILANO 15 21013", "Nome impianto": "ENI BUSELLATO", "Comune": "GALLARATE", "idImpianto": 40509, "points": [{"type": "Feature", "properties": {}, "geometry": {"type": "Point", "coordinates": [8.807483911514282, 45.65049049417369]}}], "price": 1.874, "ultima_rilevazione": "24/07/2022 21:00:20"}, {"Gestore": "LO TURCO BRUNO", "Bandiera": "Pompe Bianche", "Tipo impianto": "Altro", "Indirizzo": "Via.C.Noe 43 21013", "Nome impianto": "Distributore Lo Turco Bruno", "Comune": "GALLARATE", "idImpianto": 17205, "points": [{"type": "Feature", "properties": {}, "geometry": {"type": "Point", "coordinates": [8.782966448561638, 45.658904859555896]}}], "price": 1.889, "ultima_rilevazione": "24/07/2022 22:53:22"}, {"Gestore": "SERVIZI & GESTIONI ITALIA srl", "Bandiera": "Q8", "Tipo impianto": "Altro", "Indirizzo": "VIA C. NOE' 79 21013", "Nome impianto": "GALLARATE VIA C. NOE' 79", "Comune": "GALLARATE", "idImpianto": 6458, "points": [{"type": "Feature", "properties": {}, "geometry": {"type": "Point", "coordinates": [8.782875680950951, 45.655528206039214]}}], "price": 1.889, "ultima_rilevazione": "25/07/2022 00:36:29"}, {"Gestore": "SERVIZI & GESTIONI ITALIA S.R.L.", "Bandiera": "Q8", "Tipo impianto": "Altro", "Indirizzo": "CORSO ITALIA 23 21052", "Nome impianto": "BUSTO ARSIZIO-CORSO ITALIA 23", "Comune": "BUSTO ARSIZIO", "idImpianto": 11922, "points": [{"type": "Feature", "properties": {}, "geometry": {"type": "Point", "coordinates": [8.846762449073822, 45.62081875947187]}}], "price": 1.829, "ultima_rilevazione": "25/07/2022 00:36:29"}, {"Gestore": "SERVIZI & GESTIONI ITALIA S.R.L.", "Bandiera": "Q8", "Tipo impianto": "Altro", "Indirizzo": "VIA ERCOLE FERRARIO 37 SS. 33 21013", "Nome impianto": "GALLARATE - VIA ERCOLE FERRARIO 37 SS.", "Comune": "GALLARATE", "idImpianto": 31851, "points": [{"type": "Feature", "properties": {}, "geometry": {"type": "Point", "coordinates": [8.785941079258919, 45.65343803154252]}}], "price": 1.889, "ultima_rilevazione": "25/07/2022 00:36:30"}, {"Gestore": "SERVIZI & GESTIONI ITALIA S.R.L.", "Bandiera": "Q8", "Tipo impianto": "Altro", "Indirizzo": "VIALE MALPENSA 19 21052", "Nome impianto": "BUSTO ARSIZIO VIALE MALPENSA 19", "Comune": "BUSTO ARSIZIO", "idImpianto": 23156, "points": [{"type": "Feature", "properties": {}, "geometry": {"type": "Point", "coordinates": [8.849781362951717, 45.63720059681254]}}], "price": 1.869, "ultima_rilevazione": "25/07/2022 00:36:30"}, {"Gestore": "SOMMESE CARBURANTE S.R.L.", "Bandiera": "Sommese Petroli", "Tipo impianto": "Altro", "Indirizzo": "Via Per Cassano 80 21052", "Nome impianto": "SOMMESE CARBURANTE BUSTO ", "Comune": "BUSTO ARSIZIO", "idImpianto": 39853, "points": [{"type": "Feature", "properties": {}, "geometry": {"type": "Point", "coordinates": [8.846336471163909, 45.636349970305154]}}], "price": 1.899, "ultima_rilevazione": "25/07/2022 00:56:08"}, {"Gestore": "SOMMESE CARBURANTE S.R.L.", "Bandiera": "Sommese Petroli", "Tipo impianto": "Altro", "Indirizzo": "VIALE MILANO 33 21013", "Nome impianto": "SOMMESE CARBURANTE VIALE MILANO", "Comune": "GALLARATE", "idImpianto": 34333, "points": [{"type": "Feature", "properties": {}, "geometry": {"type": "Point", "coordinates": [8.801605022186209, 45.655140743708245]}}], "price": 1.869, "ultima_rilevazione": "25/07/2022 06:04:07"}, {"Gestore": "SOMMESE CARBURANTE S.R.L.", "Bandiera": "Sommese Petroli", "Tipo impianto": "Strada Statale", "Indirizzo": "33 del Sempione, Km. 40+252, nord 21013", "Nome impianto": "SOMMESE - SEMPIONE", "Comune": "GALLARATE", "idImpianto": 43823, "points": [{"type": "Feature", "properties": {}, "geometry": {"type": "Point", "coordinates": [8.778295516967773, 45.66498502191534]}}], "price": 1.869, "ultima_rilevazione": "25/07/2022 06:04:08"}, {"Gestore": "SOMMESE CARBURANTE S.R.L.", "Bandiera": "Retitalia", "Tipo impianto": "Altro", "Indirizzo": "VIA ALCIDE DE GASPERI  126 21057", "Nome impianto": "SOMMESE CARBURANTE OLGIATE", "Comune": "OLGIATE OLONA", "idImpianto": 34089, "points": [{"type": "Feature", "properties": {}, "geometry": {"type": "Point", "coordinates": [8.88465194543835, 45.63889968669999]}}], "price": 1.889, "ultima_rilevazione": "25/07/2022 06:06:09"}, {"Gestore": "C.R. S.N.C. DI CANDIANI SIMONE  &  RAVASI PAOLO", "Bandiera": "Agip Eni", "Tipo impianto": "Altro", "Indirizzo": "VIA TORINO 76 21013", "Nome impianto": "crsnc", "Comune": "GALLARATE", "idImpianto": 10817, "points": [{"type": "Feature", "properties": {}, "geometry": {"type": "Point", "coordinates": [8.793311690807286, 45.64576312759459]}}], "price": 1.874, "ultima_rilevazione": "25/07/2022 06:48:10"}, {"Gestore": "SOMMESE CARBURANTE S.R.L.", "Bandiera": "Sommese Petroli", "Tipo impianto": "Altro", "Indirizzo": "Via Luigi Riva 21 21013", "Nome impianto": "SOMMESE CARBURANTE VIA RIVA", "Comune": "GALLARATE", "idImpianto": 42778, "points": [{"type": "Feature", "properties": {}, "geometry": {"type": "Point", "coordinates": [8.79571833372961, 45.66626589283417]}}], "price": 1.919, "ultima_rilevazione": "25/07/2022 07:12:05"}, {"Gestore": "KANT S.A.S. DI MASATO CHRISTIAN & C.", "Bandiera": "Tamoil", "Tipo impianto": "Altro", "Indirizzo": "VIA CASSANO MAGNAGO 60BIS 21052", "Nome impianto": "KANT SAS di Masato Christian", "Comune": "BUSTO ARSIZIO", "idImpianto": 14992, "points": [{"type": "Feature", "properties": {}, "geometry": {"type": "Point", "coordinates": [8.847899436950684, 45.63089004819352]}}], "price": 1.899, "ultima_rilevazione": "25/07/2022 07:32:02"}], "5": [{"Gestore": "FUMAGALLI & MORANDI S.N.C DI FUMAGALLI ANTONELLA & C.", "Bandiera": "Sommese Petroli", "Tipo impianto": "Altro", "Indirizzo": "VIA GIUSEPPE GARIBALDI 83 21055", "Nome impianto": "FUMAGALLI & MORANDI", "Comune": "GORLA MINORE", "idImpianto": 19217, "points": [{"type": "Feature", "properties": {}, "geometry": {"type": "Point", "coordinates": [8.896482135582005, 45.65115185264066]}}], "price": 1.999, "ultima_rilevazione": "18/07/2022 14:16:01"}, {"Gestore": "ARPI S.A.S. DI ARRU MELISSA & C.", "Bandiera": "Api-Ip", "Tipo impianto": "Altro", "Indirizzo": "SP19 Km11 direzione Gorla Minore  21055", "Nome impianto": "Totalerg", "Comune": "GORLA MINORE", "idImpianto": 37667, "points": [{"type": "Feature", "properties": {}, "geometry": {"type": "Point", "coordinates": [8.90462078154087, 45.652237173918735]}}], "price": 1.889, "ultima_rilevazione": "20/07/2022 19:31:35"}, {"Gestore": "PREALPINA DISTRIBUZIONE CARBURANTI S.R.L.", "Bandiera": "Pompe Bianche", "Tipo impianto": "Altro", "Indirizzo": "VIA ROMA, ANG. MEDAGLIE D'ORO  21011", "Nome impianto": "PREALPINA DISTRIBUZIONE CARBURANTI SRL_", "Comune": "CASORATE SEMPIONE", "idImpianto": 4185, "points": [{"type": "Feature", "properties": {}, "geometry": {"type": "Point", "coordinates": [8.749526739120483, 45.66520207437205]}}], "price": 1.878, "ultima_rilevazione": "21/07/2022 10:09:47"}, {"Gestore": "PREALPINA DISTRIBUZIONE CARBURANTI S.R.L.", "Bandiera": "Pompe Bianche", "Tipo impianto": "Altro", "Indirizzo": "VIA DIAZ 71 21050", "Nome impianto": "PREALPINA DISTRIBUZIONE CARBURANTI SRL", "Comune": "MARNATE", "idImpianto": 41798, "points": [{"type": "Feature", "properties": {}, "geometry": {"type": "Point", "coordinates": [8.89830759814754, 45.631638269104215]}}], "price": 1.889, "ultima_rilevazione": "21/07/2022 10:48:35"}, {"Gestore": "BRUSAMOLIN CATIA", "Bandiera": "Esso", "Tipo impianto": "Altro", "Indirizzo": "via giuseppe verdi 49 21017", "Nome impianto": "stazione di servizio Esso", "Comune": "SAMARATE", "idImpianto": 16269, "points": [{"type": "Feature", "properties": {}, "geometry": {"type": "Point", "coordinates": [8.780278166570952, 45.62814871832988]}}], "price": 1.919, "ultima_rilevazione": "22/07/2022 08:14:58"}, {"Gestore": "TOTALERG DI GIUDICE LORENA", "Bandiera": "Api-Ip", "Tipo impianto": "Altro", "Indirizzo": "VIA XX SETTEMBRE 54 21052", "Nome impianto": "TotalErg ", "Comune": "BUSTO ARSIZIO", "idImpianto": 38454, "points": [{"type": "Feature", "properties": {}, "geometry": {"type": "Point", "coordinates": [8.866095088954921, 45.61281552864417]}}], "price": 1.889, "ultima_rilevazione": "22/07/2022 09:41:09"}, {"Gestore": "CASTELLANELLI S.N.C. DI CASTELLANELLI PIETRO & C.", "Bandiera": "Tamoil", "Tipo impianto": "Altro", "Indirizzo": "VIA TRIESTE 37 21011", "Nome impianto": "Castellanelli", "Comune": "CASORATE SEMPIONE", "idImpianto": 19081, "points": [{"type": "Feature", "properties": {}, "geometry": {"type": "Point", "coordinates": [8.754543108003986, 45.6713737257454]}}], "price": 2.049, "ultima_rilevazione": "22/07/2022 10:04:06"}, {"Gestore": "AMBROGIO MORO S.P.A.", "Bandiera": "Moro", "Tipo impianto": "Altro", "Indirizzo": "VIA DE GASPERI 15 21057", "Nome impianto": "Moro_Olgiate Olona", "Comune": "OLGIATE OLONA", "idImpianto": 29418, "points": [{"type": "Feature", "properties": {}, "geometry": {"type": "Point", "coordinates": [8.886073544774604, 45.62942081847766]}}], "price": 1.869, "ultima_rilevazione": "22/07/2022 14:47:52"}, {"Gestore": "GS SPA", "Bandiera": "Tamoil", "Tipo impianto": "Altro", "Indirizzo": "Corso XX settembre 91 21052", "Nome impianto": "Carrefour Tamoil Busto Arsizio", "Comune": "BUSTO ARSIZIO", "idImpianto": 48733, "points": [{"type": "Feature", "properties": {}, "geometry": {"type": "Point", "coordinates": [8.876524726736776, 45.61425777724803]}}], "price": 1.889, "ultima_rilevazione": "22/07/2022 16:08:48"}, {"Gestore": "MALNATI, RIGANTI & C. S.N.C.", "Bandiera": "Esso", "Tipo impianto": "Altro", "Indirizzo": "VIALE MILANO 27, 21040", "Nome impianto": "MALNATI RIGANTI & C. Snc", "Comune": "CARONNO VARESINO", "idImpianto": 8319, "points": [{"type": "Feature", "properties": {}, "geometry": {"type": "Point", "coordinates": [8.832143964279112, 45.73282738197626]}}], "price": 1.945, "ultima_rilevazione": "23/07/2022 08:42:58"}, {"Gestore": "SEVERO CARBURANTI DI SEVERO ALESSANDRO", "Bandiera": "Sommese Petroli", "Tipo impianto": "Altro", "Indirizzo": "via gramsci 94 21010", "Nome impianto": "Sommese Petroli", "Comune": "CARDANO AL CAMPO", "idImpianto": 41177, "points": [{"type": "Feature", "properties": {}, "geometry": {"type": "Point", "coordinates": [8.766267714120886, 45.65280249852187]}}], "price": 1.919, "ultima_rilevazione": "23/07/2022 12:37:26"}, {"Gestore": "IP SERVICES S.R.L.", "Bandiera": "Api-Ip", "Tipo impianto": "Altro", "Indirizzo": "VIALE BORRI 14 21052", "Nome impianto": "BUSTO ARSIZIO - BORRI 14", "Comune": "BUSTO ARSIZIO", "idImpianto": 29759, "points": [{"type": "Feature", "properties": {}, "geometry": {"type": "Point", "coordinates": [8.862762449073784, 45.606515011405214]}}], "price": 1.889, "ultima_rilevazione": "24/07/2022 09:02:46"}, {"Gestore": "CASTELLUCCIO SERVICE S.A.S. DI NESCI ERNESTO & C.", "Bandiera": "Agip Eni", "Tipo impianto": "Altro", "Indirizzo": "Via Piave 14 21050", "Nome impianto": "Eni Lonate Ceppino Pv 2933", "Comune": "LONATE CEPPINO", "idImpianto": 51215, "points": [{"type": "Feature", "properties": {}, "geometry": {"type": "Point", "coordinates": [8.879017829895014, 45.70529406718423]}}], "price": 1.884, "ultima_rilevazione": "24/07/2022 11:59:17"}, {"Gestore": "MAIORIELLO MARCO", "Bandiera": "Tamoil", "Tipo impianto": "Altro", "Indirizzo": "VIA  CARABELLI  4 21041", "Nome impianto": "MAIO  ALBIZZATE", "Comune": "ALBIZZATE", "idImpianto": 49086, "points": [{"type": "Feature", "properties": {}, "geometry": {"type": "Point", "coordinates": [8.799760626750434, 45.726971747716206]}}], "price": 1.949, "ultima_rilevazione": "24/07/2022 17:04:06"}, {"Gestore": "RAIMONDI MAURO", "Bandiera": "Agip Eni", "Tipo impianto": "Altro", "Indirizzo": "VIA ARMANDO DIAZ 1 21057", "Nome impianto": "RAIMONDI MAURO", "Comune": "OLGIATE OLONA", "idImpianto": 14944, "points": [{"type": "Feature", "properties": {}, "geometry": {"type": "Point", "coordinates": [8.888167440891266, 45.63324351402306]}}], "price": 1.874, "ultima_rilevazione": "24/07/2022 20:57:45"}, {"Gestore": "SERVIZI & GESTIONI ITALIA S.R.L.", "Bandiera": "Q8", "Tipo impianto": "Altro", "Indirizzo": "VIALE BOCCACCIO 24 21052", "Nome impianto": "BUSTO ARSIZIO-VIALE BOCCACCIO 24", "Comune": "BUSTO ARSIZIO", "idImpianto": 11920, "points": [{"type": "Feature", "properties": {}, "geometry": {"type": "Point", "coordinates": [8.861526822090127, 45.60159704228577]}}], "price": 1.879, "ultima_rilevazione": "25/07/2022 00:36:29"}, {"Gestore": "SERVIZI & GESTIONI ITALIA S.R.L.", "Bandiera": "Q8", "Tipo impianto": "Altro", "Indirizzo": "STRADA PROVINCIALE 12 21050", "Nome impianto": "CAIRATE-STRADA PROVINCIALE 12", "Comune": "CAIRATE", "idImpianto": 11925, "points": [{"type": "Feature", "properties": {}, "geometry": {"type": "Point", "coordinates": [8.886607288360665, 45.688237473809096]}}], "price": 1.909, "ultima_rilevazione": "25/07/2022 00:36:29"}, {"Gestore": "SERVIZI & GESTIONI ITALIA srl", "Bandiera": "Q8", "Tipo impianto": "Altro", "Indirizzo": "V.LE RIMEMBRANZE 53 21052", "Nome impianto": "BUSTO ARSIZIO V.LE RIMEMBRANZE  53", "Comune": "BUSTO ARSIZIO", "idImpianto": 6459, "points": [{"type": "Feature", "properties": {}, "geometry": {"type": "Point", "coordinates": [8.833518582942133, 45.60909492679454]}}], "price": 1.829, "ultima_rilevazione": "25/07/2022 00:36:30"}, {"Gestore": "SOMMESE CARBURANTE S.R.L.", "Bandiera": "Sommese Petroli", "Tipo impianto": "Altro", "Indirizzo": "Via Giovanni Amendola 160 21052", "Nome impianto": "BUSTO VIA AMENDOLA", "Comune": "BUSTO ARSIZIO", "idImpianto": 50978, "points": [{"type": "Feature", "properties": {}, "geometry": {"type": "Point", "coordinates": [8.819097709966561, 45.60333064015385]}}], "price": 1.919, "ultima_rilevazione": "25/07/2022 06:06:09"}, {"Gestore": "GAVAZZI MARCO", "Bandiera": "Sommese Petroli", "Tipo impianto": "Altro", "Indirizzo": "VIA CAPPUCCINI 20 21013", "Nome impianto": "SOMMESE gallarate", "Comune": "GALLARATE", "idImpianto": 34446, "points": [{"type": "Feature", "properties": {}, "geometry": {"type": "Point", "coordinates": [8.78462332431286, 45.64854362799238]}}], "price": 1.899, "ultima_rilevazione": "25/07/2022 07:02:06"}, {"Gestore": "IAMETTI S.A.S. DI IAMETTI DANILO E MARCO", "Bandiera": "Agip Eni", "Tipo impianto": "Altro", "Indirizzo": "VIALE PIRANDELLO 2 21052", "Nome impianto": "IAMETTI SAS", "Comune": "BUSTO ARSIZIO", "idImpianto": 14390, "points": [{"type": "Feature", "properties": {}, "geometry": {"type": "Point", "coordinates": [8.847196151520507, 45.60283165537623]}}], "price": 1.874, "ultima_rilevazione": "25/07/2022 07:19:58"}, {"Gestore": "ENI FUEL S.P.A.", "Bandiera": "Agip Eni", "Tipo impianto": "Altro", "Indirizzo": "VIA XX SETTEMBRE, 60  21052", "Nome impianto": "2807 \u2013 Busto Arsizio", "Comune": "BUSTO ARSIZIO", "idImpianto": 49792, "points": [{"type": "Feature", "properties": {}, "geometry": {"type": "Point", "coordinates": [8.867198119656962, 45.61297865138692]}}], "price": 1.874, "ultima_rilevazione": "25/07/2022 07:28:26"}]}, "Metano": {"1": [{"Gestore": "DO & FA SNC DI CANNATA' DOMENICO E C.", "Bandiera": "Api-Ip", "Tipo impianto": "Altro", "Indirizzo": "VIA MARCONI 125 21012", "Nome impianto": "DO&FA SNC", "Comune": "CASSANO MAGNAGO", "idImpianto": 44282, "points": [{"type": "Feature", "properties": {}, "geometry": {"type": "Point", "coordinates": [8.821145000123, 45.690611000123]}}], "price": 2.399, "ultima_rilevazione": "22/07/2022 08:04:21"}, {"Gestore": "COZZI ANDREA", "Bandiera": "Agip Eni", "Tipo impianto": "Altro", "Indirizzo": "VIA VARESE 14 21013", "Nome impianto": "ENI", "Comune": "GALLARATE", "idImpianto": 28889, "points": [{"type": "Feature", "properties": {}, "geometry": {"type": "Point", "coordinates": [8.797299733729574, 45.67431099042725]}}], "price": 2.291, "ultima_rilevazione": "23/07/2022 06:59:21"}], "3": [{"Gestore": "X3CNG ITALIA S.R.L.", "Bandiera": "Pompe Bianche", "Tipo impianto": "Altro", "Indirizzo": "VIA ALEARDI 70 21013", "Nome impianto": "X3Energy", "Comune": "GALLARATE", "idImpianto": 49482, "points": [{"type": "Feature", "properties": {}, "geometry": {"type": "Point", "coordinates": [8.808332565641415, 45.64173781089698]}}], "price": 1.949, "ultima_rilevazione": "24/07/2022 23:00:12"}], "5": [{"Gestore": "PREALPINA DISTRIBUZIONE CARBURANTI S.R.L.", "Bandiera": "Pompe Bianche", "Tipo impianto": "Altro", "Indirizzo": "VIA ROMA, ANG. MEDAGLIE D'ORO  21011", "Nome impianto": "PREALPINA DISTRIBUZIONE CARBURANTI SRL_", "Comune": "CASORATE SEMPIONE", "idImpianto": 4185, "points": [{"type": "Feature", "properties": {}, "geometry": {"type": "Point", "coordinates": [8.749526739120483, 45.66520207437205]}}], "price": 1.995, "ultima_rilevazione": "21/07/2022 10:09:47"}]}}