{"area_comune": "[{\"type\": \"Feature\", \"properties\": {}, \"geometry\": {\"type\": \"Polygon\", \"coordinates\": [[[7.607457857193927, 45.12015894241137], [7.616846732750762, 45.114417465247634], [7.618435151255902, 45.1139866116809], [7.622876695783434, 45.11382482974067], [7.62259547337968, 45.11019320980933], [7.615788406070874, 45.108220486730424], [7.615125067246989, 45.09920661621871], [7.617304007276939, 45.090298434965064], [7.6034962146722425, 45.071166113079435], [7.580997219913696, 45.070278745488395], [7.571821401309368, 45.06937218701711], [7.5648712946530905, 45.06944707490851], [7.558854132896386, 45.0700059066725], [7.558080667887299, 45.07059927007187], [7.557877750018111, 45.07645684225433], [7.557468756405816, 45.080655479923514], [7.55671980094169, 45.085169379515264], [7.558283354800874, 45.08984753469144], [7.558452279171127, 45.089557112879156], [7.55902778852068, 45.08922230636323], [7.561032883157613, 45.08852296719821], [7.562951732040767, 45.08817355382303], [7.564819377744969, 45.08813852913802], [7.574813694427815, 45.100749089405625], [7.576160761347501, 45.10380846985772], [7.580652662246153, 45.10746958000316], [7.592916603704472, 45.11348146583361], [7.607457857193927, 45.12015894241137]]]}}]", "comune": "collegno", "buffer_1": "[{\"type\": \"Feature\", \"properties\": {}, \"geometry\": {\"type\": \"Polygon\", \"coordinates\": [[[7.599113386356413, 45.12694931579499], [7.600088377650648, 45.12749298320408], [7.601133622805558, 45.12796675519092], [7.602239159014838, 45.128366115190985], [7.603394447988852, 45.12868725592248], [7.6045884764993765, 45.12892711572894], [7.605809861481646, 45.12908340780747], [7.607046958686265, 45.129154642041684], [7.608287973838894, 45.12914013923004], [7.609521075240859, 45.129040037572786], [7.610734506729796, 45.128855291354995], [7.611916699915761, 45.12858766183864], [7.613056384615453, 45.128239700450465], [7.614142696424707, 45.12781472442764], [7.615165280397584, 45.1273167851541], [7.616114389838375, 45.12675062949193], [7.631252296956523, 45.11678376321585], [7.632107044194167, 45.11616388691254], [7.632873643627581, 45.115488692603236], [7.633544994128743, 45.11476443748457], [7.634114877986017, 45.11399783317961], [7.634578018432876, 45.113195983493576], [7.634930128425788, 45.11236631854226], [7.635167950223397, 45.11151652586532], [7.635289285405428, 45.11065447916502], [7.635293015059239, 45.10978816533148], [7.635179109953676, 45.10892561043211], [7.634948630613109, 45.1080748053511], [7.634603717298215, 45.107243631768135], [7.615497168079322, 45.0682184372051], [7.615021494211838, 45.06738362701357], [7.614430527012235, 45.06658666581774], [7.613730182843432, 45.06583552590227], [7.612927471402286, 45.065137720874866], [7.6120304254875215, 45.06450023056477], [7.611048020576148, 45.06392943126745], [7.609990085015081, 45.06343103203025], [7.608867201726737, 45.06301001761299], [7.60769060241034, 45.06267059869118], [7.606472055294, 45.062416169796755], [7.605223747555417, 45.062249275414494], [7.60395816358103, 45.06217158457091], [7.5593230656613555, 45.06101164507481], [7.558063778801171, 45.06102295386537], [7.556812261599892, 45.06112259225608], [7.5555808164914655, 45.061309580727965], [7.554381548854978, 45.06158208109984], [7.553226248172944, 45.06193741457582], [7.55212627227453, 45.062372088046175], [7.55109243579486, 45.06288182838399], [7.550134903941072, 45.063461624403196], [7.5492630926051, 45.06410577606739], [7.548485575802239, 45.064807950468825], [7.547810001344251, 45.06556124402974], [7.547243015576495, 45.06635825031767], [7.546790197921242, 45.0671911328109], [7.546456005874502, 45.068051701901126], [7.546243731002498, 45.06893149537882], [7.546155466377016, 45.069821861611885], [7.545580296098957, 45.089663370941416], [7.545614914648147, 45.09053737372302], [7.545769093517046, 45.091404872701126], [7.5460413829862105, 45.09225768057536], [7.546429218341866, 45.093087748336], [7.546928943892447, 45.0938872412539], [7.547535847301055, 45.09464861286064], [7.548244203916108, 45.09536467621878], [7.549047330687184, 45.09602867180808], [7.549937649161355, 45.09663433138445], [7.599113386356413, 45.12694931579499]]]}}]", "buffer_3": "[{\"type\": \"Feature\", \"properties\": {}, \"geometry\": {\"type\": \"Polygon\", \"coordinates\": [[[7.582418487331082, 45.140528136083454], [7.585343715427459, 45.14215954046963], [7.588479922148135, 45.14358123501486], [7.591797201161586, 45.14477965560913], [7.595263912098833, 45.145743367435436], [7.5988469831580465, 45.14646317449282], [7.602512227633802, 45.14693220770155], [7.606224671302258, 45.147145990733165], [7.609948887481146, 45.147102482923565], [7.613649336503741, 45.146802098850394], [7.617290706300073, 45.14624770438336], [7.620838250766813, 45.14544458924484], [7.624258122630051, 45.14440041634734], [7.62751769756203, 45.14312514840037], [7.630585886403121, 45.14163095250027], [7.633433432463067, 45.139932083630185], [7.648571918610064, 45.129962949101035], [7.651136151697243, 45.12810291568523], [7.653435720699829, 45.12607693501384], [7.655449330755775, 45.123903793392714], [7.657158345100423, 45.121603639608516], [7.658546957043404, 45.11919779768084], [7.65960233542531, 45.11670856878137], [7.660314742243317, 45.114159024174654], [7.660677621402503, 45.11157279111497], [7.660687657825139, 45.10897383369649], [7.660344806430737, 45.10638623069595], [7.659652290782572, 45.1038339524715], [7.65861657147868, 45.10134063898503], [7.639495452051481, 45.06231925267365], [7.638067556751608, 45.05981510298357], [7.636293961016453, 45.057424556586284], [7.634192441590806, 45.055171516875625], [7.631784046949154, 45.05307850950976], [7.629092885830516, 45.05116645771176], [7.626145885559204, 45.04945447365214], [7.622972522587615, 45.04795966797178], [7.61960452795822, 45.04669697932104], [7.616075570616091, 45.04567902559153], [7.612420921708674, 45.04491597830086], [7.608677103184859, 45.0444154613625], [7.604881524149449, 45.04418247523192], [7.560260384122767, 45.04302306921897], [7.556483707602724, 45.043056999989396], [7.552730315094654, 45.043355837571816], [7.549037068467017, 45.04391664644756], [7.545440241178949, 45.044733918203974], [7.541975163425961, 45.04579962543755], [7.53867587636785, 45.047103300305], [7.535574798773507, 45.04863213696438], [7.532702409305225, 45.050371116919464], [7.530086947523672, 45.05230315605689], [7.527754136524477, 45.05440927195669], [7.525726929919859, 45.05666876985785], [7.524025285654991, 45.059059445478184], [7.522665968900609, 45.06155780272163], [7.521662385992465, 45.06413928415746], [7.521024451096774, 45.06677851202866], [7.520758486970984, 45.06944953743852], [7.520174532784986, 45.089290806477756], [7.520277226934117, 45.09191282269465], [7.520738632278145, 45.0945154061263], [7.521554442280591, 45.09707399162725], [7.522717002691092, 45.099564426082516], [7.524215382090114, 45.10196319660564], [7.526035473540018, 45.104247652805526], [7.528160126440394, 45.106396221010904], [7.530569307391733, 45.1083886084129], [7.533240288587049, 45.11020599517912], [7.582418487331082, 45.140528136083454]]]}}]", "buffer_5": "[{\"type\": \"Feature\", \"properties\": {}, \"geometry\": {\"type\": \"Polygon\", \"coordinates\": [[[7.56571563994993, 45.15410438487603], [7.570591443013828, 45.15682406289904], [7.575819239367704, 45.15919418530107], [7.581349155294794, 45.1611921211513], [7.58712841432445, 45.16279879074882], [7.593101843192218, 45.163998848990175], [7.599212401432887, 45.1647808329174], [7.6054017294136615, 45.165137271989465], [7.611610709413831, 45.16506475998696], [7.617780034214531, 45.16456398783679], [7.623850777579632, 45.163639737030415], [7.629764960987393, 45.162300833698154], [7.635466111012886, 45.160560063791], [7.64089980186262, 45.15843405020588], [7.646014177723857, 45.1559430930647], [7.650760449809479, 45.15311097472012], [7.665899511198272, 45.14313957073171], [7.670173217323625, 45.14003884057667], [7.674005448554598, 45.13666154309685], [7.677360727791423, 45.133039013350945], [7.680208021190848, 45.1292048558532], [7.682521023766548, 45.125194631634955], [7.68427840034292, 45.12104552733412], [7.685463979733157, 45.11679600943175], [7.686066900472889, 45.11248546688542], [7.686081706911399, 45.10815384550594], [7.685508394938831, 45.10384127749089], [7.684352407104218, 45.09958770956055], [7.682624577351559, 45.095432533143025], [7.663488902139678, 45.05641496030177], [7.661107622177225, 45.052241846102795], [7.658150474245129, 45.048258164369194], [7.654647132179029, 45.044503731648014], [7.650632708911642, 45.041016065436516], [7.6461474027639404, 45.03783001069068], [7.6412360939789075, 45.0349773932079], [7.635947895583343, 45.03248670327148], [7.630335663073705, 45.03038281264009], [7.624455467787562, 45.02868672763227], [7.618366039140957, 45.0274153807003], [7.61212818118258, 45.02658146250924], [7.605804169136702, 45.02619329614255], [7.561196973922967, 45.025034423161806], [7.554904484639461, 45.02509098179934], [7.548650760530161, 45.025588915311566], [7.542497162474382, 45.02652333621272], [7.536504075239385, 45.027885073999926], [7.53073031882974, 45.02966076459568], [7.525232574688822, 45.03183298068464], [7.520064832213391, 45.03438040170533], [7.515277860870149, 45.037278021879544], [7.510918712985093, 45.04049739429692], [7.507030262013272, 45.04400690872636], [7.503650780789274, 45.047772100497525], [7.500813563909006, 45.05175598749282], [7.49854659800268, 45.055919432011756], [7.496872283229627, 45.06022152402108], [7.495807208860322, 45.06461998208646], [7.495361985312676, 45.06907156809812], [7.494769247836164, 45.08891259296534], [7.494938468791357, 45.09328263226051], [7.495705591614623, 45.09762041466471], [7.497063509835918, 45.10188499291404], [7.498999532949602, 45.10603610171866], [7.501495501472921, 45.110034538469286], [7.504527954110148, 45.113842534223906], [7.5080683456048005, 45.11742411143567], [7.512083313359739, 45.12074542499769], [7.516534990414907, 45.123775083328965], [7.56571563994993, 45.15410438487603]]]}}]", "centroid": "[{\"type\": \"Feature\", \"properties\": {}, \"geometry\": {\"type\": \"Point\", \"coordinates\": [7.590460798303561, 45.09188100407375]}}]", "Diesel High Quality": {"1": [{"Gestore": "SERVIZI & GESTIONI ITALIA srl", "Bandiera": "Q8", "Tipo impianto": "Altro", "Indirizzo": "SP 24 LOC. STAZIONETTA SNC 10093", "Nome impianto": "COLLEGNO SP 24 LOC. STAZIONETTA", "Comune": "COLLEGNO", "idImpianto": 6393, "points": [{"type": "Feature", "properties": {}, "geometry": {"type": "Point", "coordinates": [7.577296793460846, 45.09582544231724]}}], "price": 1.685, "ultima_rilevazione": "18/04/2022 00:32:57"}, {"Gestore": "SABINO ALESSANDRO", "Bandiera": "Esso", "Tipo impianto": "Altro", "Indirizzo": "STRADA TORINO PIANEZZA 90 10093", "Nome impianto": "ESSO STAZIONE", "Comune": "COLLEGNO", "idImpianto": 50690, "points": [{"type": "Feature", "properties": {}, "geometry": {"type": "Point", "coordinates": [7.592963317790918, 45.09679353299372]}}], "price": 1.909, "ultima_rilevazione": "15/04/2022 09:03:47"}, {"Gestore": "SERVIZI & GESTIONI ITALIA S.R.L.", "Bandiera": "Q8", "Tipo impianto": "Altro", "Indirizzo": "VIA PIANEZZA 385 10151", "Nome impianto": "TORINO VIA PIANEZZA 385", "Comune": "TORINO", "idImpianto": 48815, "points": [{"type": "Feature", "properties": {}, "geometry": {"type": "Point", "coordinates": [7.620992475463093, 45.09912497394853]}}], "price": 2.024, "ultima_rilevazione": "18/04/2022 00:33:00"}, {"Gestore": "SERVIZI & GESTIONI ITALIA S.R.L.", "Bandiera": "Q8", "Tipo impianto": "Altro", "Indirizzo": "VIA PIANEZZA 385 10151", "Nome impianto": "TORINO VIA PIANEZZA 385", "Comune": "TORINO", "idImpianto": 48815, "points": [{"type": "Feature", "properties": {}, "geometry": {"type": "Point", "coordinates": [7.620992475463093, 45.09912497394853]}}], "price": 2.029, "ultima_rilevazione": "18/04/2022 00:33:00"}, {"Gestore": "IP SERVICES S.R.L.", "Bandiera": "Api-Ip", "Tipo impianto": "Altro", "Indirizzo": "Corso Pastrengo  10093", "Nome impianto": "Collegno", "Comune": "COLLEGNO", "idImpianto": 39188, "points": [{"type": "Feature", "properties": {}, "geometry": {"type": "Point", "coordinates": [7.581583145368995, 45.08086836392947]}}], "price": 1.729, "ultima_rilevazione": "18/04/2022 12:03:08"}, {"Gestore": "IP SERVICES S.R.L.", "Bandiera": "Api-Ip", "Tipo impianto": "Altro", "Indirizzo": "c.so Torino 170 10095", "Nome impianto": "Grugliasco Corso Torino", "Comune": "GRUGLIASCO", "idImpianto": 38721, "points": [{"type": "Feature", "properties": {}, "geometry": {"type": "Point", "coordinates": [7.601460814476013, 45.06416035294209]}}], "price": 1.729, "ultima_rilevazione": "18/04/2022 12:03:13"}], "3": [{"Gestore": "ALOISIO MARCO", "Bandiera": "Q8", "Tipo impianto": "Altro", "Indirizzo": "VIA CAVALLO 76 10078", "Nome impianto": "Q8 Aloisio ", "Comune": "VENARIA REALE", "idImpianto": 32526, "points": [{"type": "Feature", "properties": {}, "geometry": {"type": "Point", "coordinates": [7.626418769359589, 45.13998102537151]}}], "price": 2.169, "ultima_rilevazione": "04/04/2022 16:35:44"}, {"Gestore": "ARC S.N.C. DI ARROCCESE GIULIAN & C.", "Bandiera": "Esso", "Tipo impianto": "Altro", "Indirizzo": "STRADA COMUNALE DI ALTESSANO 138/A 10151", "Nome impianto": "STAZIONE ESSO ARC.SNC", "Comune": "TORINO", "idImpianto": 37645, "points": [{"type": "Feature", "properties": {}, "geometry": {"type": "Point", "coordinates": [7.645719944249777, 45.10944612290978]}}], "price": 2.068, "ultima_rilevazione": "15/04/2022 07:47:11"}, {"Gestore": "CAPPUCCI ALESSIO CARBURANTI & C. S.N.C.", "Bandiera": "Esso", "Tipo impianto": "Altro", "Indirizzo": "Via Sansovino 88/A 10151", "Nome impianto": "CAPPUCCI ALESSIO CARBURANTI & C. SNC", "Comune": "TORINO", "idImpianto": 45129, "points": [{"type": "Feature", "properties": {}, "geometry": {"type": "Point", "coordinates": [7.641423000123, 45.101915000123]}}], "price": 1.899, "ultima_rilevazione": "15/04/2022 08:25:09"}, {"Gestore": "ROCCA PAOLO", "Bandiera": "Esso", "Tipo impianto": "Altro", "Indirizzo": "CORSO FRANCIA 30/C 10098", "Nome impianto": "ESSO", "Comune": "RIVOLI", "idImpianto": 51120, "points": [{"type": "Feature", "properties": {}, "geometry": {"type": "Point", "coordinates": [7.524395030001623, 45.070333304163405]}}], "price": 1.899, "ultima_rilevazione": "15/04/2022 13:23:48"}, {"Gestore": "SERVIZI & GESTIONI ITALIA S.R.L.", "Bandiera": "Q8", "Tipo impianto": "Altro", "Indirizzo": "VIA SANSOVINO/VIA MOLISE S/N 10151", "Nome impianto": "TORINO-VIA SANSOVINO/VIA MOLISE", "Comune": "TORINO", "idImpianto": 11863, "points": [{"type": "Feature", "properties": {}, "geometry": {"type": "Point", "coordinates": [7.63872682209012, 45.100830292288975]}}], "price": 2.055, "ultima_rilevazione": "16/04/2022 07:09:34"}, {"Gestore": "SERVIZI & GESTIONI ITALIA S.R.L.", "Bandiera": "Q8", "Tipo impianto": "Altro", "Indirizzo": "VIA SANSOVINO/VIA MOLISE S/N 10151", "Nome impianto": "TORINO-VIA SANSOVINO/VIA MOLISE", "Comune": "TORINO", "idImpianto": 11863, "points": [{"type": "Feature", "properties": {}, "geometry": {"type": "Point", "coordinates": [7.63872682209012, 45.100830292288975]}}], "price": 2.049, "ultima_rilevazione": "16/04/2022 07:09:34"}, {"Gestore": "SERVIZI & GESTIONI ITALIA S.R.L.", "Bandiera": "Q8", "Tipo impianto": "Altro", "Indirizzo": "VIA COSSA 2 /PIAZZA MASSAUA  10146", "Nome impianto": "TORINO VIA COSSA 2 /PIAZZA MASSAUA", "Comune": "TORINO", "idImpianto": 49464, "points": [{"type": "Feature", "properties": {}, "geometry": {"type": "Point", "coordinates": [7.620107088954944, 45.07537412944328]}}], "price": 2.029, "ultima_rilevazione": "18/04/2022 00:33:00"}, {"Gestore": "NUOVA SIDAP  S.R.L.", "Bandiera": "Api-Ip", "Tipo impianto": "Autostradale", "Indirizzo": "A55 TANG.LE DI TORINO, Km. 1+900, ovest 10098", "Nome impianto": "RIVOLI NORD", "Comune": "RIVOLI", "idImpianto": 25612, "points": [{"type": "Feature", "properties": {}, "geometry": {"type": "Point", "coordinates": [7.526997327804565, 45.08449363357934]}}], "price": 1.901, "ultima_rilevazione": "18/04/2022 07:35:05"}, {"Gestore": "IP SERVICES S.R.L.", "Bandiera": "Api-Ip", "Tipo impianto": "Altro", "Indirizzo": "SP 24 KM 2+265  10044", "Nome impianto": "Pianezza", "Comune": "PIANEZZA", "idImpianto": 38966, "points": [{"type": "Feature", "properties": {}, "geometry": {"type": "Point", "coordinates": [7.56183385848999, 45.11204418338163]}}], "price": 1.729, "ultima_rilevazione": "18/04/2022 12:03:30"}, {"Gestore": "IP SERVICES S.R.L.", "Bandiera": "Api-Ip", "Tipo impianto": "Altro", "Indirizzo": "CORSO TORINO  35/B 10098", "Nome impianto": "Rivoli corso Torino", "Comune": "RIVOLI", "idImpianto": 33456, "points": [{"type": "Feature", "properties": {}, "geometry": {"type": "Point", "coordinates": [7.5272876769304276, 45.07447469365621]}}], "price": 1.709, "ultima_rilevazione": "18/04/2022 12:03:36"}, {"Gestore": "IP SERVICES S.R.L.", "Bandiera": "Api-Ip", "Tipo impianto": "Altro", "Indirizzo": "Strada Altessano 106/A 10151", "Nome impianto": "Altessano Torino", "Comune": "TORINO", "idImpianto": 36452, "points": [{"type": "Feature", "properties": {}, "geometry": {"type": "Point", "coordinates": [7.645593881607056, 45.10782476295114]}}], "price": 1.729, "ultima_rilevazione": "18/04/2022 12:03:53"}, {"Gestore": "EGI-2GO S.R.L.", "Bandiera": "Esso", "Tipo impianto": "Altro", "Indirizzo": "CORSO ALLAMANO 95/A 10136", "Nome impianto": "Allamano", "Comune": "TORINO", "idImpianto": 49696, "points": [{"type": "Feature", "properties": {}, "geometry": {"type": "Point", "coordinates": [7.620519496666982, 45.05064810393972]}}], "price": 1.959, "ultima_rilevazione": "19/04/2022 07:00:07"}], "5": [{"Gestore": "EMY POWER S.A.S. DI MURSA MARIA & C.", "Bandiera": "Api-Ip", "Tipo impianto": "Strada Statale", "Indirizzo": "Strada Statale, Km. 174+1, via san luigi 174 10040", "Nome impianto": " Stazione di servizio IP Emy Power s.a.s.", "Comune": "RIVALTA DI TORINO", "idImpianto": 44832, "points": [{"type": "Feature", "properties": {}, "geometry": {"type": "Point", "coordinates": [7.541503032461605, 45.02828200492306]}}], "price": 1.759, "ultima_rilevazione": "13/04/2022 11:54:02"}, {"Gestore": "ROSELLI DAVIDE", "Bandiera": "Esso", "Tipo impianto": "Altro", "Indirizzo": "via lanzo  76 10071", "Nome impianto": "ESSO ", "Comune": "BORGARO TORINESE", "idImpianto": 48545, "points": [{"type": "Feature", "properties": {}, "geometry": {"type": "Point", "coordinates": [7.655568728836055, 45.14578362121748]}}], "price": 1.939, "ultima_rilevazione": "14/04/2022 17:39:59"}, {"Gestore": "TESORO MICHELE E DAVIDE SNC", "Bandiera": "Esso", "Tipo impianto": "Altro", "Indirizzo": "VIA STAMPINI 34/A 10148", "Nome impianto": "STAZIONE DI SERVIZIO ESSO DI TESORO M.E D.SNC", "Comune": "TORINO", "idImpianto": 44165, "points": [{"type": "Feature", "properties": {}, "geometry": {"type": "Point", "coordinates": [7.663632247885062, 45.10890661626722]}}], "price": 1.929, "ultima_rilevazione": "15/04/2022 07:28:01"}, {"Gestore": "CALAMITA DOMENICO", "Bandiera": "Esso", "Tipo impianto": "Altro", "Indirizzo": "PIAZZA OMERO / C.SO ORBASSANO S.N. 10137", "Nome impianto": "Esso di Calamita Domenico", "Comune": "TORINO", "idImpianto": 35491, "points": [{"type": "Feature", "properties": {}, "geometry": {"type": "Point", "coordinates": [7.629278885180611, 45.03741303357093]}}], "price": 1.919, "ultima_rilevazione": "15/04/2022 07:39:34"}, {"Gestore": "M.G.M. SERVICES S.N.C. DI NEBIOLO LUCIA E C.", "Bandiera": "Esso", "Tipo impianto": "Altro", "Indirizzo": "VIA EINAUDI 87 10040", "Nome impianto": "ESSO  MGM RIVALTA SOCOGAS", "Comune": "RIVALTA DI TORINO", "idImpianto": 46167, "points": [{"type": "Feature", "properties": {}, "geometry": {"type": "Point", "coordinates": [7.525778849737549, 45.03239638973849]}}], "price": 1.869, "ultima_rilevazione": "15/04/2022 08:02:52"}, {"Gestore": "SERVIZI & GESTIONI ITALIA S.R.L.", "Bandiera": "Q8", "Tipo impianto": "Altro", "Indirizzo": "STRAD PROV. TORINO-LANZO S/N 10071", "Nome impianto": "BORGARO TORINESE-STRAD PROV. TORINO-LANZO", "Comune": "BORGARO TORINESE", "idImpianto": 11873, "points": [{"type": "Feature", "properties": {}, "geometry": {"type": "Point", "coordinates": [7.655451720237693, 45.14140756768663]}}], "price": 2.069, "ultima_rilevazione": "16/04/2022 07:09:29"}, {"Gestore": "SERVIZI & GESTIONI ITALIA S.R.L.", "Bandiera": "Q8", "Tipo impianto": "Altro", "Indirizzo": "STRAD PROV. TORINO-LANZO S/N 10071", "Nome impianto": "BORGARO TORINESE-STRAD PROV. TORINO-LANZO", "Comune": "BORGARO TORINESE", "idImpianto": 11873, "points": [{"type": "Feature", "properties": {}, "geometry": {"type": "Point", "coordinates": [7.655451720237693, 45.14140756768663]}}], "price": 2.059, "ultima_rilevazione": "16/04/2022 07:09:29"}, {"Gestore": "SERVIZI & GESTIONI ITALIA S.R.L.", "Bandiera": "Q8", "Tipo impianto": "Altro", "Indirizzo": "C.SO RACCONIGI 194 10141", "Nome impianto": "TORINO-C.SO RACCONIGI 194", "Comune": "TORINO", "idImpianto": 11851, "points": [{"type": "Feature", "properties": {}, "geometry": {"type": "Point", "coordinates": [7.647143507629153, 45.05745055487085]}}], "price": 2.029, "ultima_rilevazione": "16/04/2022 07:09:34"}, {"Gestore": "SERVIZI & GESTIONI ITALIA S.R.L.", "Bandiera": "Q8", "Tipo impianto": "Altro", "Indirizzo": "C.SO RACCONIGI 194 10141", "Nome impianto": "TORINO-C.SO RACCONIGI 194", "Comune": "TORINO", "idImpianto": 11851, "points": [{"type": "Feature", "properties": {}, "geometry": {"type": "Point", "coordinates": [7.647143507629153, 45.05745055487085]}}], "price": 2.059, "ultima_rilevazione": "16/04/2022 07:09:34"}, {"Gestore": "SERVIZI & GESTIONI ITALIA S.R.L.", "Bandiera": "Q8", "Tipo impianto": "Altro", "Indirizzo": "CORSO SVIZZERA  ANG.VIA MEDICI 26 10143", "Nome impianto": "TORINO-CORSO SVIZZERA 26 ANG.VIA MEDICI", "Comune": "TORINO", "idImpianto": 11852, "points": [{"type": "Feature", "properties": {}, "geometry": {"type": "Point", "coordinates": [7.649384069388589, 45.0780309713667]}}], "price": 2.066, "ultima_rilevazione": "16/04/2022 07:09:34"}, {"Gestore": "SERVIZI & GESTIONI ITALIA S.R.L.", "Bandiera": "Q8", "Tipo impianto": "Altro", "Indirizzo": "CORSO SVIZZERA  ANG.VIA MEDICI 26 10143", "Nome impianto": "TORINO-CORSO SVIZZERA 26 ANG.VIA MEDICI", "Comune": "TORINO", "idImpianto": 11852, "points": [{"type": "Feature", "properties": {}, "geometry": {"type": "Point", "coordinates": [7.649384069388589, 45.0780309713667]}}], "price": 2.056, "ultima_rilevazione": "16/04/2022 07:09:34"}, {"Gestore": "SERVIZI & GESTIONI ITALIA S.R.L.", "Bandiera": "Q8", "Tipo impianto": "Altro", "Indirizzo": "C.SO ORBASSANO 374d 10137", "Nome impianto": "TORINO-C.SO ORBASSANO 374d", "Comune": "TORINO", "idImpianto": 11861, "points": [{"type": "Feature", "properties": {}, "geometry": {"type": "Point", "coordinates": [7.62081113624572, 45.03408862712448]}}], "price": 2.069, "ultima_rilevazione": "16/04/2022 07:09:34"}, {"Gestore": "SERVIZI & GESTIONI ITALIA S.R.L.", "Bandiera": "Q8", "Tipo impianto": "Altro", "Indirizzo": "C.SO ORBASSANO 374d 10137", "Nome impianto": "TORINO-C.SO ORBASSANO 374d", "Comune": "TORINO", "idImpianto": 11861, "points": [{"type": "Feature", "properties": {}, "geometry": {"type": "Point", "coordinates": [7.62081113624572, 45.03408862712448]}}], "price": 2.049, "ultima_rilevazione": "16/04/2022 07:09:34"}, {"Gestore": "SERVIZI & GESTIONI ITALIA S.R.L.", "Bandiera": "Q8", "Tipo impianto": "Altro", "Indirizzo": "VIA PAOLO VERONESE ANGOLO STRADA LANZO S/N 10148", "Nome impianto": "TORINO-VIA PAOLO VERONESE ANGOLO STRADA LA", "Comune": "TORINO", "idImpianto": 11864, "points": [{"type": "Feature", "properties": {}, "geometry": {"type": "Point", "coordinates": [7.660827987766197, 45.11157414810119]}}], "price": 2.084, "ultima_rilevazione": "16/04/2022 07:09:35"}, {"Gestore": "SERVIZI & GESTIONI ITALIA S.R.L.", "Bandiera": "Q8", "Tipo impianto": "Altro", "Indirizzo": "VIA PAOLO VERONESE ANGOLO STRADA LANZO S/N 10148", "Nome impianto": "TORINO-VIA PAOLO VERONESE ANGOLO STRADA LA", "Comune": "TORINO", "idImpianto": 11864, "points": [{"type": "Feature", "properties": {}, "geometry": {"type": "Point", "coordinates": [7.660827987766197, 45.11157414810119]}}], "price": 2.049, "ultima_rilevazione": "16/04/2022 07:09:35"}, {"Gestore": "SANNICANDRO ANGELA MARIA", "Bandiera": "Q8", "Tipo impianto": "Altro", "Indirizzo": "VIA GUIDO RENI 189 10137", "Nome impianto": "Q8 Angela Sannicandro", "Comune": "TORINO", "idImpianto": 9682, "points": [{"type": "Feature", "properties": {}, "geometry": {"type": "Point", "coordinates": [7.629296779632568, 45.04193715776571]}}], "price": 2.304, "ultima_rilevazione": "16/04/2022 08:16:39"}, {"Gestore": "MANCIN GIOVANNI", "Bandiera": "Q8", "Tipo impianto": "Altro", "Indirizzo": "CORSO FERRUCCI 34 10138", "Nome impianto": "distributore di carburanti di Mancin Giovanni", "Comune": "TORINO", "idImpianto": 44456, "points": [{"type": "Feature", "properties": {}, "geometry": {"type": "Point", "coordinates": [7.655274381075856, 45.07036114774809]}}], "price": 2.189, "ultima_rilevazione": "16/04/2022 10:40:02"}, {"Gestore": "FRAGOMENI GIUSEPPE", "Bandiera": "Q8", "Tipo impianto": "Altro", "Indirizzo": "CORSO TASSONI 2 10143", "Nome impianto": "Q8 ", "Comune": "TORINO", "idImpianto": 16585, "points": [{"type": "Feature", "properties": {}, "geometry": {"type": "Point", "coordinates": [7.656459587513609, 45.07688073270418]}}], "price": 2.079, "ultima_rilevazione": "16/04/2022 23:19:14"}, {"Gestore": "SERVIZI & GESTIONI ITALIA S.R.L.", "Bandiera": "Q8", "Tipo impianto": "Altro", "Indirizzo": "CORSO TOSCANA 43/A 10149", "Nome impianto": "TORINO CORSO TOSCANA 43/A", "Comune": "TORINO", "idImpianto": 24636, "points": [{"type": "Feature", "properties": {}, "geometry": {"type": "Point", "coordinates": [7.656544368122923, 45.09699542168028]}}], "price": 2.049, "ultima_rilevazione": "18/04/2022 00:34:11"}, {"Gestore": "SERVIZI & GESTIONI ITALIA S.R.L.", "Bandiera": "Q8", "Tipo impianto": "Altro", "Indirizzo": "CORSO TOSCANA 43/A 10149", "Nome impianto": "TORINO CORSO TOSCANA 43/A", "Comune": "TORINO", "idImpianto": 24636, "points": [{"type": "Feature", "properties": {}, "geometry": {"type": "Point", "coordinates": [7.656544368122923, 45.09699542168028]}}], "price": 2.059, "ultima_rilevazione": "18/04/2022 00:34:11"}, {"Gestore": "IP SERVICES S.R.L.", "Bandiera": "Api-Ip", "Tipo impianto": "Altro", "Indirizzo": "via San Luigi 3 10092", "Nome impianto": "Beinasco Torino", "Comune": "BEINASCO", "idImpianto": 39981, "points": [{"type": "Feature", "properties": {}, "geometry": {"type": "Point", "coordinates": [7.58417934179306, 45.02842681766181]}}], "price": 1.699, "ultima_rilevazione": "18/04/2022 12:03:29"}, {"Gestore": "LAUDISIO LORENZO", "Bandiera": "Esso", "Tipo impianto": "Altro", "Indirizzo": "STRADA TORINO 51 10092", "Nome impianto": "esso di laudisio lorenzo", "Comune": "BEINASCO", "idImpianto": 42397, "points": [{"type": "Feature", "properties": {}, "geometry": {"type": "Point", "coordinates": [7.595836222171783, 45.02685528814714]}}], "price": 1.889, "ultima_rilevazione": "19/04/2022 07:38:19"}]}, "Blue Diesel": {"1": [{"Gestore": "D'ELIA GIOVANNI", "Bandiera": "Agip Eni", "Tipo impianto": "Altro", "Indirizzo": "CORSO SACCO E VANZETTI 9 10093", "Nome impianto": "eni 978", "Comune": "COLLEGNO", "idImpianto": 5581, "points": [{"type": "Feature", "properties": {}, "geometry": {"type": "Point", "coordinates": [7.618653774261475, 45.094546413684775]}}], "price": 1.824, "ultima_rilevazione": "11/04/2022 06:14:24"}, {"Gestore": "FAMIREL S.N.C. DI FAMMILUME GENNARO E RELLA ANNARITA", "Bandiera": "Agip Eni", "Tipo impianto": "Altro", "Indirizzo": "VIA PIAVE 35 10044", "Nome impianto": "eni", "Comune": "PIANEZZA", "idImpianto": 38465, "points": [{"type": "Feature", "properties": {}, "geometry": {"type": "Point", "coordinates": [7.556098832016005, 45.09815772951559]}}], "price": 1.839, "ultima_rilevazione": "14/04/2022 08:21:38"}, {"Gestore": "FAMIREL S.N.C. DI FAMMILUME GENNARO E RELLA ANNARITA", "Bandiera": "Agip Eni", "Tipo impianto": "Altro", "Indirizzo": "VIA PIAVE 35 10044", "Nome impianto": "eni", "Comune": "PIANEZZA", "idImpianto": 38465, "points": [{"type": "Feature", "properties": {}, "geometry": {"type": "Point", "coordinates": [7.556098832016005, 45.09815772951559]}}], "price": 1.919, "ultima_rilevazione": "14/04/2022 08:21:38"}, {"Gestore": "SAMA SNC DI POMO MAURO E LUCCO BOSSU' SARA", "Bandiera": "Agip Eni", "Tipo impianto": "Altro", "Indirizzo": "Corso Francia  401 10142", "Nome impianto": "Stazione di servizio Eni", "Comune": "TORINO", "idImpianto": 40126, "points": [{"type": "Feature", "properties": {}, "geometry": {"type": "Point", "coordinates": [7.60634026636194, 45.07366980061131]}}], "price": 1.924, "ultima_rilevazione": "15/04/2022 08:30:11"}, {"Gestore": "SAMA SNC DI POMO MAURO E LUCCO BOSSU' SARA", "Bandiera": "Agip Eni", "Tipo impianto": "Altro", "Indirizzo": "Corso Francia  401 10142", "Nome impianto": "Stazione di servizio Eni", "Comune": "TORINO", "idImpianto": 40126, "points": [{"type": "Feature", "properties": {}, "geometry": {"type": "Point", "coordinates": [7.60634026636194, 45.07366980061131]}}], "price": 1.844, "ultima_rilevazione": "15/04/2022 08:30:11"}], "3": [{"Gestore": "BIONDI ANTONIO", "Bandiera": "Agip Eni", "Tipo impianto": "Altro", "Indirizzo": "CORSO GARIBALDI 56 10078", "Nome impianto": "Eni di Biondi Antonio ", "Comune": "VENARIA REALE", "idImpianto": 36798, "points": [{"type": "Feature", "properties": {}, "geometry": {"type": "Point", "coordinates": [7.637437283992767, 45.12662925718583]}}], "price": 1.899, "ultima_rilevazione": "13/04/2022 12:53:23"}, {"Gestore": "BIONDI ANTONIO", "Bandiera": "Agip Eni", "Tipo impianto": "Altro", "Indirizzo": "CORSO GARIBALDI 56 10078", "Nome impianto": "Eni di Biondi Antonio ", "Comune": "VENARIA REALE", "idImpianto": 36798, "points": [{"type": "Feature", "properties": {}, "geometry": {"type": "Point", "coordinates": [7.637437283992767, 45.12662925718583]}}], "price": 1.939, "ultima_rilevazione": "13/04/2022 12:53:23"}, {"Gestore": "MURDOCCO MASSIMO", "Bandiera": "Agip Eni", "Tipo impianto": "Altro", "Indirizzo": "VIA SERVAIS 32/A 10146", "Nome impianto": "ENI 52935", "Comune": "TORINO", "idImpianto": 45680, "points": [{"type": "Feature", "properties": {}, "geometry": {"type": "Point", "coordinates": [7.6361654454036625, 45.08368297157411]}}], "price": 1.904, "ultima_rilevazione": "15/04/2022 07:19:58"}, {"Gestore": "EDOFIL S.N.C. DI MANGERUGA DAVIDE E ZUFFELLATO GIORGIA", "Bandiera": "Agip Eni", "Tipo impianto": "Altro", "Indirizzo": "VIA MICHELE LESSONA 36/A 10145", "Nome impianto": "edofil", "Comune": "TORINO", "idImpianto": 15211, "points": [{"type": "Feature", "properties": {}, "geometry": {"type": "Point", "coordinates": [7.645911227647389, 45.08334800634852]}}], "price": 1.904, "ultima_rilevazione": "15/04/2022 07:48:58"}, {"Gestore": "BREAKSTATION DI COZZULA S.", "Bandiera": "Agip Eni", "Tipo impianto": "Altro", "Indirizzo": "C.SO PRIMO LEVI  160/A 10098", "Nome impianto": "BREAKSTATION di COZZULA S.", "Comune": "RIVOLI", "idImpianto": 41455, "points": [{"type": "Feature", "properties": {}, "geometry": {"type": "Point", "coordinates": [7.5242601335048676, 45.0610411908136]}}], "price": 1.844, "ultima_rilevazione": "15/04/2022 08:22:53"}, {"Gestore": "BREAKSTATION DI COZZULA S.", "Bandiera": "Agip Eni", "Tipo impianto": "Altro", "Indirizzo": "C.SO PRIMO LEVI  160/A 10098", "Nome impianto": "BREAKSTATION di COZZULA S.", "Comune": "RIVOLI", "idImpianto": 41455, "points": [{"type": "Feature", "properties": {}, "geometry": {"type": "Point", "coordinates": [7.5242601335048676, 45.0610411908136]}}], "price": 1.924, "ultima_rilevazione": "15/04/2022 08:22:53"}, {"Gestore": "GANINO BRUNO", "Bandiera": "Agip Eni", "Tipo impianto": "Altro", "Indirizzo": "CORSO LECCE 27/A/BIS 10145", "Nome impianto": "GANINO BRUNO - ENI PV 904 ", "Comune": "TORINO", "idImpianto": 45024, "points": [{"type": "Feature", "properties": {}, "geometry": {"type": "Point", "coordinates": [7.645799324366749, 45.079575659277936]}}], "price": 1.949, "ultima_rilevazione": "15/04/2022 09:49:38"}, {"Gestore": "GANINO BRUNO", "Bandiera": "Agip Eni", "Tipo impianto": "Altro", "Indirizzo": "CORSO LECCE 27/A/BIS 10145", "Nome impianto": "GANINO BRUNO - ENI PV 904 ", "Comune": "TORINO", "idImpianto": 45024, "points": [{"type": "Feature", "properties": {}, "geometry": {"type": "Point", "coordinates": [7.645799324366749, 45.079575659277936]}}], "price": 1.909, "ultima_rilevazione": "15/04/2022 09:49:38"}, {"Gestore": "MILANI LAURO", "Bandiera": "Agip Eni", "Tipo impianto": "Altro", "Indirizzo": "VIA S.M.MAZZARELLO 12 10141", "Nome impianto": "milani lauro", "Comune": "TORINO", "idImpianto": 40450, "points": [{"type": "Feature", "properties": {}, "geometry": {"type": "Point", "coordinates": [7.623773368122897, 45.06342699805924]}}], "price": 1.844, "ultima_rilevazione": "15/04/2022 10:08:51"}, {"Gestore": "MILANI LAURO", "Bandiera": "Agip Eni", "Tipo impianto": "Altro", "Indirizzo": "VIA S.M.MAZZARELLO 12 10141", "Nome impianto": "milani lauro", "Comune": "TORINO", "idImpianto": 40450, "points": [{"type": "Feature", "properties": {}, "geometry": {"type": "Point", "coordinates": [7.623773368122897, 45.06342699805924]}}], "price": 1.924, "ultima_rilevazione": "15/04/2022 10:08:51"}, {"Gestore": "MILANI FEDERICA", "Bandiera": "Agip Eni", "Tipo impianto": "Altro", "Indirizzo": "VIA MONGINEVRO 243 10142", "Nome impianto": "Milani federica", "Comune": "TORINO", "idImpianto": 40445, "points": [{"type": "Feature", "properties": {}, "geometry": {"type": "Point", "coordinates": [7.6218855386924815, 45.06435702514551]}}], "price": 1.844, "ultima_rilevazione": "15/04/2022 14:42:50"}, {"Gestore": "BELLOTTI S.N.C. DI BELLOTTI FILIPPO E DAVIDE", "Bandiera": "Agip Eni", "Tipo impianto": "Altro", "Indirizzo": "corso allamano 160 a, 10098", "Nome impianto": "bellotti snc", "Comune": "RIVOLI", "idImpianto": 18813, "points": [{"type": "Feature", "properties": {}, "geometry": {"type": "Point", "coordinates": [7.557070255279541, 45.05783773413975]}}], "price": 1.849, "ultima_rilevazione": "15/04/2022 19:53:18"}], "5": [{"Gestore": "DELLA ROCCA GIOVANNI", "Bandiera": "Agip Eni", "Tipo impianto": "Altro", "Indirizzo": "CORSO DUCA DEGLI ABRUZZI 70/E 10129", "Nome impianto": "ENI 00507", "Comune": "TORINO", "idImpianto": 45758, "points": [{"type": "Feature", "properties": {}, "geometry": {"type": "Point", "coordinates": [7.657993611273127, 45.05611371502304]}}], "price": 1.859, "ultima_rilevazione": "15/04/2022 07:45:50"}, {"Gestore": "MAGLIONE S.N.C. DI MAGLIONE DAVIDE E C.", "Bandiera": "Agip Eni", "Tipo impianto": "Autostradale", "Indirizzo": "Autostrada A55 TANG.LE DI TORINO, Km. 0+900, dir. Sud ", "Nome impianto": "RIVOLI", "Comune": "RIVOLI", "idImpianto": 3807, "points": [{"type": "Feature", "properties": {}, "geometry": {"type": "Point", "coordinates": [7.515726685523987, 45.08370580351621]}}], "price": 1.914, "ultima_rilevazione": "14/04/2022 07:43:42"}, {"Gestore": "MAGLIONE S.N.C. DI MAGLIONE DAVIDE E C.", "Bandiera": "Agip Eni", "Tipo impianto": "Autostradale", "Indirizzo": "Autostrada A55 TANG.LE DI TORINO, Km. 0+900, dir. Sud ", "Nome impianto": "RIVOLI", "Comune": "RIVOLI", "idImpianto": 3807, "points": [{"type": "Feature", "properties": {}, "geometry": {"type": "Point", "coordinates": [7.515726685523987, 45.08370580351621]}}], "price": 1.972, "ultima_rilevazione": "14/04/2022 07:43:42"}, {"Gestore": "PASSERO'RENATO", "Bandiera": "Agip Eni", "Tipo impianto": "Altro", "Indirizzo": "CORSO UMBRIA 18 10144", "Nome impianto": "ENI", "Comune": "TORINO", "idImpianto": 29867, "points": [{"type": "Feature", "properties": {}, "geometry": {"type": "Point", "coordinates": [7.669589391401701, 45.083085177649096]}}], "price": 1.984, "ultima_rilevazione": "15/04/2022 06:01:56"}, {"Gestore": "PASSERO'RENATO", "Bandiera": "Agip Eni", "Tipo impianto": "Altro", "Indirizzo": "CORSO UMBRIA 18 10144", "Nome impianto": "ENI", "Comune": "TORINO", "idImpianto": 29867, "points": [{"type": "Feature", "properties": {}, "geometry": {"type": "Point", "coordinates": [7.669589391401701, 45.083085177649096]}}], "price": 2.024, "ultima_rilevazione": "15/04/2022 06:01:56"}, {"Gestore": "D.E.G. S.A.S. DI NETTIS VINCENZO E C.", "Bandiera": "Agip Eni", "Tipo impianto": "Altro", "Indirizzo": "PIAZZA BERNINI DI FRONTE AL CIVICO 2 10143", "Nome impianto": "D.E.G. sas", "Comune": "TORINO", "idImpianto": 46962, "points": [{"type": "Feature", "properties": {}, "geometry": {"type": "Point", "coordinates": [7.656750724949347, 45.07634723811974]}}], "price": 1.949, "ultima_rilevazione": "15/04/2022 08:12:17"}, {"Gestore": "D.E.G. S.A.S. DI NETTIS VINCENZO E C.", "Bandiera": "Agip Eni", "Tipo impianto": "Altro", "Indirizzo": "PIAZZA BERNINI DI FRONTE AL CIVICO 2 10143", "Nome impianto": "D.E.G. sas", "Comune": "TORINO", "idImpianto": 46962, "points": [{"type": "Feature", "properties": {}, "geometry": {"type": "Point", "coordinates": [7.656750724949347, 45.07634723811974]}}], "price": 1.909, "ultima_rilevazione": "15/04/2022 08:12:17"}, {"Gestore": "TIEFFE SERVICE S.N.C. DI TEDESCO FEDERICO E FRANCESCO", "Bandiera": "Agip Eni", "Tipo impianto": "Altro", "Indirizzo": "CORSO ORBASSANO  269 10137", "Nome impianto": "ENI", "Comune": "TORINO", "idImpianto": 48243, "points": [{"type": "Feature", "properties": {}, "geometry": {"type": "Point", "coordinates": [7.632523076057427, 45.03905015153766]}}], "price": 1.984, "ultima_rilevazione": "15/04/2022 08:17:44"}, {"Gestore": "TIEFFE SERVICE S.N.C. DI TEDESCO FEDERICO E FRANCESCO", "Bandiera": "Agip Eni", "Tipo impianto": "Altro", "Indirizzo": "CORSO ORBASSANO  269 10137", "Nome impianto": "ENI", "Comune": "TORINO", "idImpianto": 48243, "points": [{"type": "Feature", "properties": {}, "geometry": {"type": "Point", "coordinates": [7.632523076057427, 45.03905015153766]}}], "price": 1.884, "ultima_rilevazione": "15/04/2022 08:17:44"}, {"Gestore": "TEDE 2020 DI TEDESCO GIUSEPPE", "Bandiera": "Agip Eni", "Tipo impianto": "Altro", "Indirizzo": "CORSO ORBASSANO  150/A 10136", "Nome impianto": "ENI", "Comune": "TORINO", "idImpianto": 47821, "points": [{"type": "Feature", "properties": {}, "geometry": {"type": "Point", "coordinates": [7.642770212880139, 45.04476015731117]}}], "price": 1.844, "ultima_rilevazione": "15/04/2022 13:48:54"}, {"Gestore": "TEDE 2020 DI TEDESCO GIUSEPPE", "Bandiera": "Agip Eni", "Tipo impianto": "Altro", "Indirizzo": "CORSO ORBASSANO  150/A 10136", "Nome impianto": "ENI", "Comune": "TORINO", "idImpianto": 47821, "points": [{"type": "Feature", "properties": {}, "geometry": {"type": "Point", "coordinates": [7.642770212880139, 45.04476015731117]}}], "price": 1.549, "ultima_rilevazione": "15/04/2022 13:48:54"}, {"Gestore": "SA.ME.F. DI SARDO MICHAELA, MEOTTO GIANPIERO & C. - S.N.C.", "Bandiera": "Agip Eni", "Tipo impianto": "Altro", "Indirizzo": "CORSO DE GASPERI 101/A 10098", "Nome impianto": "SA.ME.F.", "Comune": "RIVOLI", "idImpianto": 6849, "points": [{"type": "Feature", "properties": {}, "geometry": {"type": "Point", "coordinates": [7.506170498672418, 45.07734771733064]}}], "price": 1.924, "ultima_rilevazione": "15/04/2022 17:42:43"}, {"Gestore": "SA.ME.F. DI SARDO MICHAELA, MEOTTO GIANPIERO & C. - S.N.C.", "Bandiera": "Agip Eni", "Tipo impianto": "Altro", "Indirizzo": "CORSO DE GASPERI 101/A 10098", "Nome impianto": "SA.ME.F.", "Comune": "RIVOLI", "idImpianto": 6849, "points": [{"type": "Feature", "properties": {}, "geometry": {"type": "Point", "coordinates": [7.506170498672418, 45.07734771733064]}}], "price": 1.844, "ultima_rilevazione": "15/04/2022 17:42:43"}, {"Gestore": "F.LLI MAGLIONE S.N.C. DI NICOLA MAGLIONE E C.", "Bandiera": "Agip Eni", "Tipo impianto": "Autostradale", "Indirizzo": "Autostrada A55 TANG.LE DI TORINO, Km. 15+400, dir. Nord 10156", "Nome impianto": "STURA NORD", "Comune": "TORINO", "idImpianto": 3806, "points": [{"type": "Feature", "properties": {}, "geometry": {"type": "Point", "coordinates": [7.67846909325408, 45.12855922374787]}}], "price": 1.964, "ultima_rilevazione": "16/04/2022 07:45:45"}, {"Gestore": "F.LLI MAGLIONE S.N.C. DI NICOLA MAGLIONE E C.", "Bandiera": "Agip Eni", "Tipo impianto": "Autostradale", "Indirizzo": "Autostrada A55 TANG.LE DI TORINO, Km. 15+400, dir. Nord 10156", "Nome impianto": "STURA NORD", "Comune": "TORINO", "idImpianto": 3806, "points": [{"type": "Feature", "properties": {}, "geometry": {"type": "Point", "coordinates": [7.67846909325408, 45.12855922374787]}}], "price": 2.022, "ultima_rilevazione": "16/04/2022 07:45:45"}, {"Gestore": "PANDULLO ALESSANDRO", "Bandiera": "Agip Eni", "Tipo impianto": "Altro", "Indirizzo": "LARGO TIRRENO 123/E 10136", "Nome impianto": "Eni spa", "Comune": "TORINO", "idImpianto": 30667, "points": [{"type": "Feature", "properties": {}, "geometry": {"type": "Point", "coordinates": [7.650644044411933, 45.0520097960451]}}], "price": 1.849, "ultima_rilevazione": "16/04/2022 08:34:29"}, {"Gestore": "GESTIONI INNOVATIVE ITALIA S.R.L.", "Bandiera": "Agip Eni", "Tipo impianto": "Altro", "Indirizzo": "STRADA DEL PORTONE 123/A 10137", "Nome impianto": "997", "Comune": "TORINO", "idImpianto": 39902, "points": [{"type": "Feature", "properties": {}, "geometry": {"type": "Point", "coordinates": [7.601460143923759, 45.03758518936149]}}], "price": 1.849, "ultima_rilevazione": "19/04/2022 07:06:04"}, {"Gestore": "MAGEA S.N.C. DI ANTONICELLI EROS & GUGLIOTTA MARIA ANTONIA", "Bandiera": "Agip Eni", "Tipo impianto": "Strada Statale", "Indirizzo": "24 del Monginevro, Km. 16+760, CASELETTE 10091", "Nome impianto": "STAZIONE ENI MAGEA", "Comune": "ALPIGNANO", "idImpianto": 43114, "points": [{"type": "Feature", "properties": {}, "geometry": {"type": "Point", "coordinates": [7.504751417272701, 45.10476516983302]}}], "price": 1.849, "ultima_rilevazione": "19/04/2022 07:49:05"}]}, "Benzina": {"1": [{"Gestore": "D'ELIA GIOVANNI", "Bandiera": "Agip Eni", "Tipo impianto": "Altro", "Indirizzo": "CORSO SACCO E VANZETTI 9 10093", "Nome impianto": "eni 978", "Comune": "COLLEGNO", "idImpianto": 5581, "points": [{"type": "Feature", "properties": {}, "geometry": {"type": "Point", "coordinates": [7.618653774261475, 45.094546413684775]}}], "price": 1.754, "ultima_rilevazione": "11/04/2022 06:14:24"}, {"Gestore": "ECONOMY S.R.L.", "Bandiera": "Api-Ip", "Tipo impianto": "Altro", "Indirizzo": "CORSO MACHIAVELLI 230  ANG. DON SAPINO  10078", "Nome impianto": "Economy S.r.l - Venaria ", "Comune": "VENARIA REALE", "idImpianto": 25023, "points": [{"type": "Feature", "properties": {}, "geometry": {"type": "Point", "coordinates": [7.618852257728577, 45.12220737086037]}}], "price": 1.759, "ultima_rilevazione": "13/04/2022 11:26:55"}, {"Gestore": "FAMIREL S.N.C. DI FAMMILUME GENNARO E RELLA ANNARITA", "Bandiera": "Agip Eni", "Tipo impianto": "Altro", "Indirizzo": "VIA PIAVE 35 10044", "Nome impianto": "eni", "Comune": "PIANEZZA", "idImpianto": 38465, "points": [{"type": "Feature", "properties": {}, "geometry": {"type": "Point", "coordinates": [7.556098832016005, 45.09815772951559]}}], "price": 1.769, "ultima_rilevazione": "14/04/2022 08:21:38"}, {"Gestore": "M.A. SERVICE S.N.C. DI DI GENNARO MARCO & GESUALDO ALESSANDRO", "Bandiera": "Api-Ip", "Tipo impianto": "Altro", "Indirizzo": "CORSO TOGLIATTI 12 10093", "Nome impianto": "totalerg", "Comune": "COLLEGNO", "idImpianto": 40157, "points": [{"type": "Feature", "properties": {}, "geometry": {"type": "Point", "coordinates": [7.564465139881122, 45.073229163995215]}}], "price": 1.859, "ultima_rilevazione": "14/04/2022 17:13:29"}, {"Gestore": "ROSELLI MICHELE", "Bandiera": "Esso", "Tipo impianto": "Altro", "Indirizzo": "VIA SERVAIS 210/7 10146", "Nome impianto": "STAZIONE DI SERVIZIO ESSO EXPRESS", "Comune": "TORINO", "idImpianto": 37535, "points": [{"type": "Feature", "properties": {}, "geometry": {"type": "Point", "coordinates": [7.614164119643419, 45.08702061254925]}}], "price": 1.739, "ultima_rilevazione": "14/04/2022 17:35:51"}, {"Gestore": "SAMA SNC DI POMO MAURO E LUCCO BOSSU' SARA", "Bandiera": "Agip Eni", "Tipo impianto": "Altro", "Indirizzo": "Corso Francia  401 10142", "Nome impianto": "Stazione di servizio Eni", "Comune": "TORINO", "idImpianto": 40126, "points": [{"type": "Feature", "properties": {}, "geometry": {"type": "Point", "coordinates": [7.60634026636194, 45.07366980061131]}}], "price": 1.774, "ultima_rilevazione": "15/04/2022 08:30:11"}, {"Gestore": "CIRILLO AUTORIPARAZIONI 2 S.A.S. DI CIRILLO PIETRO & C.", "Bandiera": "Esso", "Tipo impianto": "Altro", "Indirizzo": "CORSO FRANCIA 462 10143", "Nome impianto": "ESSO", "Comune": "TORINO", "idImpianto": 40065, "points": [{"type": "Feature", "properties": {}, "geometry": {"type": "Point", "coordinates": [7.606014273610754, 45.07428687878568]}}], "price": 1.766, "ultima_rilevazione": "15/04/2022 08:59:13"}, {"Gestore": "SABINO ALESSANDRO", "Bandiera": "Esso", "Tipo impianto": "Altro", "Indirizzo": "STRADA TORINO PIANEZZA 90 10093", "Nome impianto": "ESSO STAZIONE", "Comune": "COLLEGNO", "idImpianto": 50690, "points": [{"type": "Feature", "properties": {}, "geometry": {"type": "Point", "coordinates": [7.592963317790918, 45.09679353299372]}}], "price": 1.789, "ultima_rilevazione": "15/04/2022 09:03:47"}, {"Gestore": "MURATORE S.A.S. DI MURATORE WALTER E C.", "Bandiera": "Esso", "Tipo impianto": "Altro", "Indirizzo": "CORSO FRANCIA 191 10098", "Nome impianto": "ESSO", "Comune": "RIVOLI", "idImpianto": 17599, "points": [{"type": "Feature", "properties": {}, "geometry": {"type": "Point", "coordinates": [7.550315889549211, 45.07181180777596]}}], "price": 1.729, "ultima_rilevazione": "16/04/2022 09:05:14"}, {"Gestore": "GAS STATION S.R.L.", "Bandiera": "Repsol", "Tipo impianto": "Altro", "Indirizzo": "CORSO FRANCIA 204 10098", "Nome impianto": "Gas Station Rivoli-C.so Francia 204", "Comune": "RIVOLI", "idImpianto": 40186, "points": [{"type": "Feature", "properties": {}, "geometry": {"type": "Point", "coordinates": [7.54812240600586, 45.0713346893347]}}], "price": 1.719, "ultima_rilevazione": "16/04/2022 13:08:15"}, {"Gestore": "SERVIZI & GESTIONI ITALIA S.R.L.", "Bandiera": "Q8", "Tipo impianto": "Altro", "Indirizzo": "S.P. TO/DRUENTO KM 10+400  10040", "Nome impianto": "DRUENTO S.P. TO/DRUENTO KM 10+400", "Comune": "DRUENTO", "idImpianto": 22253, "points": [{"type": "Feature", "properties": {}, "geometry": {"type": "Point", "coordinates": [7.598684669380987, 45.12217330018168]}}], "price": 1.689, "ultima_rilevazione": "18/04/2022 00:32:56"}, {"Gestore": "SERVIZI & GESTIONI ITALIA srl", "Bandiera": "Q8", "Tipo impianto": "Altro", "Indirizzo": "SP 24 LOC. STAZIONETTA SNC 10093", "Nome impianto": "COLLEGNO SP 24 LOC. STAZIONETTA", "Comune": "COLLEGNO", "idImpianto": 6393, "points": [{"type": "Feature", "properties": {}, "geometry": {"type": "Point", "coordinates": [7.577296793460846, 45.09582544231724]}}], "price": 1.699, "ultima_rilevazione": "18/04/2022 00:32:57"}, {"Gestore": "SERVIZI & GESTIONI ITALIA S.R.L.", "Bandiera": "Q8", "Tipo impianto": "Altro", "Indirizzo": "VIA PIANEZZA 385 10151", "Nome impianto": "TORINO VIA PIANEZZA 385", "Comune": "TORINO", "idImpianto": 48815, "points": [{"type": "Feature", "properties": {}, "geometry": {"type": "Point", "coordinates": [7.620992475463093, 45.09912497394853]}}], "price": 1.729, "ultima_rilevazione": "18/04/2022 00:33:00"}, {"Gestore": "IP SERVICES S.R.L.", "Bandiera": "Api-Ip", "Tipo impianto": "Altro", "Indirizzo": "VIA DON CAUSTICO 31 10095", "Nome impianto": "GRUGLIASCO - DON CAUSTICO", "Comune": "GRUGLIASCO", "idImpianto": 24658, "points": [{"type": "Feature", "properties": {}, "geometry": {"type": "Point", "coordinates": [7.570384489583944, 45.06390473622926]}}], "price": 1.749, "ultima_rilevazione": "18/04/2022 12:01:00"}, {"Gestore": "IP SERVICES S.R.L.", "Bandiera": "Api-Ip", "Tipo impianto": "Altro", "Indirizzo": "VIA TORINO  10044", "Nome impianto": "PIANEZZA VIA TORINO", "Comune": "PIANEZZA", "idImpianto": 21859, "points": [{"type": "Feature", "properties": {}, "geometry": {"type": "Point", "coordinates": [7.574412077665329, 45.104513747653854]}}], "price": 1.699, "ultima_rilevazione": "18/04/2022 12:02:27"}, {"Gestore": "IP SERVICES S.R.L.", "Bandiera": "Api-Ip", "Tipo impianto": "Altro", "Indirizzo": "VIA TORINO -  OVEST  10044", "Nome impianto": "PIANEZZA VIA TORINO -  OVEST", "Comune": "PIANEZZA", "idImpianto": 21862, "points": [{"type": "Feature", "properties": {}, "geometry": {"type": "Point", "coordinates": [7.573900446295738, 45.10443063852144]}}], "price": 1.699, "ultima_rilevazione": "18/04/2022 12:02:27"}, {"Gestore": "IP SERVICES S.R.L.", "Bandiera": "Api-Ip", "Tipo impianto": "Altro", "Indirizzo": "Corso Pastrengo  10093", "Nome impianto": "Collegno", "Comune": "COLLEGNO", "idImpianto": 39188, "points": [{"type": "Feature", "properties": {}, "geometry": {"type": "Point", "coordinates": [7.581583145368995, 45.08086836392947]}}], "price": 1.749, "ultima_rilevazione": "18/04/2022 12:03:08"}, {"Gestore": "IP SERVICES S.R.L.", "Bandiera": "Api-Ip", "Tipo impianto": "Altro", "Indirizzo": "c.so Torino 170 10095", "Nome impianto": "Grugliasco Corso Torino", "Comune": "GRUGLIASCO", "idImpianto": 38721, "points": [{"type": "Feature", "properties": {}, "geometry": {"type": "Point", "coordinates": [7.601460814476013, 45.06416035294209]}}], "price": 1.759, "ultima_rilevazione": "18/04/2022 12:03:13"}, {"Gestore": "T.D.M. S.R.L.", "Bandiera": "Tamoil", "Tipo impianto": "Altro", "Indirizzo": "VIA LAMARMORA 116 10095", "Nome impianto": "6216", "Comune": "GRUGLIASCO", "idImpianto": 47654, "points": [{"type": "Feature", "properties": {}, "geometry": {"type": "Point", "coordinates": [7.584867654536902, 45.06561292532808]}}], "price": 1.789, "ultima_rilevazione": "18/04/2022 13:06:06"}, {"Gestore": "T.D.M. S.R.L.", "Bandiera": "Tamoil", "Tipo impianto": "Altro", "Indirizzo": "SP.176 DA KM. 0+600 A KM. 0+660 LATO SX 12 10040", "Nome impianto": "7767", "Comune": "DRUENTO", "idImpianto": 47138, "points": [{"type": "Feature", "properties": {}, "geometry": {"type": "Point", "coordinates": [7.590820481852423, 45.11816769770197]}}], "price": 1.689, "ultima_rilevazione": "18/04/2022 13:08:08"}, {"Gestore": "T.D.M. S.R.L.", "Bandiera": "Tamoil", "Tipo impianto": "Altro", "Indirizzo": "Corso Marche  10146", "Nome impianto": "8257", "Comune": "TORINO", "idImpianto": 35461, "points": [{"type": "Feature", "properties": {}, "geometry": {"type": "Point", "coordinates": [7.614338099956512, 45.07532942847123]}}], "price": 1.729, "ultima_rilevazione": "18/04/2022 13:10:06"}, {"Gestore": "ECONOMY S.R.L.", "Bandiera": "Economysrl", "Tipo impianto": "Altro", "Indirizzo": "VIA XXX APRILE 25 10093", "Nome impianto": "Economy - Collegno", "Comune": "COLLEGNO", "idImpianto": 47153, "points": [{"type": "Feature", "properties": {}, "geometry": {"type": "Point", "coordinates": [7.574864000123, 45.082282000123]}}], "price": 1.749, "ultima_rilevazione": "18/04/2022 17:00:14"}, {"Gestore": "SCARAFIA FABRIZIO S.A.S. DI FABRIZIO SCARAFIA & C.", "Bandiera": "Esso", "Tipo impianto": "Altro", "Indirizzo": "VIA LUPO 98 10024", "Nome impianto": "STAZIONE DI SERVIZIO ESSO SCARAFIA FABRIZIO", "Comune": "GRUGLIASCO", "idImpianto": 32614, "points": [{"type": "Feature", "properties": {}, "geometry": {"type": "Point", "coordinates": [7.579118036245745, 45.06540391138897]}}], "price": 1.799, "ultima_rilevazione": "19/04/2022 07:38:49"}], "3": [{"Gestore": "BRESCIANINI PIETRO", "Bandiera": "Socogas", "Tipo impianto": "Altro", "Indirizzo": "Corso C.Allamano 37 10095", "Nome impianto": "SOCOGAS SPA", "Comune": "GRUGLIASCO", "idImpianto": 36909, "points": [{"type": "Feature", "properties": {}, "geometry": {"type": "Point", "coordinates": [7.588460147380829, 45.05240008664385]}}], "price": 1.719, "ultima_rilevazione": "07/12/2021 18:32:07"}, {"Gestore": "ALOISIO MARCO", "Bandiera": "Q8", "Tipo impianto": "Altro", "Indirizzo": "VIA CAVALLO 76 10078", "Nome impianto": "Q8 Aloisio ", "Comune": "VENARIA REALE", "idImpianto": 32526, "points": [{"type": "Feature", "properties": {}, "geometry": {"type": "Point", "coordinates": [7.626418769359589, 45.13998102537151]}}], "price": 1.809, "ultima_rilevazione": "04/04/2022 16:35:44"}, {"Gestore": "GA.VER. S.A.S. DI GAETA MARIO & C.", "Bandiera": "Api-Ip", "Tipo impianto": "Altro", "Indirizzo": "VIA PIETRO COSSA 80/A, 10146", "Nome impianto": "stazione di servizio totalerg", "Comune": "TORINO", "idImpianto": 9122, "points": [{"type": "Feature", "properties": {}, "geometry": {"type": "Point", "coordinates": [7.623943090438843, 45.081012662519285]}}], "price": 1.789, "ultima_rilevazione": "08/04/2022 07:41:29"}, {"Gestore": "CIRILLO AUTORIPARAZIONI S.A.S. DI CIRILLO PIETRO & C.", "Bandiera": "Esso", "Tipo impianto": "Altro", "Indirizzo": "VIA PIETRO COSSA 175/A 10146", "Nome impianto": "ESSO ", "Comune": "TORINO", "idImpianto": 40049, "points": [{"type": "Feature", "properties": {}, "geometry": {"type": "Point", "coordinates": [7.625419901188707, 45.08620538125764]}}], "price": 1.759, "ultima_rilevazione": "11/04/2022 09:32:02"}, {"Gestore": "PETROLTERMICA COMAC - OLCEA S.P.A.", "Bandiera": "Pompe Bianche", "Tipo impianto": "Altro", "Indirizzo": "CORSO FLEMING 35 10040", "Nome impianto": "Petroltermica Druento", "Comune": "DRUENTO", "idImpianto": 21492, "points": [{"type": "Feature", "properties": {}, "geometry": {"type": "Point", "coordinates": [7.586854845285416, 45.13065020682192]}}], "price": 1.689, "ultima_rilevazione": "11/04/2022 17:55:19"}, {"Gestore": "MASSARO ANTONIO", "Bandiera": "Api-Ip", "Tipo impianto": "Altro", "Indirizzo": "VIA VEROLENGO 170/A 10149", "Nome impianto": "stazione di servizio totalerg 2", "Comune": "TORINO", "idImpianto": 40412, "points": [{"type": "Feature", "properties": {}, "geometry": {"type": "Point", "coordinates": [7.653329372406006, 45.09513774310146]}}], "price": 1.759, "ultima_rilevazione": "12/04/2022 08:12:04"}, {"Gestore": "CASCINO ANGELO", "Bandiera": "Costantin", "Tipo impianto": "Altro", "Indirizzo": "strada del gerbido  25  10095", "Nome impianto": "COSTANTIN", "Comune": "GRUGLIASCO", "idImpianto": 51316, "points": [{"type": "Feature", "properties": {}, "geometry": {"type": "Point", "coordinates": [7.590878866186144, 45.05687961354991]}}], "price": 1.729, "ultima_rilevazione": "13/04/2022 12:19:32"}, {"Gestore": "BIONDI ANTONIO", "Bandiera": "Agip Eni", "Tipo impianto": "Altro", "Indirizzo": "CORSO GARIBALDI 56 10078", "Nome impianto": "Eni di Biondi Antonio ", "Comune": "VENARIA REALE", "idImpianto": 36798, "points": [{"type": "Feature", "properties": {}, "geometry": {"type": "Point", "coordinates": [7.637437283992767, 45.12662925718583]}}], "price": 1.789, "ultima_rilevazione": "13/04/2022 12:53:23"}, {"Gestore": "GS SPA", "Bandiera": "Q8", "Tipo impianto": "Altro", "Indirizzo": "VIA CREA 10 10095", "Nome impianto": "Carrefour Q8 Grugliasco", "Comune": "GRUGLIASCO", "idImpianto": 48735, "points": [{"type": "Feature", "properties": {}, "geometry": {"type": "Point", "coordinates": [7.614067657997485, 45.05373888162474]}}], "price": 1.739, "ultima_rilevazione": "13/04/2022 16:05:26"}, {"Gestore": "BRESCIANINI VENDITA & GESTIONI SOCIETA' A RESPONSABILITA'        LIMITATA SEMPLIFICATA", "Bandiera": "Socogas", "Tipo impianto": "Altro", "Indirizzo": "via Gerbido 115 10095", "Nome impianto": "Socogas", "Comune": "GRUGLIASCO", "idImpianto": 49844, "points": [{"type": "Feature", "properties": {}, "geometry": {"type": "Point", "coordinates": [7.603660600902415, 45.049063816506326]}}], "price": 1.859, "ultima_rilevazione": "14/04/2022 11:59:17"}, {"Gestore": "ROSELLI MICHELE", "Bandiera": "Esso", "Tipo impianto": "Altro", "Indirizzo": "CORSO ALLAMANO KM 1.33, 10095  ", "Nome impianto": "Stazione di servizio Esso", "Comune": "GRUGLIASCO", "idImpianto": 22775, "points": [{"type": "Feature", "properties": {}, "geometry": {"type": "Point", "coordinates": [7.603801199658164, 45.05195181780366]}}], "price": 1.789, "ultima_rilevazione": "14/04/2022 17:34:19"}, {"Gestore": "ECONOMY S.R.L.", "Bandiera": "Api-Ip", "Tipo impianto": "Altro", "Indirizzo": "S. P. Alpignano-Rivoli 57 10091", "Nome impianto": "Economy Alpignano", "Comune": "ALPIGNANO", "idImpianto": 36991, "points": [{"type": "Feature", "properties": {}, "geometry": {"type": "Point", "coordinates": [7.523226141929626, 45.087480092461526]}}], "price": 1.739, "ultima_rilevazione": "14/04/2022 18:00:01"}, {"Gestore": "ROCCATI GIULIANA", "Bandiera": "Esso", "Tipo impianto": "Strada Statale", "Indirizzo": "Statale 24 del Monginevro, Km. 12+538, dir. Susa Monginevro 10044", "Nome impianto": "Esso", "Comune": "PIANEZZA", "idImpianto": 8359, "points": [{"type": "Feature", "properties": {}, "geometry": {"type": "Point", "coordinates": [7.553480789065361, 45.10047137246544]}}], "price": 1.789, "ultima_rilevazione": "14/04/2022 21:29:09"}, {"Gestore": "MURDOCCO MASSIMO", "Bandiera": "Agip Eni", "Tipo impianto": "Altro", "Indirizzo": "VIA SERVAIS 32/A 10146", "Nome impianto": "ENI 52935", "Comune": "TORINO", "idImpianto": 45680, "points": [{"type": "Feature", "properties": {}, "geometry": {"type": "Point", "coordinates": [7.6361654454036625, 45.08368297157411]}}], "price": 1.794, "ultima_rilevazione": "15/04/2022 07:19:58"}, {"Gestore": "ARC S.N.C. DI ARROCCESE GIULIAN & C.", "Bandiera": "Esso", "Tipo impianto": "Altro", "Indirizzo": "STRADA COMUNALE DI ALTESSANO 138/A 10151", "Nome impianto": "STAZIONE ESSO ARC.SNC", "Comune": "TORINO", "idImpianto": 37645, "points": [{"type": "Feature", "properties": {}, "geometry": {"type": "Point", "coordinates": [7.645719944249777, 45.10944612290978]}}], "price": 1.729, "ultima_rilevazione": "15/04/2022 07:47:11"}, {"Gestore": "EDOFIL S.N.C. DI MANGERUGA DAVIDE E ZUFFELLATO GIORGIA", "Bandiera": "Agip Eni", "Tipo impianto": "Altro", "Indirizzo": "VIA MICHELE LESSONA 36/A 10145", "Nome impianto": "edofil", "Comune": "TORINO", "idImpianto": 15211, "points": [{"type": "Feature", "properties": {}, "geometry": {"type": "Point", "coordinates": [7.645911227647389, 45.08334800634852]}}], "price": 1.794, "ultima_rilevazione": "15/04/2022 07:48:58"}, {"Gestore": "BREAKSTATION DI COZZULA S.", "Bandiera": "Agip Eni", "Tipo impianto": "Altro", "Indirizzo": "C.SO PRIMO LEVI  160/A 10098", "Nome impianto": "BREAKSTATION di COZZULA S.", "Comune": "RIVOLI", "idImpianto": 41455, "points": [{"type": "Feature", "properties": {}, "geometry": {"type": "Point", "coordinates": [7.5242601335048676, 45.0610411908136]}}], "price": 1.774, "ultima_rilevazione": "15/04/2022 08:22:53"}, {"Gestore": "CAPPUCCI ALESSIO CARBURANTI & C. S.N.C.", "Bandiera": "Esso", "Tipo impianto": "Altro", "Indirizzo": "Via Sansovino 88/A 10151", "Nome impianto": "CAPPUCCI ALESSIO CARBURANTI & C. SNC", "Comune": "TORINO", "idImpianto": 45129, "points": [{"type": "Feature", "properties": {}, "geometry": {"type": "Point", "coordinates": [7.641423000123, 45.101915000123]}}], "price": 1.749, "ultima_rilevazione": "15/04/2022 08:25:09"}, {"Gestore": "ABASCIA' MICHELE", "Bandiera": "Retitalia", "Tipo impianto": "Altro", "Indirizzo": "CORSO MONTE CUCCO 73 10141", "Nome impianto": "abasci\u00e0 michele", "Comune": "TORINO", "idImpianto": 40599, "points": [{"type": "Feature", "properties": {}, "geometry": {"type": "Point", "coordinates": [7.632740067555687, 45.06847628010471]}}], "price": 1.839, "ultima_rilevazione": "15/04/2022 09:12:56"}, {"Gestore": "GANINO BRUNO", "Bandiera": "Agip Eni", "Tipo impianto": "Altro", "Indirizzo": "CORSO LECCE 27/A/BIS 10145", "Nome impianto": "GANINO BRUNO - ENI PV 904 ", "Comune": "TORINO", "idImpianto": 45024, "points": [{"type": "Feature", "properties": {}, "geometry": {"type": "Point", "coordinates": [7.645799324366749, 45.079575659277936]}}], "price": 1.799, "ultima_rilevazione": "15/04/2022 09:49:38"}, {"Gestore": "MILANI LAURO", "Bandiera": "Agip Eni", "Tipo impianto": "Altro", "Indirizzo": "VIA S.M.MAZZARELLO 12 10141", "Nome impianto": "milani lauro", "Comune": "TORINO", "idImpianto": 40450, "points": [{"type": "Feature", "properties": {}, "geometry": {"type": "Point", "coordinates": [7.623773368122897, 45.06342699805924]}}], "price": 1.774, "ultima_rilevazione": "15/04/2022 10:08:51"}, {"Gestore": "ROCCA PAOLO", "Bandiera": "Esso", "Tipo impianto": "Altro", "Indirizzo": "CORSO FRANCIA 30/C 10098", "Nome impianto": "ESSO", "Comune": "RIVOLI", "idImpianto": 51120, "points": [{"type": "Feature", "properties": {}, "geometry": {"type": "Point", "coordinates": [7.524395030001623, 45.070333304163405]}}], "price": 1.729, "ultima_rilevazione": "15/04/2022 13:23:48"}, {"Gestore": "MILANI FEDERICA", "Bandiera": "Agip Eni", "Tipo impianto": "Altro", "Indirizzo": "VIA MONGINEVRO 243 10142", "Nome impianto": "Milani federica", "Comune": "TORINO", "idImpianto": 40445, "points": [{"type": "Feature", "properties": {}, "geometry": {"type": "Point", "coordinates": [7.6218855386924815, 45.06435702514551]}}], "price": 1.774, "ultima_rilevazione": "15/04/2022 14:42:50"}, {"Gestore": "SAVOCA SALVATORE", "Bandiera": "Api-Ip", "Tipo impianto": "Altro", "Indirizzo": "CORSO MONTE CUCCO 58 10141", "Nome impianto": "Ip ", "Comune": "TORINO", "idImpianto": 40072, "points": [{"type": "Feature", "properties": {}, "geometry": {"type": "Point", "coordinates": [7.633550427854061, 45.07037051029912]}}], "price": 1.719, "ultima_rilevazione": "15/04/2022 15:13:13"}, {"Gestore": "EUROPAM S.R.L.", "Bandiera": "Europam", "Tipo impianto": "Altro", "Indirizzo": "VIA DE SANCTIS 94 10142", "Nome impianto": "EUROPAM - TORINO DE SANCTIS", "Comune": "TORINO", "idImpianto": 44848, "points": [{"type": "Feature", "properties": {}, "geometry": {"type": "Point", "coordinates": [7.620728264383274, 45.0670921066774]}}], "price": 1.727, "ultima_rilevazione": "15/04/2022 16:03:07"}, {"Gestore": "GIODA AGOSTINO S.R.L.", "Bandiera": "Pompe Bianche", "Tipo impianto": "Altro", "Indirizzo": "CORSO GARIBALDI 164 10078", "Nome impianto": "GIODA AGOSTINO SRL - DISTRIBUTORE", "Comune": "VENARIA REALE", "idImpianto": 24038, "points": [{"type": "Feature", "properties": {}, "geometry": {"type": "Point", "coordinates": [7.643681466579437, 45.11874065836433]}}], "price": 1.698, "ultima_rilevazione": "15/04/2022 16:33:07"}, {"Gestore": "GIODA AGOSTINO S.R.L.", "Bandiera": "Pompe Bianche", "Tipo impianto": "Altro", "Indirizzo": "CORSO GARIBALDI  153 10078", "Nome impianto": "GIODA AGOSTINO SRL -G.P.L.", "Comune": "VENARIA REALE", "idImpianto": 31773, "points": [{"type": "Feature", "properties": {}, "geometry": {"type": "Point", "coordinates": [7.643968462944031, 45.12084187352116]}}], "price": 1.698, "ultima_rilevazione": "15/04/2022 16:33:27"}, {"Gestore": "BELLOTTI S.N.C. DI BELLOTTI FILIPPO E DAVIDE", "Bandiera": "Agip Eni", "Tipo impianto": "Altro", "Indirizzo": "corso allamano 160 a, 10098", "Nome impianto": "bellotti snc", "Comune": "RIVOLI", "idImpianto": 18813, "points": [{"type": "Feature", "properties": {}, "geometry": {"type": "Point", "coordinates": [7.557070255279541, 45.05783773413975]}}], "price": 1.779, "ultima_rilevazione": "15/04/2022 19:53:18"}, {"Gestore": "SERVIZI & GESTIONI ITALIA S.R.L.", "Bandiera": "Q8", "Tipo impianto": "Altro", "Indirizzo": "VIA P.COSSA 195/a 10145", "Nome impianto": "TORINO VIA P.COSSA 195/A", "Comune": "TORINO", "idImpianto": 32482, "points": [{"type": "Feature", "properties": {}, "geometry": {"type": "Point", "coordinates": [7.626372706745883, 45.087588804279456]}}], "price": 1.729, "ultima_rilevazione": "16/04/2022 01:34:04"}, {"Gestore": "SERVIZI & GESTIONI ITALIA S.R.L.", "Bandiera": "Q8", "Tipo impianto": "Altro", "Indirizzo": "VIA MONGINEVRO 179 10141", "Nome impianto": "VIA MONGINEVRO 179 - TORINO", "Comune": "TORINO", "idImpianto": 28186, "points": [{"type": "Feature", "properties": {}, "geometry": {"type": "Point", "coordinates": [7.630229420237697, 45.06418923379089]}}], "price": 1.739, "ultima_rilevazione": "16/04/2022 01:34:05"}, {"Gestore": "SERVIZI & GESTIONI ITALIA S.R.L.", "Bandiera": "Q8", "Tipo impianto": "Altro", "Indirizzo": "VIA SANSOVINO/VIA MOLISE S/N 10151", "Nome impianto": "TORINO-VIA SANSOVINO/VIA MOLISE", "Comune": "TORINO", "idImpianto": 11863, "points": [{"type": "Feature", "properties": {}, "geometry": {"type": "Point", "coordinates": [7.63872682209012, 45.100830292288975]}}], "price": 1.749, "ultima_rilevazione": "16/04/2022 07:09:34"}, {"Gestore": "CAPPUCCI ALESSIO CARBURANTI & C. S.N.C.", "Bandiera": "Esso", "Tipo impianto": "Altro", "Indirizzo": "VIA MICHELE LESSONA 84/A 10145", "Nome impianto": "CAPPUCCI CARBURANTI VIA LESSONA", "Comune": "TORINO", "idImpianto": 24311, "points": [{"type": "Feature", "properties": {}, "geometry": {"type": "Point", "coordinates": [7.640396490178318, 45.08350879449111]}}], "price": 1.756, "ultima_rilevazione": "16/04/2022 08:29:01"}, {"Gestore": "ZULLO MICHELE", "Bandiera": "Europam", "Tipo impianto": "Altro", "Indirizzo": "VIA PIETRO COSSA 102 B 10146", "Nome impianto": "EUROPAM P.COSSA", "Comune": "TORINO", "idImpianto": 42646, "points": [{"type": "Feature", "properties": {}, "geometry": {"type": "Point", "coordinates": [7.624495668122904, 45.08235991224021]}}], "price": 1.697, "ultima_rilevazione": "16/04/2022 08:58:41"}, {"Gestore": "SED S.N.C. DI DAVIDE E STEFANO MONTAGONO", "Bandiera": "Api-Ip", "Tipo impianto": "Altro", "Indirizzo": "VIA VENARIA 8 10091", "Nome impianto": "IP Italiana Petroli", "Comune": "ALPIGNANO", "idImpianto": 43361, "points": [{"type": "Feature", "properties": {}, "geometry": {"type": "Point", "coordinates": [7.534227084655754, 45.10202250519849]}}], "price": 1.759, "ultima_rilevazione": "16/04/2022 10:01:30"}, {"Gestore": "CENTRO CALOR S.R.L.", "Bandiera": "Pompe Bianche", "Tipo impianto": "Altro", "Indirizzo": "STRADA PROVINCIALE 175 KM 3 + 937  10098", "Nome impianto": "CENTRO CALOR OLICARB RIVOLI", "Comune": "RIVOLI", "idImpianto": 37607, "points": [{"type": "Feature", "properties": {}, "geometry": {"type": "Point", "coordinates": [7.563905864953995, 45.04660489294732]}}], "price": 1.769, "ultima_rilevazione": "16/04/2022 10:10:21"}, {"Gestore": "SERVIZI & GESTIONI ITALIA srl", "Bandiera": "Q8", "Tipo impianto": "Altro", "Indirizzo": "VIA SANSOVINO 153 10151", "Nome impianto": "TORINO SANSOVINO 153", "Comune": "TORINO", "idImpianto": 6394, "points": [{"type": "Feature", "properties": {}, "geometry": {"type": "Point", "coordinates": [7.6470275484794, 45.105801503882]}}], "price": 1.739, "ultima_rilevazione": "18/04/2022 00:33:00"}, {"Gestore": "SERVIZI & GESTIONI ITALIA S.R.L.", "Bandiera": "Q8", "Tipo impianto": "Altro", "Indirizzo": " SP 175 DEL DOJRONE KM 4  10098", "Nome impianto": "RIVOLI -  SP 175 DEL DOJRONE KM 4", "Comune": "RIVOLI", "idImpianto": 31850, "points": [{"type": "Feature", "properties": {}, "geometry": {"type": "Point", "coordinates": [7.563552010224839, 45.04734257894287]}}], "price": 1.769, "ultima_rilevazione": "18/04/2022 00:33:00"}, {"Gestore": "SERVIZI & GESTIONI ITALIA S.R.L.", "Bandiera": "Q8", "Tipo impianto": "Altro", "Indirizzo": "VIA COSSA 2 /PIAZZA MASSAUA  10146", "Nome impianto": "TORINO VIA COSSA 2 /PIAZZA MASSAUA", "Comune": "TORINO", "idImpianto": 49464, "points": [{"type": "Feature", "properties": {}, "geometry": {"type": "Point", "coordinates": [7.620107088954944, 45.07537412944328]}}], "price": 1.739, "ultima_rilevazione": "18/04/2022 00:33:00"}, {"Gestore": "SERVIZI & GESTIONI ITALIA S.R.L.", "Bandiera": "Q8", "Tipo impianto": "Altro", "Indirizzo": "CORSO GROSSETO ANGOLO VIA SANSOVINO 338 10151", "Nome impianto": "TORINO-CORSO GROSSETO 338 ANGOLO VIA SANSO", "Comune": "TORINO", "idImpianto": 11857, "points": [{"type": "Feature", "properties": {}, "geometry": {"type": "Point", "coordinates": [7.649496152114807, 45.10650445294046]}}], "price": 1.739, "ultima_rilevazione": "18/04/2022 00:33:06"}, {"Gestore": "NUOVA SIDAP  S.R.L.", "Bandiera": "Api-Ip", "Tipo impianto": "Autostradale", "Indirizzo": "A55 TANG.LE DI TORINO, Km. 1+900, ovest 10098", "Nome impianto": "RIVOLI NORD", "Comune": "RIVOLI", "idImpianto": 25612, "points": [{"type": "Feature", "properties": {}, "geometry": {"type": "Point", "coordinates": [7.526997327804565, 45.08449363357934]}}], "price": 1.869, "ultima_rilevazione": "18/04/2022 07:35:05"}, {"Gestore": "STAZIONE DI SERVIZIO S.N.C. DI SALOMONI ADRIANO E C.", "Bandiera": "Tamoil", "Tipo impianto": "Altro", "Indirizzo": "CORSO BERNARDINO TELESIO 71/A 10146", "Nome impianto": "STAZIONE DI SERVIZIO TAMOIL DI SALOMONI A. ", "Comune": "TORINO", "idImpianto": 21320, "points": [{"type": "Feature", "properties": {}, "geometry": {"type": "Point", "coordinates": [7.6273500490738115, 45.08073269066767]}}], "price": 1.729, "ultima_rilevazione": "18/04/2022 11:36:04"}, {"Gestore": "IPERSTAROIL S.R.L.", "Bandiera": "Auchan", "Tipo impianto": "Altro", "Indirizzo": "CORSO GARIBALDI 235 10078", "Nome impianto": "Venaria Reale", "Comune": "VENARIA REALE", "idImpianto": 50302, "points": [{"type": "Feature", "properties": {}, "geometry": {"type": "Point", "coordinates": [7.647516714462441, 45.11478182586455]}}], "price": 1.699, "ultima_rilevazione": "18/04/2022 11:42:08"}, {"Gestore": "IP SERVICES S.R.L.", "Bandiera": "Api-Ip", "Tipo impianto": "Altro", "Indirizzo": "CORSO ALLAMANO 195 10098", "Nome impianto": "RIVOLI - ALLAMANO ", "Comune": "RIVOLI", "idImpianto": 22127, "points": [{"type": "Feature", "properties": {}, "geometry": {"type": "Point", "coordinates": [7.563323562179562, 45.05592331375058]}}], "price": 1.749, "ultima_rilevazione": "18/04/2022 12:01:02"}, {"Gestore": "IP SERVICES S.R.L.", "Bandiera": "Api-Ip", "Tipo impianto": "Altro", "Indirizzo": "VIA COSSA 150  10146", "Nome impianto": "TORINO - COSSA 150", "Comune": "TORINO", "idImpianto": 22301, "points": [{"type": "Feature", "properties": {}, "geometry": {"type": "Point", "coordinates": [7.6236160932541, 45.08156590969744]}}], "price": 1.697, "ultima_rilevazione": "18/04/2022 12:01:03"}, {"Gestore": "IP SERVICES S.R.L.", "Bandiera": "Api-Ip", "Tipo impianto": "Altro", "Indirizzo": "CORSO TRAPANI ANG. PESCHIER 79 10139", "Nome impianto": "TORINO - TRAPANI", "Comune": "TORINO", "idImpianto": 35827, "points": [{"type": "Feature", "properties": {}, "geometry": {"type": "Point", "coordinates": [7.63896883031839, 45.06928915730708]}}], "price": 1.719, "ultima_rilevazione": "18/04/2022 12:01:10"}, {"Gestore": "IP SERVICES S.R.L.", "Bandiera": "Api-Ip", "Tipo impianto": "Altro", "Indirizzo": "VIA PIETRO COSSA 107 10146", "Nome impianto": "TORINO - VIA PIETRO COSSA ", "Comune": "TORINO", "idImpianto": 21851, "points": [{"type": "Feature", "properties": {}, "geometry": {"type": "Point", "coordinates": [7.625824898147584, 45.08557348717841]}}], "price": 1.697, "ultima_rilevazione": "18/04/2022 12:01:19"}, {"Gestore": "IP SERVICES S.R.L.", "Bandiera": "Api-Ip", "Tipo impianto": "Altro", "Indirizzo": "CORSO FRANCIA 31 10098", "Nome impianto": "RIVOLI - CORSO FRANCIA 31", "Comune": "RIVOLI", "idImpianto": 32348, "points": [{"type": "Feature", "properties": {}, "geometry": {"type": "Point", "coordinates": [7.531989341163921, 45.07114826098073]}}], "price": 1.709, "ultima_rilevazione": "18/04/2022 12:02:03"}, {"Gestore": "IP SERVICES S.R.L.", "Bandiera": "Api-Ip", "Tipo impianto": "Altro", "Indirizzo": "SP 24 KM 2+265  10044", "Nome impianto": "Pianezza", "Comune": "PIANEZZA", "idImpianto": 38966, "points": [{"type": "Feature", "properties": {}, "geometry": {"type": "Point", "coordinates": [7.56183385848999, 45.11204418338163]}}], "price": 1.759, "ultima_rilevazione": "18/04/2022 12:03:30"}, {"Gestore": "IP SERVICES S.R.L.", "Bandiera": "Api-Ip", "Tipo impianto": "Altro", "Indirizzo": "CORSO TORINO  35/B 10098", "Nome impianto": "Rivoli corso Torino", "Comune": "RIVOLI", "idImpianto": 33456, "points": [{"type": "Feature", "properties": {}, "geometry": {"type": "Point", "coordinates": [7.5272876769304276, 45.07447469365621]}}], "price": 1.709, "ultima_rilevazione": "18/04/2022 12:03:36"}, {"Gestore": "IP SERVICES S.R.L.", "Bandiera": "Api-Ip", "Tipo impianto": "Altro", "Indirizzo": "Strada Antica 70 10095", "Nome impianto": "GRUGLIASCO", "Comune": "GRUGLIASCO", "idImpianto": 5548, "points": [{"type": "Feature", "properties": {}, "geometry": {"type": "Point", "coordinates": [7.600233775463039, 45.06182631631877]}}], "price": 1.759, "ultima_rilevazione": "18/04/2022 12:03:48"}, {"Gestore": "IP SERVICES S.R.L.", "Bandiera": "Api-Ip", "Tipo impianto": "Altro", "Indirizzo": "Strada Altessano 106/A 10151", "Nome impianto": "Altessano Torino", "Comune": "TORINO", "idImpianto": 36452, "points": [{"type": "Feature", "properties": {}, "geometry": {"type": "Point", "coordinates": [7.645593881607056, 45.10782476295114]}}], "price": 1.729, "ultima_rilevazione": "18/04/2022 12:03:53"}, {"Gestore": "IP SERVICES S.R.L.", "Bandiera": "Api-Ip", "Tipo impianto": "Altro", "Indirizzo": "Corso Primo Levi 20/A  10098", "Nome impianto": "RIVOLI", "Comune": "RIVOLI", "idImpianto": 24712, "points": [{"type": "Feature", "properties": {}, "geometry": {"type": "Point", "coordinates": [7.536192000000028, 45.066740741508085]}}], "price": 1.699, "ultima_rilevazione": "18/04/2022 12:04:55"}, {"Gestore": "EUROPACAR SOCIETA' COOPERATIVA", "Bandiera": "Tamoil", "Tipo impianto": "Altro", "Indirizzo": "Via Sansovino 44/A 10151", "Nome impianto": "TAMOIL", "Comune": "TORINO", "idImpianto": 33529, "points": [{"type": "Feature", "properties": {}, "geometry": {"type": "Point", "coordinates": [7.637332072352592, 45.099368380781925]}}], "price": 1.739, "ultima_rilevazione": "18/04/2022 15:08:08"}, {"Gestore": "EUROPACAR SOCIETA' COOPERATIVA", "Bandiera": "Tamoil", "Tipo impianto": "Altro", "Indirizzo": "Via Sansovino 44/A 10151", "Nome impianto": "TAMOIL", "Comune": "TORINO", "idImpianto": 33529, "points": [{"type": "Feature", "properties": {}, "geometry": {"type": "Point", "coordinates": [7.637332072352592, 45.099368380781925]}}], "price": 1.719, "ultima_rilevazione": "18/04/2022 15:08:08"}, {"Gestore": "EUROPAM S.R.L.", "Bandiera": "Europam", "Tipo impianto": "Altro", "Indirizzo": "corso Montecucco  150 10139", "Nome impianto": "Europam - Montecucco", "Comune": "TORINO", "idImpianto": 41619, "points": [{"type": "Feature", "properties": {}, "geometry": {"type": "Point", "coordinates": [7.629797105866942, 45.06199752177189]}}], "price": 1.717, "ultima_rilevazione": "18/04/2022 16:00:01"}, {"Gestore": "EGI-2GO S.R.L.", "Bandiera": "Esso", "Tipo impianto": "Altro", "Indirizzo": "CORSO ALLAMANO 95/A 10136", "Nome impianto": "Allamano", "Comune": "TORINO", "idImpianto": 49696, "points": [{"type": "Feature", "properties": {}, "geometry": {"type": "Point", "coordinates": [7.620519496666982, 45.05064810393972]}}], "price": 1.779, "ultima_rilevazione": "19/04/2022 07:00:07"}, {"Gestore": "AIESI ANDREA PAOLO", "Bandiera": "Tamoil", "Tipo impianto": "Altro", "Indirizzo": "Corso Trapani ang. Via lancia ", "Nome impianto": "TAMOIL ", "Comune": "TORINO", "idImpianto": 14169, "points": [{"type": "Feature", "properties": {}, "geometry": {"type": "Point", "coordinates": [7.635354704396718, 45.06221669269848]}}], "price": 1.699, "ultima_rilevazione": "19/04/2022 07:56:18"}], "5": [{"Gestore": "L.G. ELETTRONICA DI CIPRIANI GAETANO", "Bandiera": "Esso", "Tipo impianto": "Altro", "Indirizzo": "VIA STRADELLA ANG. VIA DEL RIDOTTO  10147", "Nome impianto": "essoitaliana", "Comune": "TORINO", "idImpianto": 19455, "points": [{"type": "Feature", "properties": {}, "geometry": {"type": "Point", "coordinates": [7.676153630018234, 45.093181769289465]}}], "price": 1.799, "ultima_rilevazione": "10/11/2021 08:35:10"}, {"Gestore": "SIMONE ALESSANDRO", "Bandiera": "Q8", "Tipo impianto": "Altro", "Indirizzo": "Corso siracusa  20 10136", "Nome impianto": "Q8", "Comune": "TORINO", "idImpianto": 45816, "points": [{"type": "Feature", "properties": {}, "geometry": {"type": "Point", "coordinates": [7.634554000123, 45.053499000123]}}], "price": 1.749, "ultima_rilevazione": "13/12/2021 08:21:29"}, {"Gestore": "CALAMITA DOMENICO", "Bandiera": "Esso", "Tipo impianto": "Altro", "Indirizzo": "PIAZZA OMERO / C.SO ORBASSANO S.N. 10137", "Nome impianto": "Esso di Calamita Domenico", "Comune": "TORINO", "idImpianto": 35491, "points": [{"type": "Feature", "properties": {}, "geometry": {"type": "Point", "coordinates": [7.629278885180611, 45.03741303357093]}}], "price": 2.279, "ultima_rilevazione": "15/04/2022 07:39:34"}, {"Gestore": "NIVOLO MAURIZIO GIUSEPPE", "Bandiera": "Repsol", "Tipo impianto": "Altro", "Indirizzo": "CORSO SIRACUSA 112 10132", "Nome impianto": "Area di Servizio Siracusa", "Comune": "TORINO", "idImpianto": 20738, "points": [{"type": "Feature", "properties": {}, "geometry": {"type": "Point", "coordinates": [7.634012615268716, 45.043927861460894]}}], "price": 1.849, "ultima_rilevazione": "24/03/2022 18:25:50"}, {"Gestore": "DELLA ROCCA GIOVANNI", "Bandiera": "Agip Eni", "Tipo impianto": "Altro", "Indirizzo": "CORSO DUCA DEGLI ABRUZZI 70/E 10129", "Nome impianto": "ENI 00507", "Comune": "TORINO", "idImpianto": 45758, "points": [{"type": "Feature", "properties": {}, "geometry": {"type": "Point", "coordinates": [7.657993611273127, 45.05611371502304]}}], "price": 1.789, "ultima_rilevazione": "15/04/2022 07:45:50"}, {"Gestore": "MASSARO ANTONIO", "Bandiera": "Api-Ip", "Tipo impianto": "Altro", "Indirizzo": "CORSO POTENZA ANG. V. VEROLENGO SN 10149", "Nome impianto": "Stazione di servizio Totalerg", "Comune": "TORINO", "idImpianto": 40413, "points": [{"type": "Feature", "properties": {}, "geometry": {"type": "Point", "coordinates": [7.6574720442295074, 45.095448837219045]}}], "price": 1.759, "ultima_rilevazione": "12/04/2022 08:13:12"}, {"Gestore": "MEL YTURRIZAGA EMPERATRIZ VALVINA", "Bandiera": "Api-Ip", "Tipo impianto": "Altro", "Indirizzo": "piazza montanari 166/b 10137", "Nome impianto": "ip", "Comune": "TORINO", "idImpianto": 50113, "points": [{"type": "Feature", "properties": {}, "geometry": {"type": "Point", "coordinates": [7.642642007108848, 45.03913497950953]}}], "price": 1.749, "ultima_rilevazione": "12/04/2022 10:06:51"}, {"Gestore": "ARAMU GIANCARLO", "Bandiera": "Api-Ip", "Tipo impianto": "Altro", "Indirizzo": "STRADA AEROPORTO 6 10148", "Nome impianto": "TotalErg", "Comune": "TORINO", "idImpianto": 26728, "points": [{"type": "Feature", "properties": {}, "geometry": {"type": "Point", "coordinates": [7.663553563982418, 45.11208314758517]}}], "price": 1.779, "ultima_rilevazione": "12/04/2022 15:06:10"}, {"Gestore": "EMY POWER S.A.S. DI MURSA MARIA & C.", "Bandiera": "Api-Ip", "Tipo impianto": "Strada Statale", "Indirizzo": "Strada Statale, Km. 174+1, via san luigi 174 10040", "Nome impianto": " Stazione di servizio IP Emy Power s.a.s.", "Comune": "RIVALTA DI TORINO", "idImpianto": 44832, "points": [{"type": "Feature", "properties": {}, "geometry": {"type": "Point", "coordinates": [7.541503032461605, 45.02828200492306]}}], "price": 1.769, "ultima_rilevazione": "13/04/2022 11:54:02"}, {"Gestore": "POLESE MASSIMO", "Bandiera": "Api-Ip", "Tipo impianto": "Altro", "Indirizzo": "CORSO SVIZZERA 4 10143", "Nome impianto": "italiana petroli", "Comune": "TORINO", "idImpianto": 43519, "points": [{"type": "Feature", "properties": {}, "geometry": {"type": "Point", "coordinates": [7.648937609738709, 45.07649098486488]}}], "price": 1.869, "ultima_rilevazione": "13/04/2022 19:21:43"}, {"Gestore": "MAGLIONE S.N.C. DI MAGLIONE DAVIDE E C.", "Bandiera": "Agip Eni", "Tipo impianto": "Autostradale", "Indirizzo": "Autostrada A55 TANG.LE DI TORINO, Km. 0+900, dir. Sud ", "Nome impianto": "RIVOLI", "Comune": "RIVOLI", "idImpianto": 3807, "points": [{"type": "Feature", "properties": {}, "geometry": {"type": "Point", "coordinates": [7.515726685523987, 45.08370580351621]}}], "price": 1.822, "ultima_rilevazione": "14/04/2022 07:43:42"}, {"Gestore": "ROSELLI DAVIDE", "Bandiera": "Esso", "Tipo impianto": "Altro", "Indirizzo": "via lanzo  76 10071", "Nome impianto": "ESSO ", "Comune": "BORGARO TORINESE", "idImpianto": 48545, "points": [{"type": "Feature", "properties": {}, "geometry": {"type": "Point", "coordinates": [7.655568728836055, 45.14578362121748]}}], "price": 1.769, "ultima_rilevazione": "14/04/2022 17:39:59"}, {"Gestore": "PASSERO'RENATO", "Bandiera": "Agip Eni", "Tipo impianto": "Altro", "Indirizzo": "CORSO UMBRIA 18 10144", "Nome impianto": "ENI", "Comune": "TORINO", "idImpianto": 29867, "points": [{"type": "Feature", "properties": {}, "geometry": {"type": "Point", "coordinates": [7.669589391401701, 45.083085177649096]}}], "price": 1.874, "ultima_rilevazione": "15/04/2022 06:01:56"}, {"Gestore": "TESORO MICHELE E DAVIDE SNC", "Bandiera": "Esso", "Tipo impianto": "Altro", "Indirizzo": "VIA STAMPINI 34/A 10148", "Nome impianto": "STAZIONE DI SERVIZIO ESSO DI TESORO M.E D.SNC", "Comune": "TORINO", "idImpianto": 44165, "points": [{"type": "Feature", "properties": {}, "geometry": {"type": "Point", "coordinates": [7.663632247885062, 45.10890661626722]}}], "price": 1.759, "ultima_rilevazione": "15/04/2022 07:28:01"}, {"Gestore": "M.G.M. SERVICES S.N.C. DI NEBIOLO LUCIA E C.", "Bandiera": "Esso", "Tipo impianto": "Altro", "Indirizzo": "VIA EINAUDI 87 10040", "Nome impianto": "ESSO  MGM RIVALTA SOCOGAS", "Comune": "RIVALTA DI TORINO", "idImpianto": 46167, "points": [{"type": "Feature", "properties": {}, "geometry": {"type": "Point", "coordinates": [7.525778849737549, 45.03239638973849]}}], "price": 1.769, "ultima_rilevazione": "15/04/2022 08:02:52"}, {"Gestore": "D.E.G. S.A.S. DI NETTIS VINCENZO E C.", "Bandiera": "Agip Eni", "Tipo impianto": "Altro", "Indirizzo": "PIAZZA BERNINI DI FRONTE AL CIVICO 2 10143", "Nome impianto": "D.E.G. sas", "Comune": "TORINO", "idImpianto": 46962, "points": [{"type": "Feature", "properties": {}, "geometry": {"type": "Point", "coordinates": [7.656750724949347, 45.07634723811974]}}], "price": 1.799, "ultima_rilevazione": "15/04/2022 08:12:17"}, {"Gestore": "TIEFFE SERVICE S.N.C. DI TEDESCO FEDERICO E FRANCESCO", "Bandiera": "Agip Eni", "Tipo impianto": "Altro", "Indirizzo": "CORSO ORBASSANO  269 10137", "Nome impianto": "ENI", "Comune": "TORINO", "idImpianto": 48243, "points": [{"type": "Feature", "properties": {}, "geometry": {"type": "Point", "coordinates": [7.632523076057427, 45.03905015153766]}}], "price": 1.774, "ultima_rilevazione": "15/04/2022 08:17:44"}, {"Gestore": "MENEGHETTI IVAN", "Bandiera": "Api-Ip", "Tipo impianto": "Altro", "Indirizzo": "CORSO DUCA DEGLI ABRUZZI 16/A 10129", "Nome impianto": "IP CORSO DUCA DEGLI ABRUZZI 16/A", "Comune": "TORINO", "idImpianto": 16755, "points": [{"type": "Feature", "properties": {}, "geometry": {"type": "Point", "coordinates": [7.664198254519761, 45.064711996335056]}}], "price": 1.859, "ultima_rilevazione": "15/04/2022 08:26:10"}, {"Gestore": "EDOARDO SEMERARO", "Bandiera": "Agip Eni", "Tipo impianto": "Altro", "Indirizzo": "CORSO GROSSETO 119A 10147", "Nome impianto": "CARBURANTI SEMERARO DI SEMERARO EDOARDO", "Comune": "TORINO", "idImpianto": 50389, "points": [{"type": "Feature", "properties": {}, "geometry": {"type": "Point", "coordinates": [7.679486302695573, 45.10428046697451]}}], "price": 1.774, "ultima_rilevazione": "15/04/2022 13:38:09"}, {"Gestore": "TEDE 2020 DI TEDESCO GIUSEPPE", "Bandiera": "Agip Eni", "Tipo impianto": "Altro", "Indirizzo": "CORSO ORBASSANO  150/A 10136", "Nome impianto": "ENI", "Comune": "TORINO", "idImpianto": 47821, "points": [{"type": "Feature", "properties": {}, "geometry": {"type": "Point", "coordinates": [7.642770212880139, 45.04476015731117]}}], "price": 1.754, "ultima_rilevazione": "15/04/2022 13:48:54"}, {"Gestore": "GO S.R.L.", "Bandiera": "GO", "Tipo impianto": "Altro", "Indirizzo": "PIAZZA BALDISSERA 3/A 10155", "Nome impianto": "GO TORINO", "Comune": "TORINO", "idImpianto": 12564, "points": [{"type": "Feature", "properties": {}, "geometry": {"type": "Point", "coordinates": [7.678233730688476, 45.08942752391725]}}], "price": 1.799, "ultima_rilevazione": "15/04/2022 17:17:40"}, {"Gestore": "EREDI CAMPIDONICO - S.P.A.", "Bandiera": "Repsol", "Tipo impianto": "Altro", "Indirizzo": "STRADA DEL PORTONE 147 10095", "Nome impianto": "DISTRIBUTORE EREDI CAMPIDONICO SPA  GRUGLIASCO ", "Comune": "GRUGLIASCO", "idImpianto": 33934, "points": [{"type": "Feature", "properties": {}, "geometry": {"type": "Point", "coordinates": [7.592471378434766, 45.04245614514035]}}], "price": 1.744, "ultima_rilevazione": "15/04/2022 17:28:32"}, {"Gestore": "SA.ME.F. DI SARDO MICHAELA, MEOTTO GIANPIERO & C. - S.N.C.", "Bandiera": "Agip Eni", "Tipo impianto": "Altro", "Indirizzo": "CORSO DE GASPERI 101/A 10098", "Nome impianto": "SA.ME.F.", "Comune": "RIVOLI", "idImpianto": 6849, "points": [{"type": "Feature", "properties": {}, "geometry": {"type": "Point", "coordinates": [7.506170498672418, 45.07734771733064]}}], "price": 1.774, "ultima_rilevazione": "15/04/2022 17:42:43"}, {"Gestore": "EUROPAM S.R.L.", "Bandiera": "Europam", "Tipo impianto": "Altro", "Indirizzo": "Corso Agnelli  4 16100", "Nome impianto": "EUROPAM CORSO AGNELLI 4", "Comune": "TORINO", "idImpianto": 48541, "points": [{"type": "Feature", "properties": {}, "geometry": {"type": "Point", "coordinates": [7.648967267403317, 45.04340151925139]}}], "price": 1.697, "ultima_rilevazione": "15/04/2022 18:00:22"}, {"Gestore": "SERVIZI & GESTIONI ITALIA S.R.L.", "Bandiera": "Q8", "Tipo impianto": "Altro", "Indirizzo": " C.SO SIRACUSA ANG VIA BARLETTA 49 96100", "Nome impianto": "TORINO C.SO SIRACUSA 49/ANG VIA BARLETTA", "Comune": "TORINO", "idImpianto": 25275, "points": [{"type": "Feature", "properties": {}, "geometry": {"type": "Point", "coordinates": [7.634989271163931, 45.05046709400217]}}], "price": 1.799, "ultima_rilevazione": "16/04/2022 01:34:04"}, {"Gestore": "SERVIZI & GESTIONI ITALIA srl", "Bandiera": "Q8", "Tipo impianto": "Altro", "Indirizzo": "C. PRINCIPE ODDONE 52/A 10152", "Nome impianto": "TORINO C. PRINCIPE ODDONE 52/A", "Comune": "TORINO", "idImpianto": 6396, "points": [{"type": "Feature", "properties": {}, "geometry": {"type": "Point", "coordinates": [7.673946658860814, 45.08385461106312]}}], "price": 1.819, "ultima_rilevazione": "16/04/2022 01:34:05"}, {"Gestore": "SERVIZI & GESTIONI ITALIA S.R.L.", "Bandiera": "Q8", "Tipo impianto": "Altro", "Indirizzo": "VIA LANZO 18 10071", "Nome impianto": "BORGARO TORINESE VIA LANZO 18", "Comune": "BORGARO TORINESE", "idImpianto": 24891, "points": [{"type": "Feature", "properties": {}, "geometry": {"type": "Point", "coordinates": [7.65623984603269, 45.13680709766655]}}], "price": 1.749, "ultima_rilevazione": "16/04/2022 01:34:05"}, {"Gestore": "SERVIZI & GESTIONI ITALIA S.R.L.", "Bandiera": "Q8", "Tipo impianto": "Altro", "Indirizzo": "STRAD PROV. TORINO-LANZO S/N 10071", "Nome impianto": "BORGARO TORINESE-STRAD PROV. TORINO-LANZO", "Comune": "BORGARO TORINESE", "idImpianto": 11873, "points": [{"type": "Feature", "properties": {}, "geometry": {"type": "Point", "coordinates": [7.655451720237693, 45.14140756768663]}}], "price": 1.759, "ultima_rilevazione": "16/04/2022 07:09:29"}, {"Gestore": "SERVIZI & GESTIONI ITALIA S.R.L.", "Bandiera": "Q8", "Tipo impianto": "Altro", "Indirizzo": "C.SO RACCONIGI 194 10141", "Nome impianto": "TORINO-C.SO RACCONIGI 194", "Comune": "TORINO", "idImpianto": 11851, "points": [{"type": "Feature", "properties": {}, "geometry": {"type": "Point", "coordinates": [7.647143507629153, 45.05745055487085]}}], "price": 1.809, "ultima_rilevazione": "16/04/2022 07:09:34"}, {"Gestore": "SERVIZI & GESTIONI ITALIA S.R.L.", "Bandiera": "Q8", "Tipo impianto": "Altro", "Indirizzo": "CORSO SVIZZERA  ANG.VIA MEDICI 26 10143", "Nome impianto": "TORINO-CORSO SVIZZERA 26 ANG.VIA MEDICI", "Comune": "TORINO", "idImpianto": 11852, "points": [{"type": "Feature", "properties": {}, "geometry": {"type": "Point", "coordinates": [7.649384069388589, 45.0780309713667]}}], "price": 1.806, "ultima_rilevazione": "16/04/2022 07:09:34"}, {"Gestore": "SERVIZI & GESTIONI ITALIA S.R.L.", "Bandiera": "Q8", "Tipo impianto": "Altro", "Indirizzo": "C.SO ORBASSANO 374d 10137", "Nome impianto": "TORINO-C.SO ORBASSANO 374d", "Comune": "TORINO", "idImpianto": 11861, "points": [{"type": "Feature", "properties": {}, "geometry": {"type": "Point", "coordinates": [7.62081113624572, 45.03408862712448]}}], "price": 1.749, "ultima_rilevazione": "16/04/2022 07:09:34"}, {"Gestore": "SERVIZI & GESTIONI ITALIA S.R.L.", "Bandiera": "Q8", "Tipo impianto": "Altro", "Indirizzo": "VIA PAOLO VERONESE ANGOLO STRADA LANZO S/N 10148", "Nome impianto": "TORINO-VIA PAOLO VERONESE ANGOLO STRADA LA", "Comune": "TORINO", "idImpianto": 11864, "points": [{"type": "Feature", "properties": {}, "geometry": {"type": "Point", "coordinates": [7.660827987766197, 45.11157414810119]}}], "price": 1.749, "ultima_rilevazione": "16/04/2022 07:09:35"}, {"Gestore": "CODA CARBURANTI S.N.C. DI CODA VINCENZO E C.", "Bandiera": "Api-Ip", "Tipo impianto": "Altro", "Indirizzo": "corso orbassano 414, 10137", "Nome impianto": "coda carburanti s.n.c.di coda vincenzo e c.", "Comune": "TORINO", "idImpianto": 9148, "points": [{"type": "Feature", "properties": {}, "geometry": {"type": "Point", "coordinates": [7.617885085458397, 45.03284697684743]}}], "price": 1.739, "ultima_rilevazione": "16/04/2022 07:18:02"}, {"Gestore": "F.LLI MAGLIONE S.N.C. DI NICOLA MAGLIONE E C.", "Bandiera": "Agip Eni", "Tipo impianto": "Autostradale", "Indirizzo": "Autostrada A55 TANG.LE DI TORINO, Km. 15+400, dir. Nord 10156", "Nome impianto": "STURA NORD", "Comune": "TORINO", "idImpianto": 3806, "points": [{"type": "Feature", "properties": {}, "geometry": {"type": "Point", "coordinates": [7.67846909325408, 45.12855922374787]}}], "price": 1.872, "ultima_rilevazione": "16/04/2022 07:45:45"}, {"Gestore": "SANNICANDRO ANGELA MARIA", "Bandiera": "Q8", "Tipo impianto": "Altro", "Indirizzo": "VIA GUIDO RENI 189 10137", "Nome impianto": "Q8 Angela Sannicandro", "Comune": "TORINO", "idImpianto": 9682, "points": [{"type": "Feature", "properties": {}, "geometry": {"type": "Point", "coordinates": [7.629296779632568, 45.04193715776571]}}], "price": 1.756, "ultima_rilevazione": "16/04/2022 08:16:39"}, {"Gestore": "PANDULLO ALESSANDRO", "Bandiera": "Agip Eni", "Tipo impianto": "Altro", "Indirizzo": "LARGO TIRRENO 123/E 10136", "Nome impianto": "Eni spa", "Comune": "TORINO", "idImpianto": 30667, "points": [{"type": "Feature", "properties": {}, "geometry": {"type": "Point", "coordinates": [7.650644044411933, 45.0520097960451]}}], "price": 1.759, "ultima_rilevazione": "16/04/2022 08:34:29"}, {"Gestore": "ZULLO MICHELE", "Bandiera": "Europam", "Tipo impianto": "Altro", "Indirizzo": "CORSO AGNELLI 45 10134", "Nome impianto": "EUROPAM AGNELLI", "Comune": "TORINO", "idImpianto": 42647, "points": [{"type": "Feature", "properties": {}, "geometry": {"type": "Point", "coordinates": [7.646882807865154, 45.03986328444814]}}], "price": 1.697, "ultima_rilevazione": "16/04/2022 08:59:13"}, {"Gestore": "SARA S.A.S. DI DEVECCHI STEFANO E C.", "Bandiera": "Esso", "Tipo impianto": "Altro", "Indirizzo": "c.so orbassano 178 10137", "Nome impianto": "ESSO 2864", "Comune": "TORINO", "idImpianto": 42461, "points": [{"type": "Feature", "properties": {}, "geometry": {"type": "Point", "coordinates": [7.640977004893557, 45.043795561265256]}}], "price": 1.749, "ultima_rilevazione": "16/04/2022 09:05:44"}, {"Gestore": "MANCIN GIOVANNI", "Bandiera": "Q8", "Tipo impianto": "Altro", "Indirizzo": "CORSO FERRUCCI 34 10138", "Nome impianto": "distributore di carburanti di Mancin Giovanni", "Comune": "TORINO", "idImpianto": 44456, "points": [{"type": "Feature", "properties": {}, "geometry": {"type": "Point", "coordinates": [7.655274381075856, 45.07036114774809]}}], "price": 1.757, "ultima_rilevazione": "16/04/2022 10:40:02"}, {"Gestore": "GAS STATION S.R.L.", "Bandiera": "Repsol", "Tipo impianto": "Altro", "Indirizzo": "Corso Vittorio Emanuele II 158 H 10138", "Nome impianto": "Gas Station Torino Corso Vittorio", "Comune": "TORINO", "idImpianto": 45896, "points": [{"type": "Feature", "properties": {}, "geometry": {"type": "Point", "coordinates": [7.653511762619019, 45.07197872913807]}}], "price": 1.719, "ultima_rilevazione": "16/04/2022 14:01:05"}, {"Gestore": "CAVALIERI GIORGIO", "Bandiera": "Europam", "Tipo impianto": "Altro", "Indirizzo": "Corso Grosseto 162/A 10148", "Nome impianto": "EUROPAM", "Comune": "TORINO", "idImpianto": 48868, "points": [{"type": "Feature", "properties": {}, "geometry": {"type": "Point", "coordinates": [7.672407682209013, 45.10512714500255]}}], "price": 1.729, "ultima_rilevazione": "16/04/2022 15:30:01"}, {"Gestore": "FRAGOMENI GIUSEPPE", "Bandiera": "Q8", "Tipo impianto": "Altro", "Indirizzo": "CORSO TASSONI 2 10143", "Nome impianto": "Q8 ", "Comune": "TORINO", "idImpianto": 16585, "points": [{"type": "Feature", "properties": {}, "geometry": {"type": "Point", "coordinates": [7.656459587513609, 45.07688073270418]}}], "price": 1.759, "ultima_rilevazione": "16/04/2022 23:19:14"}, {"Gestore": "SERVIZI & GESTIONI ITALIA S.R.L.", "Bandiera": "Q8", "Tipo impianto": "Altro", "Indirizzo": "VIA GAIDANO 72 A 10137", "Nome impianto": "TORINO VIA GAIDANO, 72 A", "Comune": "TORINO", "idImpianto": 25017, "points": [{"type": "Feature", "properties": {}, "geometry": {"type": "Point", "coordinates": [7.624989171163975, 45.04053644734446]}}], "price": 1.739, "ultima_rilevazione": "18/04/2022 00:32:56"}, {"Gestore": "SERVIZI & GESTIONI ITALIA S.R.L.", "Bandiera": "Q8", "Tipo impianto": "Altro", "Indirizzo": "C.SO TAZZOLI / C.SO ORBASSANO  10137", "Nome impianto": "TORINO C.SO TAZZOLI / C.SO ORBASSANO", "Comune": "TORINO", "idImpianto": 20725, "points": [{"type": "Feature", "properties": {}, "geometry": {"type": "Point", "coordinates": [7.623424495106519, 45.035574354305474]}}], "price": 1.739, "ultima_rilevazione": "18/04/2022 00:33:01"}, {"Gestore": "SERVIZI & GESTIONI ITALIA S.R.L.", "Bandiera": "Q8", "Tipo impianto": "Altro", "Indirizzo": "VIA SUSA  IPER 299 ", "Nome impianto": "RIVOLI-VIA SUSA 299 IPER", "Comune": "RIVOLI", "idImpianto": 11868, "points": [{"type": "Feature", "properties": {}, "geometry": {"type": "Point", "coordinates": [7.49885708465581, 45.08322840777434]}}], "price": 1.675, "ultima_rilevazione": "18/04/2022 00:33:03"}, {"Gestore": "SERVIZI & GESTIONI ITALIA S.R.L.", "Bandiera": "Q8", "Tipo impianto": "Altro", "Indirizzo": "VIA RIVALTA 16 10098", "Nome impianto": "RIVOLI-VIA RIVALTA 16", "Comune": "RIVOLI", "idImpianto": 11870, "points": [{"type": "Feature", "properties": {}, "geometry": {"type": "Point", "coordinates": [7.518519941139175, 45.060955356538784]}}], "price": 1.719, "ultima_rilevazione": "18/04/2022 00:33:04"}, {"Gestore": "SERVIZI & GESTIONI ITALIA S.R.L.", "Bandiera": "Q8", "Tipo impianto": "Altro", "Indirizzo": "STRADA DEL FORNAS  10098", "Nome impianto": "RIVOLI STRADA DEL FORNAS", "Comune": "RIVOLI", "idImpianto": 42857, "points": [{"type": "Feature", "properties": {}, "geometry": {"type": "Point", "coordinates": [7.498030601188702, 45.08164003271217]}}], "price": 1.675, "ultima_rilevazione": "18/04/2022 00:33:04"}, {"Gestore": "SERVIZI & GESTIONI ITALIA S.R.L.", "Bandiera": "Q8", "Tipo impianto": "Altro", "Indirizzo": "CORSO TOSCANA 43/A 10149", "Nome impianto": "TORINO CORSO TOSCANA 43/A", "Comune": "TORINO", "idImpianto": 24636, "points": [{"type": "Feature", "properties": {}, "geometry": {"type": "Point", "coordinates": [7.656544368122923, 45.09699542168028]}}], "price": 1.759, "ultima_rilevazione": "18/04/2022 00:34:11"}, {"Gestore": "IP SERVICES S.R.L.", "Bandiera": "Api-Ip", "Tipo impianto": "Altro", "Indirizzo": "CORSO RACCONIGI / VIA MALTA  10125", "Nome impianto": "TORINO - RACCONIGI / MALTA", "Comune": "TORINO", "idImpianto": 31282, "points": [{"type": "Feature", "properties": {}, "geometry": {"type": "Point", "coordinates": [7.647409325298554, 45.057977185947806]}}], "price": 1.749, "ultima_rilevazione": "18/04/2022 12:01:02"}, {"Gestore": "IP SERVICES S.R.L.", "Bandiera": "Api-Ip", "Tipo impianto": "Altro", "Indirizzo": "TORINO - AEROPORTO S.P. 325/A Km 8  10156", "Nome impianto": "TORINO - AEROPORTO S.P. 325/A Km 8", "Comune": "TORINO", "idImpianto": 22300, "points": [{"type": "Feature", "properties": {}, "geometry": {"type": "Point", "coordinates": [7.656681224536896, 45.13215865911113]}}], "price": 1.739, "ultima_rilevazione": "18/04/2022 12:01:03"}, {"Gestore": "IP SERVICES S.R.L.", "Bandiera": "Api-Ip", "Tipo impianto": "Altro", "Indirizzo": "via San Luigi 3 10092", "Nome impianto": "Beinasco Torino", "Comune": "BEINASCO", "idImpianto": 39981, "points": [{"type": "Feature", "properties": {}, "geometry": {"type": "Point", "coordinates": [7.58417934179306, 45.02842681766181]}}], "price": 1.699, "ultima_rilevazione": "18/04/2022 12:03:29"}, {"Gestore": "IP SERVICES S.R.L.", "Bandiera": "Api-Ip", "Tipo impianto": "Altro", "Indirizzo": "Via Reiss Romoli 236 A 10148", "Nome impianto": "Torino Reiss Romoli", "Comune": "TORINO", "idImpianto": 27325, "points": [{"type": "Feature", "properties": {}, "geometry": {"type": "Point", "coordinates": [7.67418622970581, 45.11101141006377]}}], "price": 1.729, "ultima_rilevazione": "18/04/2022 12:03:58"}, {"Gestore": "BUA DANILO", "Bandiera": "Tamoil", "Tipo impianto": "Altro", "Indirizzo": "VIA STRADELLA 144 10147", "Nome impianto": "2302", "Comune": "TORINO", "idImpianto": 39268, "points": [{"type": "Feature", "properties": {}, "geometry": {"type": "Point", "coordinates": [7.670334912836552, 45.098222762853126]}}], "price": 1.809, "ultima_rilevazione": "18/04/2022 12:18:02"}, {"Gestore": "BUA DANILO", "Bandiera": "Tamoil", "Tipo impianto": "Altro", "Indirizzo": "VIA STRADELLA 144 10147", "Nome impianto": "2302", "Comune": "TORINO", "idImpianto": 39268, "points": [{"type": "Feature", "properties": {}, "geometry": {"type": "Point", "coordinates": [7.670334912836552, 45.098222762853126]}}], "price": 1.959, "ultima_rilevazione": "18/04/2022 12:18:02"}, {"Gestore": "TRG SERVICE S.A.S.", "Bandiera": "Tamoil", "Tipo impianto": "Altro", "Indirizzo": "VIA EINAUDI 90 10040", "Nome impianto": "Tamoil", "Comune": "RIVALTA DI TORINO", "idImpianto": 43526, "points": [{"type": "Feature", "properties": {}, "geometry": {"type": "Point", "coordinates": [7.5249213003057775, 45.03394918467755]}}], "price": 1.749, "ultima_rilevazione": "19/04/2022 07:22:11"}, {"Gestore": "TRG SERVICE S.A.S.", "Bandiera": "Tamoil", "Tipo impianto": "Altro", "Indirizzo": "VIA EINAUDI 90 10040", "Nome impianto": "Tamoil", "Comune": "RIVALTA DI TORINO", "idImpianto": 43526, "points": [{"type": "Feature", "properties": {}, "geometry": {"type": "Point", "coordinates": [7.5249213003057775, 45.03394918467755]}}], "price": 1.769, "ultima_rilevazione": "19/04/2022 07:22:11"}, {"Gestore": "D'ELIA CARBURANTI S.N.C. DI D'ELIA MICHELE & C.", "Bandiera": "Tamoil", "Tipo impianto": "Altro", "Indirizzo": "CORSO SVIZZERA 184/A 10149", "Nome impianto": "D'Elia carburanti s.n.c.", "Comune": "TORINO", "idImpianto": 15761, "points": [{"type": "Feature", "properties": {}, "geometry": {"type": "Point", "coordinates": [7.66093946993351, 45.09009108038905]}}], "price": 1.809, "ultima_rilevazione": "18/04/2022 15:06:08"}, {"Gestore": "D'ELIA CARBURANTI S.N.C. DI D'ELIA MICHELE & C.", "Bandiera": "Tamoil", "Tipo impianto": "Altro", "Indirizzo": "CORSO SVIZZERA 184/A 10149", "Nome impianto": "D'Elia carburanti s.n.c.", "Comune": "TORINO", "idImpianto": 15761, "points": [{"type": "Feature", "properties": {}, "geometry": {"type": "Point", "coordinates": [7.66093946993351, 45.09009108038905]}}], "price": 1.959, "ultima_rilevazione": "18/04/2022 15:06:08"}, {"Gestore": "GESTIONI INNOVATIVE ITALIA S.R.L.", "Bandiera": "Agip Eni", "Tipo impianto": "Altro", "Indirizzo": "STRADA DEL PORTONE 123/A 10137", "Nome impianto": "997", "Comune": "TORINO", "idImpianto": 39902, "points": [{"type": "Feature", "properties": {}, "geometry": {"type": "Point", "coordinates": [7.601460143923759, 45.03758518936149]}}], "price": 1.759, "ultima_rilevazione": "19/04/2022 07:06:04"}, {"Gestore": "EUROPACAR SOCIETA' COOPERATIVA", "Bandiera": "Tamoil", "Tipo impianto": "Altro", "Indirizzo": "via reiss romoli 314/a 10148", "Nome impianto": "TAMOIL", "Comune": "TORINO", "idImpianto": 34708, "points": [{"type": "Feature", "properties": {},