{"area_comune": "[{\"type\": \"Feature\", \"properties\": {}, \"geometry\": {\"type\": \"Polygon\", \"coordinates\": [[[14.274852938685811, 41.079871897134495], [14.282379759768146, 41.0795756363163], [14.282221629300793, 41.06896408752163], [14.265659778428713, 41.06921264074172], [14.265639933985195, 41.07310875899122], [14.270073765511032, 41.07919091804554], [14.269853741689335, 41.08187483945415], [14.274852938685811, 41.079871897134495]]]}}]", "comune": "curti", "buffer_1": "[{\"type\": \"Feature\", \"properties\": {}, \"geometry\": {\"type\": \"Polygon\", \"coordinates\": [[[14.26490726092569, 41.08478348333285], [14.265567440699275, 41.08547483536972], [14.266311288333718, 41.0861157124802], [14.267132103271328, 41.08670033990043], [14.268022490823986, 41.08722344961507], [14.268974428807118, 41.0876803278682], [14.269979339853972, 41.08806685767844], [14.271028168757066, 41.08837955597261], [14.272111464137385, 41.088615605002374], [14.273219463702132, 41.08877287775889], [14.274342182318803, 41.08884995715588], [14.275469502107377, 41.08884614880696], [14.282997340912855, 41.08854978601927], [14.284127088748578, 41.08846415249913], [14.285240861393724, 41.088297285597044], [14.286328477437314, 41.08805071098112], [14.287379994922732, 41.08772668293238], [14.288385802319514, 41.08732816370528], [14.289336706455357, 41.08685879641152], [14.290224016601028, 41.086322871676074], [14.29103962393698, 41.08572528837273], [14.29177607567366, 41.08507150879942], [14.292426643147415, 41.0843675087055], [14.292985383269935, 41.08361972262956], [14.29344719277119, 41.0828349850494], [14.293807854742433, 41.08202046788383], [14.294064077057369, 41.081183614918906], [14.294213522324455, 41.08033207375932], [14.294254829101472, 41.07947362592775], [14.29409478359639, 41.06886220917452], [14.294023634928463, 41.06797712461575], [14.293837578725917, 41.06710165533376], [14.293538430902272, 41.06624432483839], [14.29312910808894, 41.0654134797315], [14.292613599086147, 41.06461720848029], [14.291996925897237, 41.06386326271385], [14.29128509473072, 41.06315898180715], [14.290485037450964, 41.06251122148422], [14.289604544050285, 41.06192628713354], [14.28865218680118, 41.061409872481846], [14.287637236827136, 41.06096700422109], [14.286569573902916, 41.06060199312515], [14.285459590359714, 41.06031839212975], [14.284318090026893, 41.06011896178173], [14.283156183189204, 41.06000564339255], [14.281985178576353, 41.05997954015592], [14.265425584647504, 41.06022792338621], [14.264279618194083, 41.0602870878419], [14.26314656279066, 41.06042978298274], [14.262037019590796, 41.06065467399194], [14.260961370090326, 41.06095965698336], [14.259929679093915, 41.06134187865422], [14.258951600625373, 41.06179776294361], [14.258036287658047, 41.062323044449066], [14.257192306506907, 41.062912808290555], [14.256427556681166, 41.06356153605083], [14.255749196946512, 41.06426315736467], [14.2551635782889, 41.06501110667624], [14.25467618440859, 41.06579838463572], [14.254291580303605, 41.06661762356263], [14.254013369427314, 41.06746115636482], [14.253844159825354, 41.068321088269876], [14.253785539573885, 41.0691893706983], [14.253838061754772, 41.07005787658825], [14.25400123911423, 41.070918476466844], [14.254273548461148, 41.071763114555885], [14.254652444769953, 41.07258388419932], [14.255134384861746, 41.073373101905204], [14.255714860447375, 41.07412337930791], [14.26490726092569, 41.08478348333285]]]}}]", "buffer_3": "[{\"type\": \"Feature\", \"properties\": {}, \"geometry\": {\"type\": \"Polygon\", \"coordinates\": [[[14.245011284844296, 41.09460432761555], [14.246991602947872, 41.09667873114933], [14.249223098767342, 41.09860171437355], [14.251685672352263, 41.100355940335064], [14.254357135031116, 41.10192559261769], [14.25721340947706, 41.10329651832119], [14.260228747037035, 41.1044563560254], [14.263375960350922, 41.10539464756946], [14.266626669141301, 41.10610293262391], [14.269951556927902, 41.10657482519098], [14.273320636316171, 41.10680607133277], [14.276703520426864, 41.106794587600746], [14.28423339604666, 41.10649802079933], [14.287623538357233, 41.106240995784226], [14.290965689694934, 41.105740209718974], [14.294229275403431, 41.105000246377045], [14.297384442691623, 41.10402787734809], [14.300402334532748, 41.1028319997999], [14.303255354279658, 41.10142355474895], [14.305917418544475, 41.099815426601594], [14.30836419600625, 41.09802232490214], [14.310573329947754, 41.09606064938667], [14.312524642480668, 41.093948339595514], [14.314200318595823, 41.091704710437874], [14.315585068368986, 41.08935027522956], [14.316666265861615, 41.08690655783791], [14.317434063477489, 41.08439589566524], [14.31788148076748, 41.081841235283285], [14.318004466914436, 41.079265922594956], [14.317840591547776, 41.068654771285615], [14.317626201390485, 41.06599961918941], [14.317067144894661, 41.06337337986481], [14.3161689042767, 41.060801617282856], [14.314940260371552, 41.05830936234725], [14.313393205786006, 41.055920869561405], [14.3115428269867, 41.05365938134213], [14.309407156515045, 41.05154690225615], [14.307006996802249, 41.04960398535654], [14.304365717323153, 41.047849532676544], [14.301509027075134, 41.04630061179929], [14.298464724596291, 41.04497229026581], [14.295262427943365, 41.043877489410576], [14.29193328723338, 41.04302685902675], [14.288509682511856, 41.04242867406306], [14.285024909843886, 41.04208875434286], [14.281512858631608, 41.042010408076194], [14.26495777554216, 41.04225845138874], [14.26152079840559, 41.042435840673775], [14.258122498418583, 41.0428637580369], [14.254794646720574, 41.04353820529667], [14.251568358769557, 41.044452879215314], [14.248473804323877, 41.045599230143225], [14.245539926092658, 41.046966541612505], [14.242794169649711, 41.048542030150415], [14.24026222710867, 41.05031096439691], [14.237967796937408, 41.052256802431], [14.23593236214909, 41.05436134604142], [14.23417498894548, 41.05660491051829], [14.232712147707483, 41.05896650839678], [14.23155755802873, 41.06142404545171], [14.230722059272592, 41.06395452712504], [14.230213507902343, 41.06653427346818], [14.23003670259062, 41.069139140597784], [14.230193337859635, 41.07174474659928], [14.230681986739881, 41.074326699766765], [14.231498112664916, 41.07686082704184], [14.232634110545607, 41.07932340050854], [14.234079376691234, 41.08169135981527], [14.235820406970337, 41.08394252842953], [14.245011284844296, 41.09460432761555]]]}}]", "buffer_5": "[{\"type\": \"Feature\", \"properties\": {}, \"geometry\": {\"type\": \"Polygon\", \"coordinates\": [[[14.225109146990107, 41.104422064687746], [14.228409307164176, 41.10787998298315], [14.232128387274395, 41.11108554169525], [14.236232890364471, 41.1140098247753], [14.240685827704297, 41.11662645087966], [14.24544705250046, 41.11891181241378], [14.250473622751924, 41.120845289507855], [14.255720189939408, 41.12240943694873], [14.26113940998029, 41.12359014234146], [14.266682372659059, 41.124376754038884], [14.272299045558485, 41.12476217765741], [14.277938728371787, 41.12474294028944], [14.285470642631475, 41.12444616937452], [14.291122379137363, 41.12401758678245], [14.296694021497723, 41.12318263414325], [14.30213456115407, 41.1219489623864], [14.307394198516656, 41.120327872106934], [14.312424801108094, 41.11833420929935], [14.317180345957528, 41.115986228503985], [14.321617342109036, 41.113305424660126], [14.32569522931207, 41.11031633525212], [14.329376749204613, 41.107046314608446], [14.332628285577863, 41.10352528247123], [14.335420170621326, 41.09978544918724], [14.337726954385083, 41.095861020082914], [14.33952763505793, 41.091787881772326], [14.340805848041516, 41.08760327330505], [14.341550012197391, 41.083345445192776], [14.341753432051554, 41.07905330945518], [14.341585727111456, 41.06844242540427], [14.341226836923939, 41.06401734195484], [14.340293597009257, 41.05964055796571], [14.338795201791212, 41.05535466907928], [14.336746337470485, 41.05120137859586], [14.334167035289024, 41.047221092499896], [14.331082473328404, 41.043452527358085], [14.32752272889341, 41.03993233485563], [14.323522483986089, 41.036694746567505], [14.319120686801337, 41.03377124235958], [14.31436017257016, 41.03119024558239], [14.309287247438354, 41.02897684795922], [14.303951239394317, 41.02715256678407], [14.298404020548066, 41.025735136735044], [14.292699505312836, 41.024738338279946], [14.286893129249522, 41.0241718643026], [14.281041313501502, 41.024041226218294], [14.264490737192192, 41.024288929695466], [14.258763977637347, 41.024584405132565], [14.253101586822202, 41.02529732086929], [14.247556462878148, 41.026421023695576], [14.242180416598806, 41.02794502221661], [14.237023689873206, 41.029855084073795], [14.232134488298017, 41.032133367967184], [14.227558532237031, 41.03475858928816], [14.223338630445856, 41.03770621786176], [14.219514280194192, 41.0409487060029], [14.216121297597951, 41.04445574480885], [14.213191481619628, 41.04819454634681], [14.210752314909463, 41.052130149150685], [14.208826704343254, 41.05622574421998], [14.207432763767278, 41.06044301851517], [14.206583641089157, 41.06474251277342], [14.206287391457673, 41.069083990325076], [14.206546897858184, 41.07342681347863], [14.207359840016052, 41.077730323959855], [14.208718712052654, 41.081954223842075], [14.210610888880648, 41.08605895338843], [14.213018740861704, 41.09000606224542], [14.215919795785558, 41.093758570479466], [14.225109146990107, 41.104422064687746]]]}}]", "centroid": "[{\"type\": \"Feature\", \"properties\": {}, \"geometry\": {\"type\": \"Point\", \"coordinates\": [14.275464801960924, 41.073476065278065]}}]", "Diesel High Quality": {"1": [], "3": [{"Gestore": "ENRICO MASTROIANNI CARBURANTI SRL", "Bandiera": "Q8", "Tipo impianto": "Altro", "Indirizzo": "VIA CIMITERO  81026", "Nome impianto": "AREA DI SERVIZIO Q8 RECALE", "Comune": "RECALE", "idImpianto": 15629, "points": [{"type": "Feature", "properties": {}, "geometry": {"type": "Point", "coordinates": [14.307212680578232, 41.05101245700886]}}], "price": 2.094, "ultima_rilevazione": "27/07/2022 18:08:19"}, {"Gestore": "PULIAUTO SRL", "Bandiera": "Q8", "Tipo impianto": "Altro", "Indirizzo": "VIA PONTESELICE SNC 81022", "Nome impianto": "IMPIANTO PONTESELICE", "Comune": "CASAGIOVE", "idImpianto": 44419, "points": [{"type": "Feature", "properties": {}, "geometry": {"type": "Point", "coordinates": [14.313999000123, 41.066265000123]}}], "price": 2.094, "ultima_rilevazione": "27/07/2022 18:55:25"}, {"Gestore": "MARINO CLEMENTE", "Bandiera": "Esso", "Tipo impianto": "Altro", "Indirizzo": "VIA TIFATA SNC 81022", "Nome impianto": "STAZIONE DI SERVIZIO ESSO DI MARINO CLEMENTE", "Comune": "CASAGIOVE", "idImpianto": 32381, "points": [{"type": "Feature", "properties": {}, "geometry": {"type": "Point", "coordinates": [14.301366806030272, 41.08097427048457]}}], "price": 1.959, "ultima_rilevazione": "28/07/2022 10:00:31"}], "5": [{"Gestore": "D.G. CARBURANTI s.a.s.", "Bandiera": "Q8", "Tipo impianto": "Autostradale", "Indirizzo": "A1 MILANO-NAPOLI, Km. 737+200, Nord 81020", "Nome impianto": "S.NICOLA OVEST", "Comune": "SAN NICOLA LA STRADA", "idImpianto": 3654, "points": [{"type": "Feature", "properties": {}, "geometry": {"type": "Point", "coordinates": [14.321995675563812, 41.04918429607012]}}], "price": 1.969, "ultima_rilevazione": "22/07/2022 07:30:08"}, {"Gestore": "D.G. CARBURANTI s.a.s.", "Bandiera": "Q8", "Tipo impianto": "Autostradale", "Indirizzo": "A1 MILANO-NAPOLI, Km. 737+200, Nord 81020", "Nome impianto": "S.NICOLA OVEST", "Comune": "SAN NICOLA LA STRADA", "idImpianto": 3654, "points": [{"type": "Feature", "properties": {}, "geometry": {"type": "Point", "coordinates": [14.321995675563812, 41.04918429607012]}}], "price": 1.969, "ultima_rilevazione": "22/07/2022 07:30:08"}, {"Gestore": "SERVIZI & GESTIONI ITALIA srl", "Bandiera": "Q8", "Tipo impianto": "Altro", "Indirizzo": "VIA MARTIN LUTER KING STAZ.Q8 SNC 81025", "Nome impianto": "MARCIANISE VIA MARTIN LUTER KING STAZ.Q8", "Comune": "MARCIANISE", "idImpianto": 6720, "points": [{"type": "Feature", "properties": {}, "geometry": {"type": "Point", "coordinates": [14.283066193254058, 41.03287474303295]}}], "price": 2.159, "ultima_rilevazione": "25/07/2022 00:38:50"}, {"Gestore": "SERVIZI & GESTIONI ITALIA srl", "Bandiera": "Q8", "Tipo impianto": "Altro", "Indirizzo": "VIA MARTIN LUTER KING STAZ.Q8 SNC 81025", "Nome impianto": "MARCIANISE VIA MARTIN LUTER KING STAZ.Q8", "Comune": "MARCIANISE", "idImpianto": 6720, "points": [{"type": "Feature", "properties": {}, "geometry": {"type": "Point", "coordinates": [14.283066193254058, 41.03287474303295]}}], "price": 2.198, "ultima_rilevazione": "25/07/2022 00:38:50"}, {"Gestore": "EGI-2GO S.R.L.", "Bandiera": "Esso", "Tipo impianto": "Altro", "Indirizzo": "VIA VITTORIO VENETO 5 81100", "Nome impianto": "Caserta", "Comune": "CASERTA", "idImpianto": 47999, "points": [{"type": "Feature", "properties": {}, "geometry": {"type": "Point", "coordinates": [14.330476294477451, 41.07012871403312]}}], "price": 1.989, "ultima_rilevazione": "28/07/2022 17:54:54"}, {"Gestore": "PAPALE LUIGI & FIGLI S.A.S. DI PAPALE LUIGI", "Bandiera": "Esso", "Tipo impianto": "Altro", "Indirizzo": "Via San Tammaro 245 81043", "Nome impianto": "Area di Servizio \"ESSO\" Papale Luigi & Figli S.r.l.(Capua)", "Comune": "CAPUA", "idImpianto": 44814, "points": [{"type": "Feature", "properties": {}, "geometry": {"type": "Point", "coordinates": [14.219315555688354, 41.0939443531601]}}], "price": 1.999, "ultima_rilevazione": "28/07/2022 21:32:36"}]}, "Blue Diesel": {"1": [{"Gestore": "ANGELUCCI PASQUALE", "Bandiera": "Agip Eni", "Tipo impianto": "Strada Statale", "Indirizzo": "Statale 7 Via Appia, Km. 207+600, dir. sud 81055", "Nome impianto": "ENI", "Comune": "SANTA MARIA CAPUA VETERE", "idImpianto": 4240, "points": [{"type": "Feature", "properties": {}, "geometry": {"type": "Point", "coordinates": [14.266664385795591, 41.08146111804406]}}], "price": 1.939, "ultima_rilevazione": "10/04/2022 09:28:36"}, {"Gestore": "ANGELUCCI PASQUALE", "Bandiera": "Agip Eni", "Tipo impianto": "Strada Statale", "Indirizzo": "Statale 7 Via Appia, Km. 207+600, dir. sud 81055", "Nome impianto": "ENI", "Comune": "SANTA MARIA CAPUA VETERE", "idImpianto": 4240, "points": [{"type": "Feature", "properties": {}, "geometry": {"type": "Point", "coordinates": [14.266664385795591, 41.08146111804406]}}], "price": 1.859, "ultima_rilevazione": "10/04/2022 09:28:36"}], "3": [{"Gestore": "PEDICINI ROBERTO", "Bandiera": "Agip Eni", "Tipo impianto": "Strada Statale", "Indirizzo": "Statale 7 Via Appia, Km. 211+430, dir. NORD", "Nome impianto": "ENI ROBERTO PEDICINI", "Comune": "CASAGIOVE", "idImpianto": 17892, "points": [{"type": "Feature", "properties": {}, "geometry": {"type": "Point", "coordinates": [14.309885501861572, 41.07324649694152]}}], "price": 2.109, "ultima_rilevazione": "17/06/2022 15:56:57"}, {"Gestore": "DITTA COPPOLA GIUSEPPE", "Bandiera": "Agip Eni", "Tipo impianto": "Altro", "Indirizzo": "VIA DEL LAVORO 164 81055", "Nome impianto": "self area agip e autolavaggio", "Comune": "SANTA MARIA CAPUA VETERE", "idImpianto": 15028, "points": [{"type": "Feature", "properties": {}, "geometry": {"type": "Point", "coordinates": [14.241987692590328, 41.08806718113692]}}], "price": 2.164, "ultima_rilevazione": "26/07/2022 16:59:41"}, {"Gestore": "DITTA COPPOLA GIUSEPPE", "Bandiera": "Agip Eni", "Tipo impianto": "Altro", "Indirizzo": "VIA DEL LAVORO 164 81055", "Nome impianto": "self area agip e autolavaggio", "Comune": "SANTA MARIA CAPUA VETERE", "idImpianto": 15028, "points": [{"type": "Feature", "properties": {}, "geometry": {"type": "Point", "coordinates": [14.241987692590328, 41.08806718113692]}}], "price": 2.014, "ultima_rilevazione": "26/07/2022 16:59:41"}], "5": [{"Gestore": "NAPOLETANO GENNARO", "Bandiera": "Agip Eni", "Tipo impianto": "Altro", "Indirizzo": "via unita' italiana 1 81100", "Nome impianto": "Ditta Napoletano Gennaro", "Comune": "CASERTA", "idImpianto": 49793, "points": [{"type": "Feature", "properties": {}, "geometry": {"type": "Point", "coordinates": [14.341587872352584, 41.0724436028885]}}], "price": 2.004, "ultima_rilevazione": "20/07/2022 09:18:41"}, {"Gestore": "ZARRILLO SERVICE S.A.S. DI GIOVANNI ZARRILLO & C.", "Bandiera": "Agip Eni", "Tipo impianto": "Altro", "Indirizzo": "VIA RETELLA 22 81020", "Nome impianto": "AGIP", "Comune": "CAPODRISE", "idImpianto": 20072, "points": [{"type": "Feature", "properties": {}, "geometry": {"type": "Point", "coordinates": [14.308586387731566, 41.04346465733506]}}], "price": 1.939, "ultima_rilevazione": "26/07/2022 08:43:59"}, {"Gestore": "Borgheseservicesrl", "Bandiera": "Agip Eni", "Tipo impianto": "Autostradale", "Indirizzo": "Autostrada A1 MILANO-NAPOLI, Km. 737+200, dir. Sud ", "Nome impianto": "S.NICOLA EST", "Comune": "SAN NICOLA LA STRADA", "idImpianto": 3668, "points": [{"type": "Feature", "properties": {}, "geometry": {"type": "Point", "coordinates": [14.322657899475075, 41.05014665284766]}}], "price": 2.069, "ultima_rilevazione": "27/07/2022 14:34:09"}, {"Gestore": "Borgheseservicesrl", "Bandiera": "Agip Eni", "Tipo impianto": "Autostradale", "Indirizzo": "Autostrada A1 MILANO-NAPOLI, Km. 737+200, dir. Sud ", "Nome impianto": "S.NICOLA EST", "Comune": "SAN NICOLA LA STRADA", "idImpianto": 3668, "points": [{"type": "Feature", "properties": {}, "geometry": {"type": "Point", "coordinates": [14.322657899475075, 41.05014665284766]}}], "price": 2.149, "ultima_rilevazione": "27/07/2022 14:34:09"}, {"Gestore": "CARBURANTI S.A.S. DI RAZZANO MICHELE E C.", "Bandiera": "Agip Eni", "Tipo impianto": "Altro", "Indirizzo": "VIA KENNEDY SNC 81025", "Nome impianto": "stazione eni 18451", "Comune": "MARCIANISE", "idImpianto": 19453, "points": [{"type": "Feature", "properties": {}, "geometry": {"type": "Point", "coordinates": [14.296415448188782, 41.02668898643588]}}], "price": 1.939, "ultima_rilevazione": "28/07/2022 08:20:14"}, {"Gestore": "CAVASO DANIELE", "Bandiera": "Agip Eni", "Tipo impianto": "Altro", "Indirizzo": "VIALE EUROPA 16 81025", "Nome impianto": "autostazione eni di cavaso daniele", "Comune": "MARCIANISE", "idImpianto": 31479, "points": [{"type": "Feature", "properties": {}, "geometry": {"type": "Point", "coordinates": [14.313824325799942, 41.03707989355365]}}], "price": 1.944, "ultima_rilevazione": "28/07/2022 14:46:44"}, {"Gestore": "MONTE DI IGNAZIO E DOMENICO MONTE S.N.C.", "Bandiera": "Agip Eni", "Tipo impianto": "Altro", "Indirizzo": "VIA TESCIONE 89 81100", "Nome impianto": "ENI", "Comune": "CASERTA", "idImpianto": 50074, "points": [{"type": "Feature", "properties": {}, "geometry": {"type": "Point", "coordinates": [14.331007377246124, 41.08518460756699]}}], "price": 1.944, "ultima_rilevazione": "29/07/2022 07:28:10"}, {"Gestore": "MONTE DI IGNAZIO E DOMENICO MONTE S.N.C.", "Bandiera": "Agip Eni", "Tipo impianto": "Altro", "Indirizzo": "VIA TESCIONE 89 81100", "Nome impianto": "ENI", "Comune": "CASERTA", "idImpianto": 50074, "points": [{"type": "Feature", "properties": {}, "geometry": {"type": "Point", "coordinates": [14.331007377246124, 41.08518460756699]}}], "price": 2.004, "ultima_rilevazione": "29/07/2022 07:28:10"}, {"Gestore": "ENI FUEL S.P.A.", "Bandiera": "Agip Eni", "Tipo impianto": "Altro", "Indirizzo": "V.le della Libert\u00e0, Cavalcavia SNC 81100", "Nome impianto": "CASERTA", "Comune": "CASERTA", "idImpianto": 5447, "points": [{"type": "Feature", "properties": {}, "geometry": {"type": "Point", "coordinates": [14.32765362532598, 41.066684732453815]}}], "price": 1.944, "ultima_rilevazione": "29/07/2022 07:00:07"}, {"Gestore": "ENI FUEL S.P.A.", "Bandiera": "Agip Eni", "Tipo impianto": "Altro", "Indirizzo": "V.le della Libert\u00e0, Cavalcavia SNC 81100", "Nome impianto": "CASERTA", "Comune": "CASERTA", "idImpianto": 5447, "points": [{"type": "Feature", "properties": {}, "geometry": {"type": "Point", "coordinates": [14.32765362532598, 41.066684732453815]}}], "price": 2.004, "ultima_rilevazione": "29/07/2022 07:00:07"}, {"Gestore": "ENI FUEL S.P.A.", "Bandiera": "Agip Eni", "Tipo impianto": "Altro", "Indirizzo": "SS 87 Km 22 + 200 Viale Carlo III di Borbone  81020", "Nome impianto": "08488 \u2013 San Nicola La Strada", "Comune": "SAN NICOLA LA STRADA", "idImpianto": 50779, "points": [{"type": "Feature", "properties": {}, "geometry": {"type": "Point", "coordinates": [14.325036980839512, 41.03896202319381]}}], "price": 1.944, "ultima_rilevazione": "29/07/2022 07:26:08"}]}, "Gasolio High Quality": {"1": [], "3": [], "5": [{"Gestore": "A.G. OIL SAS DI GOLINO GIOVANNI & C.", "Bandiera": "Esso", "Tipo impianto": "Altro", "Indirizzo": " S.S. 265 KM 34+657 SNC 81025", "Nome impianto": "A.G.OIL", "Comune": "MARCIANISE", "idImpianto": 23464, "points": [{"type": "Feature", "properties": {}, "geometry": {"type": "Point", "coordinates": [14.27826754470516, 41.03726769989665]}}], "price": 2.036, "ultima_rilevazione": "26/07/2022 11:04:16"}]}, "Benzina": {"1": [{"Gestore": "LETIZIA GIUSEPPE", "Bandiera": "Api-Ip", "Tipo impianto": "Altro", "Indirizzo": "via nazionale appia km 209.500  81020", "Nome impianto": "totalerg", "Comune": "CASAPULLA", "idImpianto": 15340, "points": [{"type": "Feature", "properties": {}, "geometry": {"type": "Point", "coordinates": [14.287334829568865, 41.07420331818706]}}], "price": 2.359, "ultima_rilevazione": "29/07/2022 07:05:46"}, {"Gestore": "ANGELUCCI PASQUALE", "Bandiera": "Agip Eni", "Tipo impianto": "Strada Statale", "Indirizzo": "Statale 7 Via Appia, Km. 207+600, dir. sud 81055", "Nome impianto": "ENI", "Comune": "SANTA MARIA CAPUA VETERE", "idImpianto": 4240, "points": [{"type": "Feature", "properties": {}, "geometry": {"type": "Point", "coordinates": [14.266664385795591, 41.08146111804406]}}], "price": 1.789, "ultima_rilevazione": "10/04/2022 09:28:36"}, {"Gestore": "F.D.M. CARBURANTI SRL SEMPLIFICATA", "Bandiera": "Pompe Bianche", "Tipo impianto": "Altro", "Indirizzo": "VIA MARTIRI DI CEFALONIA SP126 23 81047", "Nome impianto": "F.D.M. CARBURANTI SRLS", "Comune": "MACERATA CAMPANIA", "idImpianto": 45148, "points": [{"type": "Feature", "properties": {}, "geometry": {"type": "Point", "coordinates": [14.282564000123, 41.063480000123]}}], "price": 1.959, "ultima_rilevazione": "14/07/2022 12:00:34"}, {"Gestore": "CANTELLI RAFFAELE", "Bandiera": "Pompe Bianche", "Tipo impianto": "Altro", "Indirizzo": "via Ventriglia 70 81040", "Nome impianto": "IPERFUEL di Cantelli Raffaele (CURTI)", "Comune": "CURTI", "idImpianto": 41620, "points": [{"type": "Feature", "properties": {}, "geometry": {"type": "Point", "coordinates": [14.27390232682228, 41.07433454640584]}}], "price": 1.909, "ultima_rilevazione": "25/07/2022 11:51:54"}, {"Gestore": "SYNERGY S.R.L.", "Bandiera": "Pompe Bianche", "Tipo impianto": "Altro", "Indirizzo": "VIA GIUSEPPE GARIBALDI  65 81047", "Nome impianto": "MACERATA CAMPANIA ", "Comune": "MACERATA CAMPANIA", "idImpianto": 48770, "points": [{"type": "Feature", "properties": {}, "geometry": {"type": "Point", "coordinates": [14.279971647238726, 41.06661528614261]}}], "price": 1.865, "ultima_rilevazione": "27/07/2022 11:13:53"}, {"Gestore": "TRAGEN S.R.L.", "Bandiera": "Gaffoil", "Tipo impianto": "Altro", "Indirizzo": "Via Nazionale Appia Km 208+50  81040", "Nome impianto": "Gaffoil Curti", "Comune": "CURTI", "idImpianto": 19199, "points": [{"type": "Feature", "properties": {}, "geometry": {"type": "Point", "coordinates": [14.27840106189251, 41.07818432957283]}}], "price": 1.865, "ultima_rilevazione": "27/07/2022 16:07:42"}], "3": [{"Gestore": "PEDICINI ROBERTO", "Bandiera": "Agip Eni", "Tipo impianto": "Strada Statale", "Indirizzo": "Statale 7 Via Appia, Km. 211+430, dir. NORD", "Nome impianto": "ENI ROBERTO PEDICINI", "Comune": "CASAGIOVE", "idImpianto": 17892, "points": [{"type": "Feature", "properties": {}, "geometry": {"type": "Point", "coordinates": [14.309885501861572, 41.07324649694152]}}], "price": 2.069, "ultima_rilevazione": "17/06/2022 15:56:57"}, {"Gestore": "CUTILLO TERESA", "Bandiera": "Api-Ip", "Tipo impianto": "Altro", "Indirizzo": "S.S. 7 Appia  81022", "Nome impianto": "Stazione di Servizio IP Cutillo", "Comune": "CASAGIOVE", "idImpianto": 47366, "points": [{"type": "Feature", "properties": {}, "geometry": {"type": "Point", "coordinates": [14.313786664723883, 41.0730147251997]}}], "price": 1.959, "ultima_rilevazione": "19/07/2022 14:23:54"}, {"Gestore": "VASTANO TIZIANA", "Bandiera": "Api-Ip", "Tipo impianto": "Altro", "Indirizzo": "VIA A. VOLTA 71 81050", "Nome impianto": "STAZIONE SERVIZIO VASTANO TIZIANA", "Comune": "PORTICO DI CASERTA", "idImpianto": 39037, "points": [{"type": "Feature", "properties": {}, "geometry": {"type": "Point", "coordinates": [14.282515317790969, 41.05911433943689]}}], "price": 1.799, "ultima_rilevazione": "22/07/2022 16:08:12"}, {"Gestore": "SERVIZI & GESTIONI ITALIA S.R.L.", "Bandiera": "Q8", "Tipo impianto": "Altro", "Indirizzo": "SS 7 KM. 210+326  81020", "Nome impianto": "SS 7 KM. 210+326 -  CASAPULLA", "Comune": "CASAPULLA", "idImpianto": 28275, "points": [{"type": "Feature", "properties": {}, "geometry": {"type": "Point", "coordinates": [14.296932655889124, 41.07349818008677]}}], "price": 1.909, "ultima_rilevazione": "25/07/2022 00:38:52"}, {"Gestore": "MARZIA PETROLI S.R.L.", "Bandiera": "Pompe Bianche", "Tipo impianto": "Altro", "Indirizzo": "STRADA PROV.13 AVERSA-S.M.C.V. SNC 81055", "Nome impianto": "Marzia petroli Srl", "Comune": "SANTA MARIA CAPUA VETERE", "idImpianto": 49641, "points": [{"type": "Feature", "properties": {}, "geometry": {"type": "Point", "coordinates": [14.2486145133258, 41.05670764550968]}}], "price": 1.818, "ultima_rilevazione": "25/07/2022 13:01:32"}, {"Gestore": "SR FUEL DI VINCENZO RAIA", "Bandiera": "Pompe Bianche", "Tipo impianto": "Altro", "Indirizzo": "VIA ROMA 156 81020", "Nome impianto": "SPFUEL", "Comune": "RECALE", "idImpianto": 48385, "points": [{"type": "Feature", "properties": {}, "geometry": {"type": "Point", "coordinates": [14.307806057692076, 41.06477539109586]}}], "price": 1.859, "ultima_rilevazione": "25/07/2022 17:17:56"}, {"Gestore": "CAIAZZO ANTONIO", "Bandiera": "Api-Ip", "Tipo impianto": "Altro", "Indirizzo": "VIA DEL LAVORO 168 80133", "Nome impianto": "TOTAL ERG", "Comune": "SANTA MARIA CAPUA VETERE", "idImpianto": 43034, "points": [{"type": "Feature", "properties": {}, "geometry": {"type": "Point", "coordinates": [14.241968000000044, 41.08806602158177]}}], "price": 1.869, "ultima_rilevazione": "26/07/2022 15:52:11"}, {"Gestore": "DITTA COPPOLA GIUSEPPE", "Bandiera": "Agip Eni", "Tipo impianto": "Altro", "Indirizzo": "VIA DEL LAVORO 164 81055", "Nome impianto": "self area agip e autolavaggio", "Comune": "SANTA MARIA CAPUA VETERE", "idImpianto": 15028, "points": [{"type": "Feature", "properties": {}, "geometry": {"type": "Point", "coordinates": [14.241987692590328, 41.08806718113692]}}], "price": 1.864, "ultima_rilevazione": "26/07/2022 16:59:41"}, {"Gestore": "GALLO PETROLI SOCIETA' SEMPLIFICATA A RESPONSABILITA' LIMITATA", "Bandiera": "Pompe Bianche", "Tipo impianto": "Altro", "Indirizzo": "STRADA PROVINCIALE 341 EX S.S 7 BIS  SNC 81055", "Nome impianto": "GALLO PETROLI SRLS", "Comune": "SANTA MARIA CAPUA VETERE", "idImpianto": 28474, "points": [{"type": "Feature", "properties": {}, "geometry": {"type": "Point", "coordinates": [14.231438934803007, 41.06451152309192]}}], "price": 1.819, "ultima_rilevazione": "27/07/2022 07:34:40"}, {"Gestore": "PENTA PETROLI SRL", "Bandiera": "Pompe Bianche", "Tipo impianto": "Altro", "Indirizzo": "VIA GIOVANNI PAOLO 1\u00b0 SNC 81055", "Nome impianto": "EWA SANTA MARIA CAPUA VETERE", "Comune": "SANTA MARIA CAPUA VETERE", "idImpianto": 29981, "points": [{"type": "Feature", "properties": {}, "geometry": {"type": "Point", "coordinates": [14.265140891075134, 41.08839587883899]}}], "price": 1.889, "ultima_rilevazione": "27/07/2022 12:15:30"}, {"Gestore": "ITALIMPIANTI S.R.L.", "Bandiera": "Pompe Bianche", "Tipo impianto": "Altro", "Indirizzo": "VIA FRATELLI ROSSELLI 19 81050", "Nome impianto": " ITALIMPIANTI", "Comune": "PORTICO DI CASERTA", "idImpianto": 32676, "points": [{"type": "Feature", "properties": {}, "geometry": {"type": "Point", "coordinates": [14.28290730370486, 41.05008535954661]}}], "price": 1.85, "ultima_rilevazione": "27/07/2022 12:59:25"}, {"Gestore": "F.B. OIL S.A.S. DI ANGELO BONAVOLONTA' E C.", "Bandiera": "Api-Ip", "Tipo impianto": "Altro", "Indirizzo": "VIA GALATINA 167 81055", "Nome impianto": "Area Servizio IP F. B. OIL SAS ", "Comune": "SANTA MARIA CAPUA VETERE", "idImpianto": 46308, "points": [{"type": "Feature", "properties": {}, "geometry": {"type": "Point", "coordinates": [14.253548383712769, 41.08872936731931]}}], "price": 1.959, "ultima_rilevazione": "27/07/2022 13:32:25"}, {"Gestore": "TRAGEN S.R.L.", "Bandiera": "Gaffoil", "Tipo impianto": "Altro", "Indirizzo": "via anfiteatro  81055", "Nome impianto": "Gaffoil SMCV", "Comune": "SANTA MARIA CAPUA VETERE", "idImpianto": 14923, "points": [{"type": "Feature", "properties": {}, "geometry": {"type": "Point", "coordinates": [14.250153377652168, 41.08216226937119]}}], "price": 1.853, "ultima_rilevazione": "27/07/2022 15:49:45"}, {"Gestore": "TRAGEN S.R.L.", "Bandiera": "Gaffoil", "Tipo impianto": "Altro", "Indirizzo": "Via Ponteselice  81047", "Nome impianto": "Gaffoil Musicile", "Comune": "MACERATA CAMPANIA", "idImpianto": 20710, "points": [{"type": "Feature", "properties": {}, "geometry": {"type": "Point", "coordinates": [14.290934354066849, 41.05119854710766]}}], "price": 1.865, "ultima_rilevazione": "27/07/2022 16:04:37"}, {"Gestore": "ENRICO MASTROIANNI CARBURANTI SRL", "Bandiera": "Q8", "Tipo impianto": "Altro", "Indirizzo": "VIA CIMITERO  81026", "Nome impianto": "AREA DI SERVIZIO Q8 RECALE", "Comune": "RECALE", "idImpianto": 15629, "points": [{"type": "Feature", "properties": {}, "geometry": {"type": "Point", "coordinates": [14.307212680578232, 41.05101245700886]}}], "price": 1.879, "ultima_rilevazione": "27/07/2022 18:08:19"}, {"Gestore": "PULIAUTO SRL", "Bandiera": "Q8", "Tipo impianto": "Altro", "Indirizzo": "VIA PONTESELICE SNC 81022", "Nome impianto": "IMPIANTO PONTESELICE", "Comune": "CASAGIOVE", "idImpianto": 44419, "points": [{"type": "Feature", "properties": {}, "geometry": {"type": "Point", "coordinates": [14.313999000123, 41.066265000123]}}], "price": 1.974, "ultima_rilevazione": "27/07/2022 18:55:25"}, {"Gestore": "IP SERVICE S.R.L.", "Bandiera": "Esso", "Tipo impianto": "Altro", "Indirizzo": "via ponteselice snc 81020", "Nome impianto": "Stazione di Servizio Ip Service \"ESSO\" Capodrise", "Comune": "CAPODRISE", "idImpianto": 40332, "points": [{"type": "Feature", "properties": {}, "geometry": {"type": "Point", "coordinates": [14.293845891952516, 41.04964710591644]}}], "price": 1.859, "ultima_rilevazione": "28/07/2022 09:22:27"}, {"Gestore": "MARINO CLEMENTE", "Bandiera": "Esso", "Tipo impianto": "Altro", "Indirizzo": "VIA TIFATA SNC 81022", "Nome impianto": "STAZIONE DI SERVIZIO ESSO DI MARINO CLEMENTE", "Comune": "CASAGIOVE", "idImpianto": 32381, "points": [{"type": "Feature", "properties": {}, "geometry": {"type": "Point", "coordinates": [14.301366806030272, 41.08097427048457]}}], "price": 1.889, "ultima_rilevazione": "28/07/2022 10:00:31"}, {"Gestore": "EASY SERVICE S.R.L.", "Bandiera": "Energas", "Tipo impianto": "Altro", "Indirizzo": "ss 7 bis direzione Aversa SNC 81050", "Nome impianto": "Easy Service San Tammaro ", "Comune": "SAN TAMMARO", "idImpianto": 38681, "points": [{"type": "Feature", "properties": {}, "geometry": {"type": "Point", "coordinates": [14.23144429922104, 41.06457138328052]}}], "price": 1.839, "ultima_rilevazione": "28/07/2022 19:26:14"}, {"Gestore": "TAMOIL DI TROISE MICHELE", "Bandiera": "Tamoil", "Tipo impianto": "Altro", "Indirizzo": "VIA SAN GIOVANNI 2 81020", "Nome impianto": "TAMOIL", "Comune": "CASAPULLA", "idImpianto": 33281, "points": [{"type": "Feature", "properties": {}, "geometry": {"type": "Point", "coordinates": [14.298856258392334, 41.08484004039144]}}], "price": 1.898, "ultima_rilevazione": "29/07/2022 07:48:12"}], "5": [{"Gestore": "3P SOCIETA' A RESPONSABILITA' LIMITATA", "Bandiera": "Pompe Bianche", "Tipo impianto": "Altro", "Indirizzo": "VIA NAZIONALE APPIA KM 5+350 SNC 81050", "Nome impianto": "3P OIL DISTIBUTORE CARBURANTI", "Comune": "SAN TAMMARO", "idImpianto": 49354, "points": [{"type": "Feature", "properties": {}, "geometry": {"type": "Point", "coordinates": [14.23487031586474, 41.05465043647626]}}], "price": 2.099, "ultima_rilevazione": "01/07/2022 11:08:29"}, {"Gestore": "NAPOLETANO GENNARO", "Bandiera": "Agip Eni", "Tipo impianto": "Altro", "Indirizzo": "via unita' italiana 1 81100", "Nome impianto": "Ditta Napoletano Gennaro", "Comune": "CASERTA", "idImpianto": 49793, "points": [{"type": "Feature", "properties": {}, "geometry": {"type": "Point", "coordinates": [14.341587872352584, 41.0724436028885]}}], "price": 1.974, "ultima_rilevazione": "20/07/2022 09:18:41"}, {"Gestore": "D.G. CARBURANTI s.a.s.", "Bandiera": "Q8", "Tipo impianto": "Autostradale", "Indirizzo": "A1 MILANO-NAPOLI, Km. 737+200, Nord 81020", "Nome impianto": "S.NICOLA OVEST", "Comune": "SAN NICOLA LA STRADA", "idImpianto": 3654, "points": [{"type": "Feature", "properties": {}, "geometry": {"type": "Point", "coordinates": [14.321995675563812, 41.04918429607012]}}], "price": 2.028, "ultima_rilevazione": "22/07/2022 07:30:08"}, {"Gestore": "LOGI-CA S.R.L.", "Bandiera": "Pompe Bianche", "Tipo impianto": "Altro", "Indirizzo": "SP 325 VIA L. FUCCIA SNC 81025", "Nome impianto": "CPM", "Comune": "MARCIANISE", "idImpianto": 35389, "points": [{"type": "Feature", "properties": {}, "geometry": {"type": "Point", "coordinates": [14.26644881974994, 41.03678309275059]}}], "price": 1.928, "ultima_rilevazione": "22/07/2022 15:00:07"}, {"Gestore": "SERVIZI & GESTIONI ITALIA srl", "Bandiera": "Q8", "Tipo impianto": "Altro", "Indirizzo": "VIA MARTIN LUTER KING STAZ.Q8 SNC 81025", "Nome impianto": "MARCIANISE VIA MARTIN LUTER KING STAZ.Q8", "Comune": "MARCIANISE", "idImpianto": 6720, "points": [{"type": "Feature", "properties": {}, "geometry": {"type": "Point", "coordinates": [14.283066193254058, 41.03287474303295]}}], "price": 1.898, "ultima_rilevazione": "25/07/2022 00:38:50"}, {"Gestore": "ZARRILLO SERVICE S.A.S. DI GIOVANNI ZARRILLO & C.", "Bandiera": "Agip Eni", "Tipo impianto": "Altro", "Indirizzo": "VIA RETELLA 22 81020", "Nome impianto": "AGIP", "Comune": "CAPODRISE", "idImpianto": 20072, "points": [{"type": "Feature", "properties": {}, "geometry": {"type": "Point", "coordinates": [14.308586387731566, 41.04346465733506]}}], "price": 1.839, "ultima_rilevazione": "26/07/2022 08:43:59"}, {"Gestore": "AMOIL S.R.L.", "Bandiera": "Esso", "Tipo impianto": "Altro", "Indirizzo": "VIA FERRARECCE,88 88 81100", "Nome impianto": "AMOIL SRL", "Comune": "CASERTA", "idImpianto": 47146, "points": [{"type": "Feature", "properties": {}, "geometry": {"type": "Point", "coordinates": [14.337592000123, 41.066280000123]}}], "price": 1.859, "ultima_rilevazione": "26/07/2022 09:10:49"}, {"Gestore": "A.G. OIL SAS DI GOLINO GIOVANNI & C.", "Bandiera": "Esso", "Tipo impianto": "Altro", "Indirizzo": " S.S. 265 KM 34+657 SNC 81025", "Nome impianto": "A.G.OIL", "Comune": "MARCIANISE", "idImpianto": 23464, "points": [{"type": "Feature", "properties": {}, "geometry": {"type": "Point", "coordinates": [14.27826754470516, 41.03726769989665]}}], "price": 1.896, "ultima_rilevazione": "26/07/2022 11:04:16"}, {"Gestore": "TRAGEN S.R.L.", "Bandiera": "Gaffoil", "Tipo impianto": "Altro", "Indirizzo": "VIA APPIA KM.212+145 SNC 81100", "Nome impianto": "GAFFOIL", "Comune": "CASERTA", "idImpianto": 36339, "points": [{"type": "Feature", "properties": {}, "geometry": {"type": "Point", "coordinates": [14.318331778049467, 41.07245102254358]}}], "price": 1.873, "ultima_rilevazione": "26/07/2022 19:12:59"}, {"Gestore": "SERVICE CAR S.A.S. DI GENNARO DI GIACOMO & C.", "Bandiera": "Api-Ip", "Tipo impianto": "Altro", "Indirizzo": "VIA SAN LEUCIO 27 81100", "Nome impianto": "stazione di servizio IP", "Comune": "CASERTA", "idImpianto": 45753, "points": [{"type": "Feature", "properties": {}, "geometry": {"type": "Point", "coordinates": [14.318686515714605, 41.088686734403474]}}], "price": 1.839, "ultima_rilevazione": "27/07/2022 08:08:15"}, {"Gestore": "LUNAS SERVICE S.R.L.", "Bandiera": "Pompe Bianche", "Tipo impianto": "Strada Statale", "Indirizzo": "7 Via Appia, Km. 125, ROMA 81050", "Nome impianto": "GT FUEL ", "Comune": "SAN TAMMARO", "idImpianto": 48561, "points": [{"type": "Feature", "properties": {}, "geometry": {"type": "Point", "coordinates": [14.221242364418014, 41.09115029565969]}}], "price": 1.999, "ultima_rilevazione": "27/07/2022 09:46:29"}, {"Gestore": "PAPALE LUIGI & FIGLI S.A.S. DI PAPALE LUIGI", "Bandiera": "Api-Ip", "Tipo impianto": "Altro", "Indirizzo": "Via Giorgio LA Pira  81100", "Nome impianto": "Area di Servizio \"API IP\" Papale Luigi e Figli S.r.l", "Comune": "CASERTA", "idImpianto": 47287, "points": [{"type": "Feature", "properties": {}, "geometry": {"type": "Point", "coordinates": [14.339781906745923, 41.08792091365572]}}], "price": 1.869, "ultima_rilevazione": "27/07/2022 12:41:02"}, {"Gestore": "Borgheseservicesrl", "Bandiera": "Agip Eni", "Tipo impianto": "Autostradale", "Indirizzo": "Autostrada A1 MILANO-NAPOLI, Km. 737+200, dir. Sud ", "Nome impianto": "S.NICOLA EST", "Comune": "SAN NICOLA LA STRADA", "idImpianto": 3668, "points": [{"type": "Feature", "properties": {}, "geometry": {"type": "Point", "coordinates": [14.322657899475075, 41.05014665284766]}}], "price": 1.969, "ultima_rilevazione": "27/07/2022 14:34:09"}, {"Gestore": "PENTA PETROLI SRL", "Bandiera": "Pompe Bianche", "Tipo impianto": "Altro", "Indirizzo": "VIA LIBERTA' SNC 81043", "Nome impianto": "EWA POINT SANT'ANGELO IN FORMIS", "Comune": "CAPUA", "idImpianto": 30088, "points": [{"type": "Feature", "properties": {}, "geometry": {"type": "Point", "coordinates": [14.25141267478466, 41.108728933244]}}], "price": 1.889, "ultima_rilevazione": "27/07/2022 15:24:47"}, {"Gestore": "CARBURANTI S.A.S. DI RAZZANO MICHELE E C.", "Bandiera": "Agip Eni", "Tipo impianto": "Altro", "Indirizzo": "VIA KENNEDY SNC 81025", "Nome impianto": "stazione eni 18451", "Comune": "MARCIANISE", "idImpianto": 19453, "points": [{"type": "Feature", "properties": {}, "geometry": {"type": "Point", "coordinates": [14.296415448188782, 41.02668898643588]}}], "price": 1.829, "ultima_rilevazione": "28/07/2022 08:20:14"}, {"Gestore": "MAINA LUIGI", "Bandiera": "Api-Ip", "Tipo impianto": "Altro", "Indirizzo": "via martin lutherking  81025", "Nome impianto": "STAZIONE DI SERVIZIO IP di LUIGI MAINA", "Comune": "MARCIANISE", "idImpianto": 42695, "points": [{"type": "Feature", "properties": {}, "geometry": {"type": "Point", "coordinates": [14.28268969403564, 41.03636633464852]}}], "price": 1.889, "ultima_rilevazione": "28/07/2022 08:33:23"}, {"Gestore": "IP SERVICES S.R.L.", "Bandiera": "Api-Ip", "Tipo impianto": "Altro", "Indirizzo": "Strada Statale 7 bis Km. 7+009  81055", "Nome impianto": "SANTA MARIA CAPUA VETERE", "Comune": "SANTA MARIA CAPUA VETERE", "idImpianto": 12082, "points": [{"type": "Feature", "properties": {}, "geometry": {"type": "Point", "coordinates": [14.23716276884079, 41.04014145465692]}}], "price": 1.799, "ultima_rilevazione": "28/07/2022 09:03:59"}, {"Gestore": "T.D.M. S.R.L.", "Bandiera": "Tamoil", "Tipo impianto": "Altro", "Indirizzo": "VIA APPIA EX VIA POLVERIERA  81100", "Nome impianto": "4653", "Comune": "CASERTA", "idImpianto": 45910, "points": [{"type": "Feature", "properties": {}, "geometry": {"type": "Point", "coordinates": [14.321672457672094, 41.058777624828885]}}], "price": 1.849, "ultima_rilevazione": "29/07/2022 07:52:11"}, {"Gestore": "ZARRILLO LUIGI", "Bandiera": "Api-Ip", "Tipo impianto": "Altro", "Indirizzo": "via R.MUSONE 75 81025", "Nome impianto": "totalerg", "Comune": "MARCIANISE", "idImpianto": 15099, "points": [{"type": "Feature", "properties": {}, "geometry": {"type": "Point", "coordinates": [14.303971230983734, 41.03724073375078]}}], "price": 1.849, "ultima_rilevazione": "28/07/2022 13:27:19"}, {"Gestore": "CAVASO DANIELE", "Bandiera": "Agip Eni", "Tipo impianto": "Altro", "Indirizzo": "VIALE EUROPA 16 81025", "Nome impianto": "autostazione eni di cavaso daniele", "Comune": "MARCIANISE", "idImpianto": 31479, "points": [{"type": "Feature", "properties": {}, "geometry": {"type": "Point", "coordinates": [14.313824325799942, 41.03707989355365]}}], "price": 1.834, "ultima_rilevazione": "28/07/2022 14:46:44"}, {"Gestore": "EGI-2GO S.R.L.", "Bandiera": "Esso", "Tipo impianto": "Altro", "Indirizzo": "VIA VITTORIO VENETO 5 81100", "Nome impianto": "Caserta", "Comune": "CASERTA", "idImpianto": 47999, "points": [{"type": "Feature", "properties": {}, "geometry": {"type": "Point", "coordinates": [14.330476294477451, 41.07012871403312]}}], "price": 1.959, "ultima_rilevazione": "28/07/2022 17:54:54"}, {"Gestore": "PAPALE LUIGI & FIGLI S.A.S. DI PAPALE LUIGI", "Bandiera": "Esso", "Tipo impianto": "Altro", "Indirizzo": "Via San Tammaro 245 81043", "Nome impianto": "Area di Servizio \"ESSO\" Papale Luigi & Figli S.r.l.(Capua)", "Comune": "CAPUA", "idImpianto": 44814, "points": [{"type": "Feature", "properties": {}, "geometry": {"type": "Point", "coordinates": [14.219315555688354, 41.0939443531601]}}], "price": 1.839, "ultima_rilevazione": "28/07/2022 21:32:36"}, {"Gestore": "GESTIONE ITALIA SOCIETA' A RESPONSABILITA' LIMITATA", "Bandiera": "ALIFUEL", "Tipo impianto": "Altro", "Indirizzo": "Via S.P. Galatina Snc 81055", "Nome impianto": "ALI FUEL - SANTA MARIA CAPUA VETERE", "Comune": "SANTA MARIA CAPUA VETERE", "idImpianto": 41007, "points": [{"type": "Feature", "properties": {}, "geometry": {"type": "Point", "coordinates": [14.252582617057785, 41.10154144233076]}}], "price": 1.859, "ultima_rilevazione": "29/07/2022 06:10:12"}, {"Gestore": "MONTE DI IGNAZIO E DOMENICO MONTE S.N.C.", "Bandiera": "Agip Eni", "Tipo impianto": "Altro", "Indirizzo": "VIA TESCIONE 89 81100", "Nome impianto": "ENI", "Comune": "CASERTA", "idImpianto": 50074, "points": [{"type": "Feature", "properties": {}, "geometry": {"type": "Point", "coordinates": [14.331007377246124, 41.08518460756699]}}], "price": 1.854, "ultima_rilevazione": "29/07/2022 07:28:10"}, {"Gestore": "ENI FUEL S.P.A.", "Bandiera": "Agip Eni", "Tipo impianto": "Altro", "Indirizzo": "V.le della Libert\u00e0, Cavalcavia SNC 81100", "Nome impianto": "CASERTA", "Comune": "CASERTA", "idImpianto": 5447, "points": [{"type": "Feature", "properties": {}, "geometry": {"type": "Point", "coordinates": [14.32765362532598, 41.066684732453815]}}], "price": 1.854, "ultima_rilevazione": "29/07/2022 07:00:07"}, {"Gestore": "TOIL S.P.A.", "Bandiera": "Toil", "Tipo impianto": "Altro", "Indirizzo": "Viale Gramsci - localit\u00e0 Ercole snc 81100", "Nome impianto": "TOIL CASERTA", "Comune": "CASERTA", "idImpianto": 45113, "points": [{"type": "Feature", "properties": {}, "geometry": {"type": "Point", "coordinates": [14.318812538213136, 41.08432147003239]}}], "price": 1.834, "ultima_rilevazione": "29/07/2022 00:20:09"}, {"Gestore": "ENI FUEL S.P.A.", "Bandiera": "Agip Eni", "Tipo impianto": "Altro", "Indirizzo": "SS 87 Km 22 + 200 Viale Carlo III di Borbone  81020", "Nome impianto": "08488 \u2013 San Nicola La Strada", "Comune": "SAN NICOLA LA STRADA", "idImpianto": 50779, "points": [{"type": "Feature", "properties": {}, "geometry": {"type": "Point", "coordinates": [14.325036980839512, 41.03896202319381]}}], "price": 1.854, "ultima_rilevazione": "29/07/2022 07:26:08"}]}, "null": {}, "GPL": {"1": [{"Gestore": "EDILIZIA MACERATESE S.R.L. -  DI D'ALBORE ANTONIO", "Bandiera": "Pompe Bianche", "Tipo impianto": "Altro", "Indirizzo": "VIA SAN LORENZO 37 81047", "Nome impianto": "EM PETROLI", "Comune": "MACERATA CAMPANIA", "idImpianto": 35110, "points": [{"type": "Feature", "properties": {}, "geometry": {"type": "Point", "coordinates": [14.290562868118286, 41.06658961224053]}}], "price": 0.789, "ultima_rilevazione": "25/07/2022 05:54:49"}], "3": [{"Gestore": "MARZIA PETROLI S.R.L.", "Bandiera": "Pompe Bianche", "Tipo impianto": "Altro", "Indirizzo": "STRADA PROV.13 AVERSA-S.M.C.V. SNC 81055", "Nome impianto": "Marzia petroli Srl", "Comune": "SANTA MARIA CAPUA VETERE", "idImpianto": 49641, "points": [{"type": "Feature", "properties": {}, "geometry": {"type": "Point", "coordinates": [14.2486145133258, 41.05670764550968]}}], "price": 0.718, "ultima_rilevazione": "25/07/2022 13:01:32"}, {"Gestore": "GALLO PETROLI SOCIETA' SEMPLIFICATA A RESPONSABILITA' LIMITATA", "Bandiera": "Pompe Bianche", "Tipo impianto": "Altro", "Indirizzo": "STRADA PROVINCIALE 341 EX S.S 7 BIS  SNC 81055", "Nome impianto": "GALLO PETROLI SRLS", "Comune": "SANTA MARIA CAPUA VETERE", "idImpianto": 28474, "points": [{"type": "Feature", "properties": {}, "geometry": {"type": "Point", "coordinates": [14.231438934803007, 41.06451152309192]}}], "price": 0.779, "ultima_rilevazione": "27/07/2022 07:34:40"}, {"Gestore": "PENTA PETROLI SRL", "Bandiera": "Pompe Bianche", "Tipo impianto": "Altro", "Indirizzo": "VIA GIOVANNI PAOLO 1\u00b0 SNC 81055", "Nome impianto": "EWA SANTA MARIA CAPUA VETERE", "Comune": "SANTA MARIA CAPUA VETERE", "idImpianto": 29981, "points": [{"type": "Feature", "properties": {}, "geometry": {"type": "Point", "coordinates": [14.265140891075134, 41.08839587883899]}}], "price": 0.729, "ultima_rilevazione": "27/07/2022 12:15:30"}, {"Gestore": "ENRICO MASTROIANNI CARBURANTI SRL", "Bandiera": "Q8", "Tipo impianto": "Altro", "Indirizzo": "VIA CIMITERO  81026", "Nome impianto": "AREA DI SERVIZIO Q8 RECALE", "Comune": "RECALE", "idImpianto": 15629, "points": [{"type": "Feature", "properties": {}, "geometry": {"type": "Point", "coordinates": [14.307212680578232, 41.05101245700886]}}], "price": 0.779, "ultima_rilevazione": "27/07/2022 18:08:19"}, {"Gestore": "PULIAUTO SRL", "Bandiera": "Q8", "Tipo impianto": "Altro", "Indirizzo": "VIA PONTESELICE SNC 81022", "Nome impianto": "IMPIANTO PONTESELICE", "Comune": "CASAGIOVE", "idImpianto": 44419, "points": [{"type": "Feature", "properties": {}, "geometry": {"type": "Point", "coordinates": [14.313999000123, 41.066265000123]}}], "price": 0.779, "ultima_rilevazione": "27/07/2022 18:55:25"}, {"Gestore": "VERNAGAS GROUP S.R.L.", "Bandiera": "Pompe Bianche", "Tipo impianto": "Altro", "Indirizzo": "VIA DELLE LENZE 1 81022", "Nome impianto": "VERNAGAS GROUP S.R.L.", "Comune": "CASAGIOVE", "idImpianto": 19552, "points": [{"type": "Feature", "properties": {}, "geometry": {"type": "Point", "coordinates": [14.300569467475952, 41.0774549159528]}}], "price": 0.779, "ultima_rilevazione": "28/07/2022 11:11:41"}, {"Gestore": "EASY SERVICE S.R.L.", "Bandiera": "Energas", "Tipo impianto": "Altro", "Indirizzo": "ss 7 bis direzione Aversa SNC 81050", "Nome impianto": "Easy Service San Tammaro ", "Comune": "SAN TAMMARO", "idImpianto": 38681, "points": [{"type": "Feature", "properties": {}, "geometry": {"type": "Point", "coordinates": [14.23144429922104, 41.06457138328052]}}], "price": 0.779, "ultima_rilevazione": "28/07/2022 19:26:14"}], "5": [{"Gestore": "LOGI-CA S.R.L.", "Bandiera": "Pompe Bianche", "Tipo impianto": "Altro", "Indirizzo": "SP 325 VIA L. FUCCIA SNC 81025", "Nome impianto": "CPM", "Comune": "MARCIANISE", "idImpianto": 35389, "points": [{"type": "Feature", "properties": {}, "geometry": {"type": "Point", "coordinates": [14.26644881974994, 41.03678309275059]}}], "price": 0.748, "ultima_rilevazione": "22/07/2022 15:00:07"}, {"Gestore": "ECO TRADING AREA S.R.L. - DISTRIBUZIONE CARBURANTI ECOLOGICI", "Bandiera": "Pompe Bianche", "Tipo impianto": "Altro", "Indirizzo": "STRADA STATALE 7 BIS KM.7+600   81025", "Nome impianto": "ECO TRADING AREA SRL", "Comune": "MARCIANISE", "idImpianto": 14041, "points": [{"type": "Feature", "properties": {}, "geometry": {"type": "Point", "coordinates": [14.23416405916214, 41.03471337292775]}}], "price": 0.779, "ultima_rilevazione": "25/07/2022 10:44:42"}, {"Gestore": "SERVICE CAR S.A.S. DI GENNARO DI GIACOMO & C.", "Bandiera": "Api-Ip", "Tipo impianto": "Altro", "Indirizzo": "VIA SAN LEUCIO 27 81100", "Nome impianto": "stazione di servizio IP", "Comune": "CASERTA", "idImpianto": 45753, "points": [{"type": "Feature", "properties": {}, "geometry": {"type": "Point", "coordinates": [14.318686515714605, 41.088686734403474]}}], "price": 0.78, "ultima_rilevazione": "27/07/2022 08:08:15"}, {"Gestore": "PAPALE LUIGI & FIGLI S.A.S. DI PAPALE LUIGI", "Bandiera": "Api-Ip", "Tipo impianto": "Altro", "Indirizzo": "Via Giorgio LA Pira  81100", "Nome impianto": "Area di Servizio \"API IP\" Papale Luigi e Figli S.r.l", "Comune": "CASERTA", "idImpianto": 47287, "points": [{"type": "Feature", "properties": {}, "geometry": {"type": "Point", "coordinates": [14.339781906745923, 41.08792091365572]}}], "price": 0.78, "ultima_rilevazione": "27/07/2022 12:41:02"}, {"Gestore": "Borgheseservicesrl", "Bandiera": "Agip Eni", "Tipo impianto": "Autostradale", "Indirizzo": "Autostrada A1 MILANO-NAPOLI, Km. 737+200, dir. Sud ", "Nome impianto": "S.NICOLA EST", "Comune": "SAN NICOLA LA STRADA", "idImpianto": 3668, "points": [{"type": "Feature", "properties": {}, "geometry": {"type": "Point", "coordinates": [14.322657899475075, 41.05014665284766]}}], "price": 0.959, "ultima_rilevazione": "27/07/2022 14:34:09"}, {"Gestore": "PAPALE LUIGI & FIGLI S.A.S. DI PAPALE LUIGI", "Bandiera": "Esso", "Tipo impianto": "Altro", "Indirizzo": "Via San Tammaro 245 81043", "Nome impianto": "Area di Servizio \"ESSO\" Papale Luigi & Figli S.r.l.(Capua)", "Comune": "CAPUA", "idImpianto": 44814, "points": [{"type": "Feature", "properties": {}, "geometry": {"type": "Point", "coordinates": [14.219315555688354, 41.0939443531601]}}], "price": 0.779, "ultima_rilevazione": "28/07/2022 21:32:36"}, {"Gestore": "TOIL S.P.A.", "Bandiera": "Toil", "Tipo impianto": "Altro", "Indirizzo": "Viale Gramsci - localit\u00e0 Ercole snc 81100", "Nome impianto": "TOIL CASERTA", "Comune": "CASERTA", "idImpianto": 45113, "points": [{"type": "Feature", "properties": {}, "geometry": {"type": "Point", "coordinates": [14.318812538213136, 41.08432147003239]}}], "price": 0.779, "ultima_rilevazione": "29/07/2022 00:20:09"}, {"Gestore": "GESTIONE ITALIA SOCIETA' A RESPONSABILITA' LIMITATA", "Bandiera": "ALIFUEL", "Tipo impianto": "Altro", "Indirizzo": "Via S.P. Galatina Snc 81055", "Nome impianto": "ALI FUEL - SANTA MARIA CAPUA VETERE", "Comune": "SANTA MARIA CAPUA VETERE", "idImpianto": 41007, "points": [{"type": "Feature", "properties": {}, "geometry": {"type": "Point", "coordinates": [14.252582617057785, 41.10154144233076]}}], "price": 0.759, "ultima_rilevazione": "29/07/2022 06:10:12"}]}, "Gasolio": {"1": [{"Gestore": "LETIZIA GIUSEPPE", "Bandiera": "Api-Ip", "Tipo impianto": "Altro", "Indirizzo": "via nazionale appia km 209.500  81020", "Nome impianto": "totalerg", "Comune": "CASAPULLA", "idImpianto": 15340, "points": [{"type": "Feature", "properties": {}, "geometry": {"type": "Point", "coordinates": [14.287334829568865, 41.07420331818706]}}], "price": 2.229, "ultima_rilevazione": "29/07/2022 07:05:46"}, {"Gestore": "ANGELUCCI PASQUALE", "Bandiera": "Agip Eni", "Tipo impianto": "Strada Statale", "Indirizzo": "Statale 7 Via Appia, Km. 207+600, dir. sud 81055", "Nome impianto": "ENI", "Comune": "SANTA MARIA CAPUA VETERE", "idImpianto": 4240, "points": [{"type": "Feature", "properties": {}, "geometry": {"type": "Point", "coordinates": [14.266664385795591, 41.08146111804406]}}], "price": 1.759, "ultima_rilevazione": "10/04/2022 09:28:36"}, {"Gestore": "F.D.M. CARBURANTI SRL SEMPLIFICATA", "Bandiera": "Pompe Bianche", "Tipo impianto": "Altro", "Indirizzo": "VIA MARTIRI DI CEFALONIA SP126 23 81047", "Nome impianto": "F.D.M. CARBURANTI SRLS", "Comune": "MACERATA CAMPANIA", "idImpianto": 45148, "points": [{"type": "Feature", "properties": {}, "geometry": {"type": "Point", "coordinates": [14.282564000123, 41.063480000123]}}], "price": 1.929, "ultima_rilevazione": "14/07/2022 12:00:34"}, {"Gestore": "CANTELLI RAFFAELE", "Bandiera": "Pompe Bianche", "Tipo impianto": "Altro", "Indirizzo": "via Ventriglia 70 81040", "Nome impianto": "IPERFUEL di Cantelli Raffaele (CURTI)", "Comune": "CURTI", "idImpianto": 41620, "points": [{"type": "Feature", "properties": {}, "geometry": {"type": "Point", "coordinates": [14.27390232682228, 41.07433454640584]}}], "price": 1.868, "ultima_rilevazione": "25/07/2022 11:51:54"}, {"Gestore": "SYNERGY S.R.L.", "Bandiera": "Pompe Bianche", "Tipo impianto": "Altro", "Indirizzo": "VIA GIUSEPPE GARIBALDI  65 81047", "Nome impianto": "MACERATA CAMPANIA ", "Comune": "MACERATA CAMPANIA", "idImpianto": 48770, "points": [{"type": "Feature", "properties": {}, "geometry": {"type": "Point", "coordinates": [14.279971647238726, 41.06661528614261]}}], "price": 1.829, "ultima_rilevazione": "27/07/2022 11:13:53"}, {"Gestore": "TRAGEN S.R.L.", "Bandiera": "Gaffoil", "Tipo impianto": "Altro", "Indirizzo": "Via Nazionale Appia Km 208+50  81040", "Nome impianto": "Gaffoil Curti", "Comune": "CURTI", "idImpianto": 19199, "points": [{"type": "Feature", "properties": {}, "geometry": {"type": "Point", "coordinates": [14.27840106189251, 41.07818432957283]}}], "price": 1.845, "ultima_rilevazione": "27/07/2022 16:07:42"}], "3": [{"Gestore": "PEDICINI ROBERTO", "Bandiera": "Agip Eni", "Tipo impianto": "Strada Statale", "Indirizzo": "Statale 7 Via Appia, Km. 211+430, dir. NORD", "Nome impianto": "ENI ROBERTO PEDICINI", "Comune": "CASAGIOVE", "idImpianto": 17892, "points": [{"type": "Feature", "properties": {}, "geometry": {"type": "Point", "coordinates": [14.309885501861572, 41.07324649694152]}}], "price": 2.009, "ultima_rilevazione": "17/06/2022 15:56:57"}, {"Gestore": "CUTILLO TERESA", "Bandiera": "Api-Ip", "Tipo impianto": "Altro", "Indirizzo": "S.S. 7 Appia  81022", "Nome impianto": "Stazione di Servizio IP Cutillo", "Comune": "CASAGIOVE", "idImpianto": 47366, "points": [{"type": "Feature", "properties": {}, "geometry": {"type": "Point", "coordinates": [14.313786664723883, 41.0730147251997]}}], "price": 1.929, "ultima_rilevazione": "19/07/2022 14:23:54"}, {"Gestore": "VASTANO TIZIANA", "Bandiera": "Api-Ip", "Tipo impianto": "Altro", "Indirizzo": "VIA A. VOLTA 71 81050", "Nome impianto": "STAZIONE SERVIZIO VASTANO TIZIANA", "Comune": "PORTICO DI CASERTA", "idImpianto": 39037, "points": [{"type": "Feature", "properties": {}, "geometry": {"type": "Point", "coordinates": [14.282515317790969, 41.05911433943689]}}], "price": 1.859, "ultima_rilevazione": "22/07/2022 16:08:12"}, {"Gestore": "SERVIZI & GESTIONI ITALIA S.R.L.", "Bandiera": "Q8", "Tipo impianto": "Altro", "Indirizzo": "SS 7 KM. 210+326  81020", "Nome impianto": "SS 7 KM. 210+326 -  CASAPULLA", "Comune": "CASAPULLA", "idImpianto": 28275, "points": [{"type": "Feature", "properties": {}, "geometry": {"type": "Point", "coordinates": [14.296932655889124, 41.07349818008677]}}], "price": 1.858, "ultima_rilevazione": "25/07/2022 00:38:52"}, {"Gestore": "MARZIA PETROLI S.R.L.", "Bandiera": "Pompe Bianche", "Tipo impianto": "Altro", "Indirizzo": "STRADA PROV.13 AVERSA-S.M.C.V. SNC 81055", "Nome impianto": "Marzia petroli Srl", "Comune": "SANTA MARIA CAPUA VETERE", "idImpianto": 49641, "points": [{"type": "Feature", "properties": {}, "geometry": {"type": "Point", "coordinates": [14.2486145133258, 41.05670764550968]}}], "price": 1.748, "ultima_rilevazione": "25/07/2022 13:01:32"}, {"Gestore": "SR FUEL DI VINCENZO RAIA", "Bandiera": "Pompe Bianche", "Tipo impianto": "Altro", "Indirizzo": "VIA ROMA 156 81020", "Nome impianto": "SPFUEL", "Comune": "RECALE", "idImpianto": 48385, "points": [{"type": "Feature", "properties": {}, "geometry": {"type": "Point", "coordinates": [14.307806057692076, 41.06477539109586]}}], "price": 1.819, "ultima_rilevazione": "25/07/2022 17:17:56"}, {"Gestore": "CAIAZZO ANTONIO", "Bandiera": "Api-Ip", "Tipo impianto": "Altro", "Indirizzo": "VIA DEL LAVORO 168 80133", "Nome impianto": "TOTAL ERG", "Comune": "SANTA MARIA CAPUA VETERE", "idImpianto": 43034, "points": [{"type": "Feature", "properties": {}, "geometry": {"type": "Point", "coordinates": [14.241968000000044, 41.08806602158177]}}], "price": 1.839, "ultima_rilevazione": "26/07/2022 15:52:11"}, {"Gestore": "DITTA COPPOLA GIUSEPPE", "Bandiera": "Agip Eni", "Tipo impianto": "Altro", "Indirizzo": "VIA DEL LAVORO 164 81055", "Nome impianto": "self area agip e autolavaggio", "Comune": "SANTA MARIA CAPUA VETERE", "idImpianto": 15028, "points": [{"type": "Feature", "properties": {}, "geometry": {"type": "Point", "coordinates": [14.241987692590328, 41.08806718113692]}}], "price": 1.844, "ultima_rilevazione": "26/07/2022 16:59:41"}, {"Gestore": "GALLO PETROLI SOCIETA' SEMPLIFICATA A RESPONSABILITA' LIMITATA", "Bandiera": "Pompe Bianche", "Tipo impianto": "Altro", "Indirizzo": "STRADA PROVINCIALE 341 EX S.S 7 BIS  SNC 81055", "Nome impianto": "GALLO PETROLI SRLS", "Comune": "SANTA MARIA CAPUA VETERE", "idImpianto": 28474, "points": [{"type": "Feature", "properties": {}, "geometry": {"type": "Point", "coordinates": [14.231438934803007, 41.06451152309192]}}], "price": 1.779, "ultima_rilevazione": "27/07/2022 07:34:40"}, {"Gestore": "PENTA PETROLI SRL", "Bandiera": "Pompe Bianche", "Tipo impianto": "Altro", "Indirizzo": "VIA GIOVANNI PAOLO 1\u00b0 SNC 81055", "Nome impianto": "EWA SANTA MARIA CAPUA VETERE", "Comune": "SANTA MARIA CAPUA VETERE", "idImpianto": 29981, "points": [{"type": "Feature", "properties": {}, "geometry": {"type": "Point", "coordinates": [14.265140891075134, 41.08839587883899]}}], "price": 1.844, "ultima_rilevazione": "27/07/2022 12:15:30"}, {"Gestore": "ITALIMPIANTI S.R.L.", "Bandiera": "Pompe Bianche", "Tipo impianto": "Altro", "Indirizzo": "VIA FRATELLI ROSSELLI 19 81050", "Nome impianto": " ITALIMPIANTI", "Comune": "PORTICO DI CASERTA", "idImpianto": 32676, "points": [{"type": "Feature", "properties": {}, "geometry": {"type": "Point", "coordinates": [14.28290730370486, 41.05008535954661]}}], "price": 1.82, "ultima_rilevazione": "27/07/2022 12:59:25"}, {"Gestore": "F.B. OIL S.A.S. DI ANGELO BONAVOLONTA' E C.", "Bandiera": "Api-Ip", "Tipo impianto": "Altro", "Indirizzo": "VIA GALATINA 167 81055", "Nome impianto": "Area Servizio IP F. B. OIL SAS ", "Comune": "SANTA MARIA CAPUA VETERE", "idImpianto": 46308, "points": [{"type": "Feature", "properties": {}, "geometry": {"type": "Point", "coordinates": [14.253548383712769, 41.08872936731931]}}], "price": 1.919, "ultima_rilevazione": "27/07/2022 13:32:25"}, {"Gestore": "TRAGEN S.R.L.", "Bandiera": "Gaffoil", "Tipo impianto": "Altro", "Indirizzo": "via anfiteatro  81055", "Nome impianto": "Gaffoil SMCV", "Comune": "SANTA MARIA CAPUA VETERE", "idImpianto": 14923, "points": [{"type": "Feature", "properties": {}, "geometry": {"type": "Point", "coordinates": [14.250153377652168, 41.08216226937119]}}], "price": 1.839, "ultima_rilevazione": "27/07/2022 15:49:45"}, {"Gestore": "TRAGEN S.R.L.", "Bandiera": "Gaffoil", "Tipo impianto": "Altro", "Indirizzo": "Via Ponteselice  81047", "Nome impianto": "Gaffoil Musicile", "Comune": "MACERATA CAMPANIA", "idImpianto": 20710, "points": [{"type": "Feature", "properties": {}, "geometry": {"type": "Point", "coordinates": [14.290934354066849, 41.05119854710766]}}], "price": 1.835, "ultima_rilevazione": "27/07/2022 16:04:37"}, {"Gestore": "ENRICO MASTROIANNI CARBURANTI SRL", "Bandiera": "Q8", "Tipo impianto": "Altro", "Indirizzo": "VIA CIMITERO  81026", "Nome impianto": "AREA DI SERVIZIO Q8 RECALE", "Comune": "RECALE", "idImpianto": 15629, "points": [{"type": "Feature", "properties": {}, "geometry": {"type": "Point", "coordinates": [14.307212680578232, 41.05101245700886]}}], "price": 1.859, "ultima_rilevazione": "27/07/2022 18:08:19"}, {"Gestore": "PULIAUTO SRL", "Bandiera": "Q8", "Tipo impianto": "Altro", "Indirizzo": "VIA PONTESELICE SNC 81022", "Nome impianto": "IMPIANTO PONTESELICE", "Comune": "CASAGIOVE", "idImpianto": 44419, "points": [{"type": "Feature", "properties": {}, "geometry": {"type": "Point", "coordinates": [14.313999000123, 41.066265000123]}}], "price": 1.923, "ultima_rilevazione": "27/07/2022 18:55:25"}, {"Gestore": "IP SERVICE S.R.L.", "Bandiera": "Esso", "Tipo impianto": "Altro", "Indirizzo": "via ponteselice snc 81020", "Nome impianto": "Stazione di Servizio Ip Service \"ESSO\" Capodrise", "Comune": "CAPODRISE", "idImpianto": 40332, "points": [{"type": "Feature", "properties": {}, "geometry": {"type": "Point", "coordinates": [14.293845891952516, 41.04964710591644]}}], "price": 1.829, "ultima_rilevazione": "28/07/2022 09:22:27"}, {"Gestore": "MARINO CLEMENTE", "Bandiera": "Esso", "Tipo impianto": "Altro", "Indirizzo": "VIA TIFATA SNC 81022", "Nome impianto": "STAZIONE DI SERVIZIO ESSO DI MARINO CLEMENTE", "Comune": "CASAGIOVE", "idImpianto": 32381, "points": [{"type": "Feature", "properties": {}, "geometry": {"type": "Point", "coordinates": [14.301366806030272, 41.08097427048457]}}], "price": 1.859, "ultima_rilevazione": "28/07/2022 10:00:31"}, {"Gestore": "EASY SERVICE S.R.L.", "Bandiera": "Energas", "Tipo impianto": "Altro", "Indirizzo": "ss 7 bis direzione Aversa SNC 81050", "Nome impianto": "Easy Service San Tammaro ", "Comune": "SAN TAMMARO", "idImpianto": 38681, "points": [{"type": "Feature", "properties": {}, "geometry": {"type": "Point", "coordinates": [14.23144429922104, 41.06457138328052]}}], "price": 1.789, "ultima_rilevazione": "28/07/2022 19:26:14"}, {"Gestore": "TAMOIL DI TROISE MICHELE", "Bandiera": "Tamoil", "Tipo impianto": "Altro", "Indirizzo": "VIA SAN GIOVANNI 2 81020", "Nome impianto": "TAMOIL", "Comune": "CASAPULLA", "idImpianto": 33281, "points": [{"type": "Feature", "properties": {}, "geometry": {"type": "Point", "coordinates": [14.298856258392334, 41.08484004039144]}}], "price": 1.858, "ultima_rilevazione": "29/07/2022 07:48:12"}], "5": [{"Gestore": "3P SOCIETA' A RESPONSABILITA' LIMITATA", "Bandiera": "Pompe Bianche", "Tipo impianto": "Altro", "Indirizzo": "VIA NAZIONALE APPIA KM 5+350 SNC 81050", "Nome impianto": "3P OIL DISTIBUTORE CARBURANTI", "Comune": "SAN TAMMARO", "idImpianto": 49354, "points": [{"type": "Feature", "properties": {}, "geometry": {"type": "Point", "coordinates": [14.23487031586474, 41.05465043647626]}}], "price": 1.999, "ultima_rilevazione": "01/07/2022 11:08:29"}, {"Gestore": "NAPOLETANO GENNARO", "Bandiera": "Agip Eni", "Tipo impianto": "Altro", "Indirizzo": "via unita' italiana 1 81100", "Nome impianto": "Ditta Napoletano Gennaro", "Comune": "CASERTA", "idImpianto": 49793, "points": [{"type": "Feature", "properties": {}, "geometry": {"type": "Point", "coordinates": [14.341587872352584, 41.0724436028885]}}], "price": 1.904, "ultima_rilevazione": "20/07/2022 09:18:41"}, {"Gestore": "D.G. CARBURANTI s.a.s.", "Bandiera": "Q8", "Tipo impianto": "Autostradale", "Indirizzo": "A1 MILANO-NAPOLI, Km. 737+200, Nord 81020", "Nome impianto": "S.NICOLA OVEST", "Comune": "SAN NICOLA LA STRADA", "idImpianto": 3654, "points": [{"type": "Feature", "properties": {}, "geometry": {"type": "Point", "coordinates": [14.321995675563812, 41.04918429607012]}}], "price": 1.999, "ultima_rilevazione": "22/07/2022 07:30:08"}, {"Gestore": "LOGI-CA S.R.L.", "Bandiera": "Pompe Bianche", "Tipo impianto": "Altro", "Indirizzo": "SP 325 VIA L. FUCCIA SNC 81025", "Nome impianto": "CPM", "Comune": "MARCIANISE", "idImpianto": 35389, "points": [{"type": "Feature", "properties": {}, "geometry": {"type": "Point", "coordinates": [14.26644881974994, 41.03678309275059]}}], "price": 1.898, "ultima_rilevazione": "22/07/2022 15:00:07"}, {"Gestore": "SERVIZI & GESTIONI ITALIA srl", "Bandiera": "Q8", "Tipo impianto": "Altro", "Indirizzo": "VIA MARTIN LUTER KING STAZ.Q8 SNC 81025", "Nome impianto": "MARCIANISE VIA MARTIN LUTER KING STAZ.Q8", "Comune": "MARCIANISE", "idImpianto": 6720, "points": [{"type": "Feature", "properties": {}, "geometry": {"type": "Point", "coordinates": [14.283066193254058, 41.03287474303295]}}], "price": 1.859, "ultima_rilevazione": "25/07/2022 00:38:50"}, {"Gestore": "ZARRILLO SERVICE S.A.S. DI GIOVANNI ZARRILLO & C.", "Bandiera": "Agip Eni", "Tipo impianto": "Altro", "Indirizzo": "VIA RETELLA 22 81020", "Nome impianto": "AGIP", "Comune": "CAPODRISE", "idImpianto": 20072, "points": [{"type": "Feature", "properties": {}, "geometry": {"type": "Point", "coordinates": [14.308586387731566, 41.04346465733506]}}], "price": 1.839, "ultima_rilevazione": "26/07/2022 08:43:59"}, {"Gestore": "AMOIL S.R.L.", "Bandiera": "Esso", "Tipo impianto": "Altro", "Indirizzo": "VIA FERRARECCE,88 88 81100", "Nome impianto": "AMOIL SRL", "Comune": "CASERTA", "idImpianto": 47146, "points": [{"type": "Feature", "properties": {}, "geometry": {"type": "Point", "coordinates": [14.337592000123, 41.066280000123]}}], "price": 1.839, "ultima_rilevazione": "26/07/2022 09:10:49"}, {"Gestore": "A.G. OIL SAS DI GOLINO GIOVANNI & C.", "Bandiera": "Esso", "Tipo impianto": "Altro", "Indirizzo": " S.S. 265 KM 34+657 SNC 81025", "Nome impianto": "A.G.OIL", "Comune": "MARCIANISE", "idImpianto": 23464, "points": [{"type": "Feature", "properties": {}, "geometry": {"type": "Point", "coordinates": [14.27826754470516, 41.03726769989665]}}], "price": 1.856, "ultima_rilevazione": "26/07/2022 11:04:16"}, {"Gestore": "TRAGEN S.R.L.", "Bandiera": "Gaffoil", "Tipo impianto": "Altro", "Indirizzo": "VIA APPIA KM.212+145 SNC 81100", "Nome impianto": "GAFFOIL", "Comune": "CASERTA", "idImpianto": 36339, "points": [{"type": "Feature", "properties": {}, "geometry": {"type": "Point", "coordinates": [14.318331778049467, 41.07245102254358]}}], "price": 1.845, "ultima_rilevazione": "26/07/2022 19:12:59"}, {"Gestore": "SERVICE CAR S.A.S. DI GENNARO DI GIACOMO & C.", "Bandiera": "Api-Ip", "Tipo impianto": "Altro", "Indirizzo": "VIA SAN LEUCIO 27 81100", "Nome impianto": "stazione di servizio IP", "Comune": "CASERTA", "idImpianto": 45753, "points": [{"type": "Feature", "properties": {}, "geometry": {"type": "Point", "coordinates": [14.318686515714605, 41.088686734403474]}}], "price": 1.869, "ultima_rilevazione": "27/07/2022 08:08:15"}, {"Gestore": "LUNAS SERVICE S.R.L.", "Bandiera": "Pompe Bianche", "Tipo impianto": "Strada Statale", "Indirizzo": "7 Via Appia, Km. 125, ROMA 81050", "Nome impianto": "GT FUEL ", "Comune": "SAN TAMMARO", "idImpianto": 48561, "points": [{"type": "Feature", "properties": {}, "geometry": {"type": "Point", "coordinates": [14.221242364418014, 41.09115029565969]}}], "price": 1.798, "ultima_rilevazione": "27/07/2022 09:46:29"}, {"Gestore": "PAPALE LUIGI & FIGLI S.A.S. DI PAPALE LUIGI", "Bandiera": "Api-Ip", "Tipo impianto": "Altro", "Indirizzo": "Via Giorgio LA Pira  81100", "Nome impianto": "Area di Servizio \"API IP\" Papale Luigi e Figli S.r.l", "Comune": "CASERTA", "idImpianto": 47287, "points": [{"type": "Feature", "properties": {}, "geometry": {"type": "Point", "coordinates": [14.339781906745923, 41.08792091365572]}}], "price": 1.829, "ultima_rilevazione": "27/07/2022 12:41:02"}, {"Gestore": "Borgheseservicesrl", "Bandiera": "Agip Eni", "Tipo impianto": "Autostradale", "Indirizzo": "Autostrada A1 MILANO-NAPOLI, Km. 737+200, dir. Sud ", "Nome impianto": "S.NICOLA EST", "Comune": "SAN NICOLA LA STRADA", "idImpianto": 3668, "points": [{"type": "Feature", "properties": {}, "geometry": {"type": "Point", "coordinates": [14.322657899475075, 41.05014665284766]}}], "price": 1.959, "ultima_rilevazione": "27/07/2022 14:34:09"}, {"Gestore": "PENTA PETROLI SRL", "Bandiera": "Pompe Bianche", "Tipo impianto": "Altro", "Indirizzo": "VIA LIBERTA' SNC 81043", "Nome impianto": "EWA POINT SANT'ANGELO IN FORMIS", "Comune": "CAPUA", "idImpianto": 30088, "points": [{"type": "Feature", "properties": {}, "geometry": {"type": "Point", "coordinates": [14.25141267478466, 41.108728933244]}}], "price": 1.844, "ultima_rilevazione": "27/07/2022 15:24:47"}, {"Gestore": "CARBURANTI S.A.S. DI RAZZANO MICHELE E C.", "Bandiera": "Agip Eni", "Tipo impianto": "Altro", "Indirizzo": "VIA KENNEDY SNC 81025", "Nome impianto": "stazione eni 18451", "Comune": "MARCIANISE", "idImpianto": 19453, "points": [{"type": "Feature", "properties": {}, "geometry": {"type": "Point", "coordinates": [14.296415448188782, 41.02668898643588]}}], "price": 1.839, "ultima_rilevazione": "28/07/2022 08:20:14"}, {"Gestore": "MAINA LUIGI", "Bandiera": "Api-Ip", "Tipo impianto": "Altro", "Indirizzo": "via martin lutherking  81025", "Nome impianto": "STAZIONE DI SERVIZIO IP di LUIGI MAINA", "Comune": "MARCIANISE", "idImpianto": 42695, "points": [{"type": "Feature", "properties": {}, "geometry": {"type": "Point", "coordinates": [14.28268969403564, 41.03636633464852]}}], "price": 1.839, "ultima_rilevazione": "28/07/2022 08:33:23"}, {"Gestore": "IP SERVICES S.R.L.", "Bandiera": "Api-Ip", "Tipo impianto": "Altro", "Indirizzo": "Strada Statale 7 bis Km. 7+009  81055", "Nome impianto": "SANTA MARIA CAPUA VETERE", "Comune": "SANTA MARIA CAPUA VETERE", "idImpianto": 12082, "points": [{"type": "Feature", "properties": {}, "geometry": {"type": "Point", "coordinates": [14.23716276884079, 41.04014145465692]}}], "price": 1.789, "ultima_rilevazione": "28/07/2022 09:03:59"}, {"Gestore": "T.D.M. S.R.L.", "Bandiera": "Tamoil", "Tipo impianto": "Altro", "Indirizzo": "VIA APPIA EX VIA POLVERIERA  81100", "Nome impianto": "4653", "Comune": "CASERTA", "idImpianto": 45910, "points": [{"type": "Feature", "properties": {}, "geometry": {"type": "Point", "coordinates": [14.321672457672094, 41.058777624828885]}}], "price": 1.819, "ultima_rilevazione": "29/07/2022 07:52:11"}, {"Gestore": "ZARRILLO LUIGI", "Bandiera": "Api-Ip", "Tipo impianto": "Altro", "Indirizzo": "via R.MUSONE 75 81025", "Nome impianto": "totalerg", "Comune": "MARCIANISE", "idImpianto": 15099, "points": [{"type": "Feature", "properties": {}, "geometry": {"type": "Point", "coordinates": [14.303971230983734, 41.03724073375078]}}], "price": 1.819, "ultima_rilevazione": "28/07/2022 13:27:19"}, {"Gestore": "CAVASO DANIELE", "Bandiera": "Agip Eni", "Tipo impianto": "Altro", "Indirizzo": "VIALE EUROPA 16 81025", "Nome impianto": "autostazione eni di cavaso daniele", "Comune": "MARCIANISE", "idImpianto": 31479, "points": [{"type": "Feature", "properties": {}, "geometry": {"type": "Point", "coordinates": [14.313824325799942, 41.03707989355365]}}], "price": 1.844, "ultima_rilevazione": "28/07/2022 14:46:44"}, {"Gestore": "EGI-2GO S.R.L.", "Bandiera": "Esso", "Tipo impianto": "Altro", "Indirizzo": "VIA VITTORIO VENETO 5 81100", "Nome impianto": "Caserta", "Comune": "CASERTA", "idImpianto": 47999, "points": [{"type": "Feature", "properties": {}, "geometry": {"type": "Point", "coordinates": [14.330476294477451, 41.07012871403312]}}], "price": 1.839, "ultima_rilevazione": "28/07/2022 17:54:54"}, {"Gestore": "PAPALE LUIGI & FIGLI S.A.S. DI PAPALE LUIGI", "Bandiera": "Esso", "Tipo impianto": "Altro", "Indirizzo": "Via San Tammaro 245 81043", "Nome impianto": "Area di Servizio \"ESSO\" Papale Luigi & Figli S.r.l.(Capua)", "Comune": "CAPUA", "idImpianto": 44814, "points": [{"type": "Feature", "properties": {}, "geometry": {"type": "Point", "coordinates": [14.219315555688354, 41.0939443531601]}}], "price": 1.819, "ultima_rilevazione": "28/07/2022 21:32:36"}, {"Gestore": "GESTIONE ITALIA SOCIETA' A RESPONSABILITA' LIMITATA", "Bandiera": "ALIFUEL", "Tipo impianto": "Altro", "Indirizzo": "Via S.P. Galatina Snc 81055", "Nome impianto": "ALI FUEL - SANTA MARIA CAPUA VETERE", "Comune": "SANTA MARIA CAPUA VETERE", "idImpianto": 41007, "points": [{"type": "Feature", "properties": {}, "geometry": {"type": "Point", "coordinates": [14.252582617057785, 41.10154144233076]}}], "price": 1.839, "ultima_rilevazione": "29/07/2022 06:10:12"}, {"Gestore": "MONTE DI IGNAZIO E DOMENICO MONTE S.N.C.", "Bandiera": "Agip Eni", "Tipo impianto": "Altro", "Indirizzo": "VIA TESCIONE 89 81100", "Nome impianto": "ENI", "Comune": "CASERTA", "idImpianto": 50074, "points": [{"type": "Feature", "properties": {}, "geometry": {"type": "Point", "coordinates": [14.331007377246124, 41.08518460756699]}}], "price": 1.844, "ultima_rilevazione": "29/07/2022 07:28:10"}, {"Gestore": "ENI FUEL S.P.A.", "Bandiera": "Agip Eni", "Tipo impianto": "Altro", "Indirizzo": "V.le della Libert\u00e0, Cavalcavia SNC 81100", "Nome impianto": "CASERTA", "Comune": "CASERTA", "idImpianto": 5447, "points": [{"type": "Feature", "properties": {}, "geometry": {"type": "Point", "coordinates": [14.32765362532598, 41.066684732453815]}}], "price": 1.844, "ultima_rilevazione": "29/07/2022 07:00:07"}, {"Gestore": "TOIL S.P.A.", "Bandiera": "Toil", "Tipo impianto": "Altro", "Indirizzo": "Viale Gramsci - localit\u00e0 Ercole snc 81100", "Nome impianto": "TOIL CASERTA", "Comune": "CASERTA", "idImpianto": 45113, "points": [{"type": "Feature", "properties": {}, "geometry": {"type": "Point", "coordinates": [14.318812538213136, 41.08432147003239]}}], "price": 1.855, "ultima_rilevazione": "29/07/2022 00:20:09"}, {"Gestore": "ENI FUEL S.P.A.", "Bandiera": "Agip Eni", "Tipo impianto": "Altro", "Indirizzo": "SS 87 Km 22 + 200 Viale Carlo III di Borbone  81020", "Nome impianto": "08488 \u2013 San Nicola La Strada", "Comune": "SAN NICOLA LA STRADA", "idImpianto": 50779, "points": [{"type": "Feature", "properties": {}, "geometry": {"type": "Point", "coordinates": [14.325036980839512, 41.03896202319381]}}], "price": 1.844, "ultima_rilevazione": "29/07/2022 07:26:08"}]}, "Metano": {"1": [], "3": [], "5": [{"Gestore": "Borgheseservicesrl", "Bandiera": "Agip Eni", "Tipo impianto": "Autostradale", "Indirizzo": "Autostrada A1 MILANO-NAPOLI, Km. 737+200, dir. Sud ", "Nome impianto": "S.NICOLA EST", "Comune": "SAN NICOLA LA STRADA", "idImpianto": 3668, "points": [{"type": "Feature", "properties": {}, "geometry": {"type": "Point", "coordinates": [14.322657899475075, 41.05014665284766]}}], "price": 2.438, "ultima_rilevazione": "27/07/2022 14:34:09"}]}}