{"area_comune": "[{\"type\": \"Feature\", \"properties\": {}, \"geometry\": {\"type\": \"Polygon\", \"coordinates\": [[[9.196685185736849, 45.56212706007502], [9.19734402850328, 45.56063496372827], [9.197935796149913, 45.555340690950544], [9.19451729264118, 45.54976009525365], [9.1925827578649, 45.54581240767967], [9.187196736327566, 45.546176344720784], [9.187182283125319, 45.54498342763837], [9.182374448522731, 45.54335446495444], [9.18062266006103, 45.54293468410073], [9.173708225754025, 45.543886925661454], [9.173942222963268, 45.54636851155522], [9.173823020236895, 45.54789523347912], [9.172750221173287, 45.55028836383561], [9.168163676190458, 45.555687654551335], [9.169275133190851, 45.55571552652619], [9.174123674476855, 45.556618271918495], [9.18607145953044, 45.559724015931735], [9.186092378598566, 45.56153785175089], [9.189917315552448, 45.561811512530575], [9.194344112196767, 45.56173604634466], [9.196685185736849, 45.56212706007502]]]}}]", "comune": "cusano-milanino", "buffer_1": "[{\"type\": \"Feature\", \"properties\": {}, \"geometry\": {\"type\": \"Polygon\", \"coordinates\": [[[9.192766045866536, 45.570696790556795], [9.193977783778427, 45.570924887809255], [9.19521547613058, 45.571068671283484], [9.196467257890951, 45.57112676260944], [9.197721128769283, 45.57109860490166], [9.198965068421819, 45.570984468104875], [9.20018715184954, 45.57078544640228], [9.201375663875758, 45.570503447711026], [9.20251921159806, 45.57014117536655], [9.203606833729516, 45.56970210217259], [9.204628105774791, 45.56919043706727], [9.205573240027805, 45.56861108472668], [9.206433179428585, 45.56796959849601], [9.207199684377233, 45.56727212710153], [9.207865411672085, 45.56652535565722], [9.208423984816196, 45.5657364415342], [9.208870055020647, 45.56491294571016], [9.209199352323834, 45.564062760259375], [9.209408726342025, 45.56319403268027], [9.20949617626698, 45.56231508778766], [9.209460869830487, 45.56143434791954], [9.20930315106198, 45.5605602522238], [9.205197189990287, 45.5442460546134], [9.204924318553658, 45.54340106571322], [9.204537097023001, 45.54257842689961], [9.204039118004182, 45.54178576013156], [9.203434999747975, 45.541030409359095], [9.202730343219226, 45.5403193725214], [9.201931680090635, 45.5396592367597], [9.201046412146882, 45.53905611744222], [9.200082742663229, 45.538515601564555], [9.199049600395579, 45.53804269604695], [9.197956556886137, 45.537641781405114], [9.196813737849267, 45.53731657122149], [9.195631729455688, 45.53707007779], [9.194421480379146, 45.536904584250706], [9.175549867581346, 45.534979398701864], [9.174278735193498, 45.5348948058151], [9.17300193540809, 45.534899567422535], [9.17173215171788, 45.534993636231924], [9.17048199802077, 45.53517607778288], [9.169263893490143, 45.535445079716304], [9.168089939365826, 45.53579796975322], [9.166971798881582, 45.536231242205396], [9.165920581514643, 45.536740592756274], [9.164946732701178, 45.537320961169065], [9.16405993010868, 45.537966581500065], [9.163268987492806, 45.5386710393216], [9.162581767092671, 45.53942733538878], [9.162005101435554, 45.54022795512085], [9.161544725330412, 45.54106494320965], [9.155997904559626, 45.55286509056265], [9.15566124513658, 45.55372067089946], [9.1554461676772, 45.554595387326835], [9.155354769477912, 45.555480733312045], [9.155387945247305, 45.556368098552845], [9.155545378179466, 45.55724885270724], [9.155825542808056, 45.5581144293339], [9.156225719622187, 45.55895640922626], [9.156742021310496, 45.55976660232958], [9.157369430386154, 45.56053712744231], [9.158101847833947, 45.561260488925434], [9.158932152312172, 45.561929649670894], [9.15985226933807, 45.56253809961713], [9.160853249786838, 45.5630799191422], [9.161925356941934, 45.563549836715225], [9.16305816124956, 45.563943280241986], [9.164240641853468, 45.56425642160266], [9.192766045866536, 45.570696790556795]]]}}]", "buffer_3": "[{\"type\": \"Feature\", \"properties\": {}, \"geometry\": {\"type\": \"Polygon\", \"coordinates\": [[[9.18492420030362, 45.58783581501654], [9.188560455741252, 45.58852031401202], [9.192274671122153, 45.58895179709701], [9.196031207777347, 45.589126124079534], [9.199794019229488, 45.589041622272454], [9.203526998555358, 45.588699102608786], [9.207194326339902, 45.58810185182388], [9.210760815811689, 45.587255600781475], [9.214192251779224, 45.58616846925371], [9.21745572005216, 45.584850887696376], [9.220519924130697, 45.58331549678493], [9.223355486078535, 45.58157702569399], [9.225935228658676, 45.57965215030962], [9.2282344360044, 45.57755933275816], [9.23023109031801, 45.57531864381512], [9.231906082334596, 45.57295156992272], [9.233243393553963, 45.57048080669019], [9.234230248528487, 45.56793004087921], [9.234857235793914, 45.56532372298459], [9.235118396341477, 45.56268683260599], [9.235011278849209, 45.56004463887261], [9.234536961214788, 45.557422458224174], [9.230423936431512, 45.54110917239926], [9.229604259911975, 45.53857438481713], [9.22844165083132, 45.53610671479624], [9.226946921893079, 45.533729019094004], [9.225133957085394, 45.53146331829361], [9.22301958181138, 45.52933059321601], [9.220623406042298, 45.5273505910385], [9.217967641981096, 45.52554164289656], [9.215076897948498, 45.52392049463756], [9.211977950411724, 45.522502152271315], [9.208699496265696, 45.5212997435268], [9.205271887647044, 45.520324396775365], [9.201726851710863, 45.51958513842129], [9.198097197928657, 45.51908880969167], [9.17923141983327, 45.51716421652398], [9.175419221548568, 45.51691051575244], [9.171590042163567, 45.51692479427748], [9.16778188383473, 45.517206910471664], [9.164032541010961, 45.5177540645255], [9.160379226913301, 45.5185608261148], [9.15685820566046, 45.51961918807009], [9.153504433618572, 45.52091864552661], [9.150351213469975, 45.52244629978514], [9.147429864380406, 45.524186985872625], [9.144769411497162, 45.526123422560204], [9.142396297833724, 45.52823638337475], [9.140334121390094, 45.530504886934], [9.13860340012409, 45.53290640474278], [9.137221367128848, 45.53541708441423], [9.131670007217501, 45.54721606744958], [9.130658991126317, 45.54978259369788], [9.130012619563528, 45.55240660320447], [9.129737228601034, 45.55506258180839], [9.129835548781427, 45.55772470092103], [9.130306676537675, 45.560367068623954], [9.131146080936784, 45.5629639815229], [9.132345645761223, 45.565490174906884], [9.133893746596026, 45.567921068772826], [9.13577536224382, 45.570233007311145], [9.137972219448233, 45.57240348950652], [9.140462969571587, 45.57441138859054], [9.143223395549459, 45.57623715818801], [9.146226647135926, 45.57786302312578], [9.149443502162878, 45.579273153021035], [9.15284265126799, 45.580453816932575], [9.156391003302067, 45.58139351754451], [9.18492420030362, 45.58783581501654]]]}}]", "buffer_5": "[{\"type\": \"Feature\", \"properties\": {}, \"geometry\": {\"type\": \"Polygon\", \"coordinates\": [[[9.177077595123292, 45.60497425667159], [9.183139758362971, 45.60611543413581], [9.189332016208992, 45.60683479398935], [9.195594898115017, 45.607125427416115], [9.201868250448488, 45.60698454320892], [9.208091818355745, 45.60641349475931], [9.214205828631542, 45.605417766957146], [9.220151567795467, 45.60400692313099], [9.225871949630726, 45.602194512556814], [9.23131206655665, 45.59999793945488], [9.23641971938343, 45.59743829477492], [9.241145920233738, 45.594540152437794], [9.245445363707132, 45.59133133205025], [9.249276861705708, 45.587842630436384], [9.252603737728444, 45.58410752463159], [9.255394176871711, 45.58016184925852], [9.257621528238754, 45.57604345144685], [9.259264556955687, 45.57179182666958], [9.260307643509142, 45.56744773904229], [9.26074092865531, 45.56305282977171], [9.260560402695026, 45.55864921754146], [9.259767938459056, 45.55427909468604], [9.255647853553336, 45.53796672359932], [9.254279956827395, 45.533742376875445], [9.2523407024002, 45.529630004781815], [9.249848169461329, 45.52566768668235], [9.24682554657143, 45.521892104752474], [9.243300913429687, 45.51833820536223], [9.239306978094902, 45.51503887674197], [9.234880772188895, 45.5120246458617], [9.230063306968056, 45.509323397272816], [9.224899193477222, 45.50696011645376], [9.219436230297617, 45.50495665997416], [9.213724962666129, 45.50333155454505], [9.20781821697529, 45.502099826759085], [9.201770614861138, 45.5012728650465], [9.18291066624121, 45.499348863517135], [9.176558998721053, 45.498926158546944], [9.170179064445678, 45.498949945602554], [9.163834119976467, 45.499419989052925], [9.157587077482113, 45.50033162848355], [9.151499885304968, 45.501675824575436], [9.1456329177456, 45.50343924811232], [9.140044379915313, 45.50560441126501], [9.134789733379112, 45.50814983989393], [9.12992114813477, 45.511050285216776], [9.125486986248346, 45.514276972806066], [9.121531322193103, 45.51779788651851], [9.118093504618772, 45.52157808461445], [9.11520776391267, 45.525580045007764], [9.112902869505483, 45.52976403629452], [9.10734697482024, 45.541561853355375], [9.105660219674997, 45.54583903849635], [9.104581036030018, 45.550212153920775], [9.104120057561461, 45.55463868514147], [9.104281912499156, 45.559075588432535], [9.105065172995374, 45.56347970916853], [9.106462363332263, 45.567808201631074], [9.108460027108656, 45.57201894619671], [9.111038852967742, 45.576070959830645], [9.114173857843651, 45.579924795861324], [9.117834626123672, 45.58354292910212], [9.121985602549977, 45.58689012251752], [9.126586436127075, 45.58993377180155], [9.131592371765537, 45.592644224443966], [9.13695468588551, 45.59499507010468], [9.14262116173197, 45.596963399394575], [9.14853659972357, 45.5985300284709], [9.177077595123292, 45.60497425667159]]]}}]", "centroid": "[{\"type\": \"Feature\", \"properties\": {}, \"geometry\": {\"type\": \"Point\", \"coordinates\": [9.183563029721945, 45.55308877573699]}}]", "Benzina": {"1": [{"Gestore": "STAZIONE AGIP DI VETRI PAOLO E C. S.A.S.", "Bandiera": "Agip Eni", "Tipo impianto": "Altro", "Indirizzo": "VIA ANTONIO GRAMSCI 109 20037", "Nome impianto": "staz.agip di vetri paolo ", "Comune": "PADERNO DUGNANO", "idImpianto": 13647, "points": [{"type": "Feature", "properties": {}, "geometry": {"type": "Point", "coordinates": [9.17061626441796, 45.558841461515954]}}], "price": 2.029, "ultima_rilevazione": "07/06/2022 07:34:34"}, {"Gestore": "NATALI SNC DI NATALI STEFANO E NATALI NICOLO'", "Bandiera": "Agip Eni", "Tipo impianto": "Altro", "Indirizzo": "VIA DON MINZONI SNC 20091", "Nome impianto": "ENI", "Comune": "BRESSO", "idImpianto": 12442, "points": [{"type": "Feature", "properties": {}, "geometry": {"type": "Point", "coordinates": [9.190016507283502, 45.54247778006184]}}], "price": 2.029, "ultima_rilevazione": "07/06/2022 07:44:12"}, {"Gestore": "STAZIONE DI SERVIZIO KUWAIT DI MUNARI MAURO", "Bandiera": "Q8", "Tipo impianto": "Altro", "Indirizzo": "via seveso s.n.c. snc 20095", "Nome impianto": "stazione di servizio Q8 di mauro Munari", "Comune": "CUSANO MILANINO", "idImpianto": 50046, "points": [{"type": "Feature", "properties": {}, "geometry": {"type": "Point", "coordinates": [9.172633886337277, 45.555949923215685]}}], "price": 2.039, "ultima_rilevazione": "08/06/2022 08:08:44"}, {"Gestore": "F.LLI TIRINATO NICOLA & PIETRO S.N.C.", "Bandiera": "Tamoil", "Tipo impianto": "Altro", "Indirizzo": "VIA SORMANI 38 20095", "Nome impianto": "Tamoil", "Comune": "CUSANO MILANINO", "idImpianto": 15514, "points": [{"type": "Feature", "properties": {}, "geometry": {"type": "Point", "coordinates": [9.186291620135307, 45.55366889427864]}}], "price": 2.059, "ultima_rilevazione": "08/06/2022 09:42:06"}, {"Gestore": "IP SERVICES S.R.L.", "Bandiera": "Api-Ip", "Tipo impianto": "Altro", "Indirizzo": "VIA LUIGI CADORNA  20032", "Nome impianto": "CORMANO - CADORNA", "Comune": "CORMANO", "idImpianto": 27528, "points": [{"type": "Feature", "properties": {}, "geometry": {"type": "Point", "coordinates": [9.184189271163971, 45.54291596769146]}}], "price": 1.999, "ultima_rilevazione": "08/06/2022 16:01:31"}, {"Gestore": "IP SERVICES S.R.L.", "Bandiera": "Api-Ip", "Tipo impianto": "Altro", "Indirizzo": "VIA  TOGLIATTI 2 20092", "Nome impianto": "CINISELLO BALSAMO - TOGLIATTI", "Comune": "CINISELLO BALSAMO", "idImpianto": 29861, "points": [{"type": "Feature", "properties": {}, "geometry": {"type": "Point", "coordinates": [9.202316093254126, 45.55392629457841]}}], "price": 1.989, "ultima_rilevazione": "08/06/2022 12:04:31"}, {"Gestore": "T.D.M. S.R.L.", "Bandiera": "Tamoil", "Tipo impianto": "Altro", "Indirizzo": "Viale Marconi/Ang. Via Manzoni  20095", "Nome impianto": "2517", "Comune": "CUSANO MILANINO", "idImpianto": 27870, "points": [{"type": "Feature", "properties": {}, "geometry": {"type": "Point", "coordinates": [9.17568951845169, 45.54620994598323]}}], "price": 1.979, "ultima_rilevazione": "08/06/2022 12:14:17"}, {"Gestore": "NUOVA SIDAP  S.R.L.", "Bandiera": "Api-Ip", "Tipo impianto": "Autostradale", "Indirizzo": "A52 TANG.LE NORD DI MILANO, Km. 10,9, Est 20092", "Nome impianto": "CINISELLO B. NORD", "Comune": "CINISELLO BALSAMO", "idImpianto": 43748, "points": [{"type": "Feature", "properties": {}, "geometry": {"type": "Point", "coordinates": [9.19825166463852, 45.57018517883253]}}], "price": 2.03, "ultima_rilevazione": "08/06/2022 16:00:05"}, {"Gestore": "CALOGERO LUCA", "Bandiera": "Api-Ip", "Tipo impianto": "Altro", "Indirizzo": "VIA TOGLIATTI 43 20092", "Nome impianto": "IP t", "Comune": "CINISELLO BALSAMO", "idImpianto": 46435, "points": [{"type": "Feature", "properties": {}, "geometry": {"type": "Point", "coordinates": [9.200220039963824, 45.55619380216169]}}], "price": 1.989, "ultima_rilevazione": "08/06/2022 16:48:37"}, {"Gestore": "SERVIZI E GESTIONI ZENIT S.R.L. IN SIGLA - ZENIT S.R.L.", "Bandiera": "Giap", "Tipo impianto": "Altro", "Indirizzo": "VIA SEVESO ANG. VIA LIBERTA' SNC 20095", "Nome impianto": "VIA SEVESO CUSAN", "Comune": "CUSANO MILANINO", "idImpianto": 12068, "points": [{"type": "Feature", "properties": {}, "geometry": {"type": "Point", "coordinates": [9.174054974204978, 45.5546165379325]}}], "price": 2.019, "ultima_rilevazione": "08/06/2022 17:56:51"}, {"Gestore": "COMMERCIALE PAGANONI S.P.A.", "Bandiera": "Pompe Bianche", "Tipo impianto": "Altro", "Indirizzo": "VIA XXV APRILE 245 20092", "Nome impianto": "COMMERCIALE PAGANONI PC18", "Comune": "CINISELLO BALSAMO", "idImpianto": 48139, "points": [{"type": "Feature", "properties": {}, "geometry": {"type": "Point", "coordinates": [9.196240983221193, 45.55346798912397]}}], "price": 1.979, "ultima_rilevazione": "09/06/2022 00:08:14"}, {"Gestore": "NIGRO SNC DI NIGRO ANTONINO E MAURO", "Bandiera": "Agip Eni", "Tipo impianto": "Altro", "Indirizzo": "VIA F. FILZI 9 20032", "Nome impianto": "NIGRO SNC Cormano", "Comune": "CORMANO", "idImpianto": 12665, "points": [{"type": "Feature", "properties": {}, "geometry": {"type": "Point", "coordinates": [9.166926741600037, 45.54489498527752]}}], "price": 2.049, "ultima_rilevazione": "09/06/2022 05:29:08"}, {"Gestore": "NIGRO SNC DI NIGRO ANTONINO E MAURO", "Bandiera": "Agip Eni", "Tipo impianto": "Strada Statale", "Indirizzo": "35 dei Giovi, Km. 132+300, Nord 20037", "Nome impianto": "enimilanomeda", "Comune": "PADERNO DUGNANO", "idImpianto": 50212, "points": [{"type": "Feature", "properties": {}, "geometry": {"type": "Point", "coordinates": [9.173606993586697, 45.559938200567736]}}], "price": 2.009, "ultima_rilevazione": "09/06/2022 05:29:52"}, {"Gestore": "CIARCIA SABATO", "Bandiera": "Q8", "Tipo impianto": "Altro", "Indirizzo": "VIA ANTONIO GRAMSCI 29 20032", "Nome impianto": "Stazione di servizio Q8", "Comune": "CORMANO", "idImpianto": 8627, "points": [{"type": "Feature", "properties": {}, "geometry": {"type": "Point", "coordinates": [9.168273688885506, 45.53951699110777]}}], "price": 2.099, "ultima_rilevazione": "09/06/2022 06:47:49"}, {"Gestore": "STAZIONE DI SERVIZIO DI DI BERNARDO IVANO", "Bandiera": "Agip Eni", "Tipo impianto": "Altro", "Indirizzo": "VIA SORMANI 29 20095", "Nome impianto": "Stazione di servizio di Di Bernardo Ivano", "Comune": "CUSANO MILANINO", "idImpianto": 51338, "points": [{"type": "Feature", "properties": {}, "geometry": {"type": "Point", "coordinates": [9.185928728641352, 45.54929389932906]}}], "price": 2.044, "ultima_rilevazione": "09/06/2022 06:49:25"}, {"Gestore": "SERVIZI & GESTIONI ITALIA S.R.L.", "Bandiera": "Q8", "Tipo impianto": "Altro", "Indirizzo": "S.PROV. 44  MILANO-MEDA  20032", "Nome impianto": "CORMANO S.PROV. 44  MILANO-MEDA", "Comune": "CORMANO", "idImpianto": 51187, "points": [{"type": "Feature", "properties": {}, "geometry": {"type": "Point", "coordinates": [9.164995610692491, 45.55296297937115]}}], "price": 2.059, "ultima_rilevazione": "09/06/2022 07:03:47"}, {"Gestore": "F.LLI TIRINATO NICOLA & PIETRO S.N.C.", "Bandiera": "Tamoil", "Tipo impianto": "Altro", "Indirizzo": "VIA SORMANI 38 20095", "Nome impianto": "Tamoil", "Comune": "CUSANO MILANINO", "idImpianto": 15514, "points": [{"type": "Feature", "properties": {}, "geometry": {"type": "Point", "coordinates": [9.186291620135307, 45.55366889427864]}}], "price": 1.849, "ultima_rilevazione": "08/06/2022 09:42:06"}], "3": [{"Gestore": "BR.IT ENERGY SRL", "Bandiera": "Q8", "Tipo impianto": "Altro", "Indirizzo": "VIA VIGANO DE' VIZZI  36 20092", "Nome impianto": "Q8 PV 1061", "Comune": "CINISELLO BALSAMO", "idImpianto": 51243, "points": [{"type": "Feature", "properties": {}, "geometry": {"type": "Point", "coordinates": [9.23158615430675, 45.56033578108916]}}], "price": 1.739, "ultima_rilevazione": "26/04/2022 08:56:11"}, {"Gestore": "F.LLI SARTORATO S.N.C. DI GABRIELE MARCO & C.", "Bandiera": "Agip Eni", "Tipo impianto": "Altro", "Indirizzo": "PIAZZA ITALIA  20091", "Nome impianto": "eni spa", "Comune": "BRESSO", "idImpianto": 13164, "points": [{"type": "Feature", "properties": {}, "geometry": {"type": "Point", "coordinates": [9.19575110077858, 45.53213298472479]}}], "price": 1.979, "ultima_rilevazione": "01/06/2022 09:45:56"}, {"Gestore": "Nuova Sidap SRL", "Bandiera": "Api-Ip", "Tipo impianto": "Autostradale", "Indirizzo": "A4 MILANO-BRESCIA, Km. 133+599, Est 20092", "Nome impianto": "LAMBRO SUD", "Comune": "CINISELLO BALSAMO", "idImpianto": 3548, "points": [{"type": "Feature", "properties": {}, "geometry": {"type": "Point", "coordinates": [9.208756966934176, 45.54819602199825]}}], "price": 1.999, "ultima_rilevazione": "01/06/2022 13:00:26"}, {"Gestore": "PROGETTI E SVILUPPO S.A.S. DI  MARAZZINA PAOLO E C.", "Bandiera": "KEROPETROL", "Tipo impianto": "Altro", "Indirizzo": "VIA MONFALCONE SNC 20092", "Nome impianto": "Keropetrol  Cinisello Balsamo MI", "Comune": "CINISELLO BALSAMO", "idImpianto": 46561, "points": [{"type": "Feature", "properties": {}, "geometry": {"type": "Point", "coordinates": [9.216780691950476, 45.5514147041983]}}], "price": 1.974, "ultima_rilevazione": "01/06/2022 14:50:57"}, {"Gestore": "EGI-2GO S.R.L.", "Bandiera": "Esso", "Tipo impianto": "Altro", "Indirizzo": "VIA ORNATO LUIGI 84 20162", "Nome impianto": "Mi - Ornato", "Comune": "MILANO", "idImpianto": 48154, "points": [{"type": "Feature", "properties": {}, "geometry": {"type": "Point", "coordinates": [9.192438058283791, 45.52110848287962]}}], "price": 2.029, "ultima_rilevazione": "03/06/2022 09:29:49"}, {"Gestore": "F.LLI SCURATTI AUTORIPARAZIONI S.N.C. DI DANIELE E STEFANO SCURAT TI", "Bandiera": "KEROPETROL", "Tipo impianto": "Altro", "Indirizzo": "VIA PER CINISELLO 8 20834", "Nome impianto": "F.lli scuratti", "Comune": "NOVA MILANESE", "idImpianto": 25385, "points": [{"type": "Feature", "properties": {}, "geometry": {"type": "Point", "coordinates": [9.204874733839231, 45.58543539394178]}}], "price": 2.049, "ultima_rilevazione": "04/06/2022 19:13:32"}, {"Gestore": "BARBIERO GIANCARLO", "Bandiera": "Api-Ip", "Tipo impianto": "Altro", "Indirizzo": "VIA MARCHIONNI 14 20161", "Nome impianto": "TOTALERG", "Comune": "MILANO", "idImpianto": 9046, "points": [{"type": "Feature", "properties": {}, "geometry": {"type": "Point", "coordinates": [9.17459785938263, 45.52648018196772]}}], "price": 1.919, "ultima_rilevazione": "06/06/2022 06:56:06"}, {"Gestore": "LOMBARDI STEFANO", "Bandiera": "Agip Eni", "Tipo impianto": "Altro", "Indirizzo": "VIA TOGLIATTI 47 20037", "Nome impianto": "stazione di servizio eni di lombardi stefano", "Comune": "PADERNO DUGNANO", "idImpianto": 44608, "points": [{"type": "Feature", "properties": {}, "geometry": {"type": "Point", "coordinates": [9.15239831590361, 45.57772291146348]}}], "price": 2.024, "ultima_rilevazione": "07/06/2022 08:45:29"}, {"Gestore": "FERA MARCO", "Bandiera": "Agip Eni", "Tipo impianto": "Altro", "Indirizzo": "via robecco  27 20092", "Nome impianto": "eni", "Comune": "CINISELLO BALSAMO", "idImpianto": 40748, "points": [{"type": "Feature", "properties": {}, "geometry": {"type": "Point", "coordinates": [9.220705364417997, 45.55809624391139]}}], "price": 2.024, "ultima_rilevazione": "07/06/2022 09:54:54"}, {"Gestore": "LEVAGGI ROBERTO", "Bandiera": "Agip Eni", "Tipo impianto": "Altro", "Indirizzo": "Viale Fulvio Testi 25 20099", "Nome impianto": "ENI 2480", "Comune": "SESTO SAN GIOVANNI", "idImpianto": 38484, "points": [{"type": "Feature", "properties": {}, "geometry": {"type": "Point", "coordinates": [9.217412733729589, 45.53491661675064]}}], "price": 2.029, "ultima_rilevazione": "07/06/2022 10:11:52"}, {"Gestore": "KUMAR PARMINDER", "Bandiera": "Agip Eni", "Tipo impianto": "Altro", "Indirizzo": "VIA COMASINA 19 20161", "Nome impianto": "ENI", "Comune": "MILANO", "idImpianto": 35348, "points": [{"type": "Feature", "properties": {}, "geometry": {"type": "Point", "coordinates": [9.165810948410012, 45.52429645902771]}}], "price": 2.029, "ultima_rilevazione": "07/06/2022 11:20:58"}, {"Gestore": "SERVIZI & GESTIONI ITALIA S.R.L.", "Bandiera": "Q8", "Tipo impianto": "Altro", "Indirizzo": "VIA PELIZZA DA VOLPEDO  20092", "Nome impianto": "CINISELLO BALSAMO VIA PELIZZA DA VOLPEDO", "Comune": "CINISELLO BALSAMO", "idImpianto": 42916, "points": [{"type": "Feature", "properties": {}, "geometry": {"type": "Point", "coordinates": [9.23242891226846, 45.555156760928725]}}], "price": 2.049, "ultima_rilevazione": "07/06/2022 14:08:54"}, {"Gestore": "LOR GAS DI OLIVARES RODRIGUEZ JUAN CARLOS", "Bandiera": "Api-Ip", "Tipo impianto": "Altro", "Indirizzo": "via ugo foscolo  20900", "Nome impianto": "totalerg", "Comune": "MONZA", "idImpianto": 11211, "points": [{"type": "Feature", "properties": {}, "geometry": {"type": "Point", "coordinates": [9.22737032175064, 45.57082423144908]}}], "price": 2.024, "ultima_rilevazione": "07/06/2022 17:35:36"}, {"Gestore": "SERVIZI & GESTIONI ITALIA S.R.L.", "Bandiera": "Q8", "Tipo impianto": "Altro", "Indirizzo": "VIA U.GIORDANO S/N 20092", "Nome impianto": "CINISELLO BALSAMO-VIA U.GIORDANO", "Comune": "CINISELLO BALSAMO", "idImpianto": 11676, "points": [{"type": "Feature", "properties": {}, "geometry": {"type": "Point", "coordinates": [9.219528746032664, 45.55855024253631]}}], "price": 2.019, "ultima_rilevazione": "08/06/2022 01:43:14"}, {"Gestore": "SERVIZI & GESTIONI ITALIA S.R.L.", "Bandiera": "Q8", "Tipo impianto": "Altro", "Indirizzo": "VIA LINCOLN ANG.VIA ROBECCO S/N 20092", "Nome impianto": "CINISELLO BALSAMO-VIA LINCOLN ANG.VIA ROBECCO", "Comune": "CINISELLO BALSAMO", "idImpianto": 11680, "points": [{"type": "Feature", "properties": {}, "geometry": {"type": "Point", "coordinates": [9.227057084655826, 45.55971971323913]}}], "price": 2.019, "ultima_rilevazione": "08/06/2022 01:43:18"}, {"Gestore": "SERVIZI & GESTIONI ITALIA S.R.L.", "Bandiera": "Q8", "Tipo impianto": "Altro", "Indirizzo": "VIALE F.TESTI 132 20092", "Nome impianto": "CINISELLO BALSAMO-VIALE F.TESTI 132", "Comune": "CINISELLO BALSAMO", "idImpianto": 11681, "points": [{"type": "Feature", "properties": {}, "geometry": {"type": "Point", "coordinates": [9.220952885913904, 45.54087659053977]}}], "price": 2.004, "ultima_rilevazione": "08/06/2022 01:43:18"}, {"Gestore": "SERVIZI & GESTIONI ITALIA srl", "Bandiera": "Q8", "Tipo impianto": "Altro", "Indirizzo": "VIA ROBECCO 69 20092", "Nome impianto": "CINISELLO BALSAMO ROBECCO 69", "Comune": "CINISELLO BALSAMO", "idImpianto": 6449, "points": [{"type": "Feature", "properties": {}, "geometry": {"type": "Point", "coordinates": [9.22493409451215, 45.5589375284437]}}], "price": 2.019, "ultima_rilevazione": "08/06/2022 01:44:00"}, {"Gestore": "TOREGAS S.A.S. DI PAROZZI RINALDO & C.", "Bandiera": "Api-Ip", "Tipo impianto": "Altro", "Indirizzo": "VIA CARDUCCI SNC 20091", "Nome impianto": "TOREGAS", "Comune": "BRESSO", "idImpianto": 29239, "points": [{"type": "Feature", "properties": {}, "geometry": {"type": "Point", "coordinates": [9.20464069428715, 45.5327732952849]}}], "price": 1.979, "ultima_rilevazione": "08/06/2022 06:56:22"}, {"Gestore": "SERVIZI & GESTIONI ITALIA S.R.L.", "Bandiera": "Q8", "Tipo impianto": "Altro", "Indirizzo": "VIA MATTEOTTI S/N 20091", "Nome impianto": "BRESSO-VIA MATTEOTTI", "Comune": "BRESSO", "idImpianto": 11687, "points": [{"type": "Feature", "properties": {}, "geometry": {"type": "Point", "coordinates": [9.198049620866756, 45.53619539306639]}}], "price": 2.059, "ultima_rilevazione": "08/06/2022 07:07:18"}, {"Gestore": "SERVIZI & GESTIONI ITALIA S.R.L.", "Bandiera": "Q8", "Tipo impianto": "Altro", "Indirizzo": "VIA RISORGIMENTO 120 20092", "Nome impianto": "CINISELLO BALSAMO-VIA RISORGIMENTO 120", "Comune": "CINISELLO BALSAMO", "idImpianto": 11709, "points": [{"type": "Feature", "properties": {}, "geometry": {"type": "Point", "coordinates": [9.211318192625072, 45.5656530402386]}}], "price": 2.099, "ultima_rilevazione": "08/06/2022 07:07:20"}, {"Gestore": "SERVIZI & GESTIONI ITALIA srl", "Bandiera": "Q8", "Tipo impianto": "Altro", "Indirizzo": "V MATTEOTTI 104 20099", "Nome impianto": "SESTO SAN GIOVANNI V MATTEOTTI 104", "Comune": "SESTO SAN GIOVANNI", "idImpianto": 6445, "points": [{"type": "Feature", "properties": {}, "geometry": {"type": "Point", "coordinates": [9.22621838836062, 45.53662892477784]}}], "price": 2.024, "ultima_rilevazione": "08/06/2022 07:07:27"}, {"Gestore": "STAZIONE SERVIZIO Q8 DI DI PADOVA FRANCESCO E MATTEO S.N.C.", "Bandiera": "Q8", "Tipo impianto": "Altro", "Indirizzo": "VIA GIUSEPPE GARIBALDI 130 20834", "Nome impianto": "stazione di servizio di padova francesco e matteo", "Comune": "NOVA MILANESE", "idImpianto": 7752, "points": [{"type": "Feature", "properties": {}, "geometry": {"type": "Point", "coordinates": [9.195328474204985, 45.585064792838175]}}], "price": 2.039, "ultima_rilevazione": "08/06/2022 07:25:20"}, {"Gestore": "CALOGERO LUCA", "Bandiera": "Api-Ip", "Tipo impianto": "Altro", "Indirizzo": "VIA DANTE ALIGHIERI 84 20092", "Nome impianto": "Stazione di servizio IP d", "Comune": "CINISELLO BALSAMO", "idImpianto": 8744, "points": [{"type": "Feature", "properties": {}, "geometry": {"type": "Point", "coordinates": [9.209659200663737, 45.55304702467864]}}], "price": 2.074, "ultima_rilevazione": "08/06/2022 08:03:35"}, {"Gestore": "S.M.C. SNC DI AGNANI MASSIMO E STEFANO", "Bandiera": "Beyfin", "Tipo impianto": "Strada Statale", "Indirizzo": "Statale 35 dei Giovi, Km. 134, dir. sud", "Nome impianto": "S.M.C. SNC DI AGNANI MASSIMO E STEFANO", "Comune": "PADERNO DUGNANO", "idImpianto": 24113, "points": [{"type": "Feature", "properties": {}, "geometry": {"type": "Point", "coordinates": [9.17557418346405, 45.57421087244983]}}], "price": 1.969, "ultima_rilevazione": "08/06/2022 08:57:06"}, {"Gestore": "COSTANTIN DISTRIBUZIONE E SERVIZI SRL", "Bandiera": "Costantin", "Tipo impianto": "Altro", "Indirizzo": "Vincenzo da Seregno 38 20161", "Nome impianto": "COSTANTIN MILANO", "Comune": "MILANO", "idImpianto": 33491, "points": [{"type": "Feature", "properties": {}, "geometry": {"type": "Point", "coordinates": [9.174699949737487, 45.52269771621936]}}], "price": 1.999, "ultima_rilevazione": "08/06/2022 09:52:05"}, {"Gestore": "NUOVA SIDAP  S.R.L.", "Bandiera": "Esso", "Tipo impianto": "Altro", "Indirizzo": "VIA REALI 106 20037", "Nome impianto": "Paderno Dugnano", "Comune": "PADERNO DUGNANO", "idImpianto": 43746, "points": [{"type": "Feature", "properties": {}, "geometry": {"type": "Point", "coordinates": [9.146991968154907, 45.57574929016682]}}], "price": 2.012, "ultima_rilevazione": "08/06/2022 11:16:39"}, {"Gestore": "IP SERVICES S.R.L.", "Bandiera": "Api-Ip", "Tipo impianto": "Altro", "Indirizzo": "VIALE FULVIO TESTI  51 20092", "Nome impianto": "CINISELLO BALSAMO - FULVIO TESTI 51", "Comune": "CINISELLO BALSAMO", "idImpianto": 28047, "points": [{"type": "Feature", "properties": {}, "geometry": {"type": "Point", "coordinates": [9.220614752149572, 45.54258215365598]}}], "price": 1.999, "ultima_rilevazione": "08/06/2022 16:03:31"}, {"Gestore": "IP SERVICES S.R.L.", "Bandiera": "Api-Ip", "Tipo impianto": "Altro", "Indirizzo": "VIA BRODOLINI 14 20026", "Nome impianto": "NOVATE MILANESE", "Comune": "NOVATE MILANESE", "idImpianto": 39752, "points": [{"type": "Feature", "properties": {}, "geometry": {"type": "Point", "coordinates": [9.146490320563316, 45.53384295647024]}}], "price": 2.029, "ultima_rilevazione": "08/06/2022 12:05:09"}, {"Gestore": "IP SERVICES S.R.L.", "Bandiera": "Api-Ip", "Tipo impianto": "Autostradale", "Indirizzo": "Autostrada A4 MILANO-BRESCIA, Km. 383, dir. Torino 15077", "Nome impianto": "LAMBRO NORD", "Comune": "CINISELLO BALSAMO", "idImpianto": 36458, "points": [{"type": "Feature", "properties": {}, "geometry": {"type": "Point", "coordinates": [9.207860525131196, 45.54869436492454]}}], "price": 2.097, "ultima_rilevazione": "08/06/2022 12:06:00"}, {"Gestore": "T.D.M. S.R.L.", "Bandiera": "Tamoil", "Tipo impianto": "Altro", "Indirizzo": "VIA LITTA MODIGNANI 50 20161", "Nome impianto": "8050", "Comune": "MILANO", "idImpianto": 24527, "points": [{"type": "Feature", "properties": {}, "geometry": {"type": "Point", "coordinates": [9.159154501480089, 45.52284512806989]}}], "price": 2.029, "ultima_rilevazione": "08/06/2022 12:08:11"}, {"Gestore": "KEROPETROL S.P.A.", "Bandiera": "KEROPETROL", "Tipo impianto": "Altro", "Indirizzo": "Viale Fulvio Testi SNC 20092", "Nome impianto": "KEROPETROL SPA CINISELLO BALSAMO", "Comune": "CINISELLO BALSAMO", "idImpianto": 40566, "points": [{"type": "Feature", "properties": {}, "geometry": {"type": "Point", "coordinates": [9.225009977817535, 45.54521808386223]}}], "price": 2.029, "ultima_rilevazione": "08/06/2022 14:46:09"}, {"Gestore": "AUTOSERVICE DI GIOVANNI D'ALOIA S.A.S.", "Bandiera": "Tamoil", "Tipo impianto": "Altro", "Indirizzo": "VIA ORNATO LUIGI 158 20162", "Nome impianto": "TAMOIL 2918", "Comune": "MILANO", "idImpianto": 15820, "points": [{"type": "Feature", "properties": {}, "geometry": {"type": "Point", "coordinates": [9.193408191204073, 45.525911187396126]}}], "price": 2.019, "ultima_rilevazione": "08/06/2022 15:04:08"}, {"Gestore": "IP SERVICES S.R.L.", "Bandiera": "Api-Ip", "Tipo impianto": "Altro", "Indirizzo": "Via Fulvio Testi 196 20092", "Nome impianto": "CINISELLO BALSAMO", "Comune": "CINISELLO BALSAMO", "idImpianto": 5529, "points": [{"type": "Feature", "properties": {}, "geometry": {"type": "Point", "coordinates": [9.229324635581976, 45.54657702743668]}}], "price": 1.979, "ultima_rilevazione": "08/06/2022 16:05:40"}, {"Gestore": "GS SPA", "Bandiera": "Q8", "Tipo impianto": "Altro", "Indirizzo": "S.S. 35 dei Giovi  20037", "Nome impianto": "Carrefour Q8 Paderno", "Comune": "PADERNO DUGNANO", "idImpianto": 48742, "points": [{"type": "Feature", "properties": {}, "geometry": {"type": "Point", "coordinates": [9.17677844662704, 45.574291657480615]}}], "price": 1.999, "ultima_rilevazione": "08/06/2022 16:22:33"}, {"Gestore": "SERVIZI E GESTIONI ZENIT S.R.L. IN SIGLA - ZENIT S.R.L.", "Bandiera": "Esso", "Tipo impianto": "Altro", "Indirizzo": "VIA PACE 38 20021", "Nome impianto": "VIA PACE BOLLATE", "Comune": "BOLLATE", "idImpianto": 28598, "points": [{"type": "Feature", "properties": {}, "geometry": {"type": "Point", "coordinates": [9.131144732236862, 45.55917463931419]}}], "price": 2.019, "ultima_rilevazione": "08/06/2022 17:56:54"}, {"Gestore": "PROVVIDO SALVATORE", "Bandiera": "Retitalia", "Tipo impianto": "Altro", "Indirizzo": "VIA ABRAMO LINCOLN 7 20092", "Nome impianto": "Retitalia", "Comune": "CINISELLO BALSAMO", "idImpianto": 12462, "points": [{"type": "Feature", "properties": {}, "geometry": {"type": "Point", "coordinates": [9.227097333712209, 45.55886811119226]}}], "price": 2.039, "ultima_rilevazione": "08/06/2022 21:24:24"}, {"Gestore": "CASTELLUCCIO SERVICE S.A.S. DI NESCI ERNESTO & C.", "Bandiera": "Retitalia", "Tipo impianto": "Altro", "Indirizzo": "Via Papa Giovanni XXIII,  26 20091", "Nome impianto": "Retitalia PV 48619", "Comune": "BRESSO", "idImpianto": 49812, "points": [{"type": "Feature", "properties": {}, "geometry": {"type": "Point", "coordinates": [9.189595364418013, 45.52885812097869]}}], "price": 2.039, "ultima_rilevazione": "08/06/2022 21:27:14"}, {"Gestore": "NUOVA SIDAP  S.R.L.", "Bandiera": "Esso", "Tipo impianto": "Autostradale", "Indirizzo": "A4 MILANO-BRESCIA, Km. 3,5, Ovest 20026", "Nome impianto": "NOVATE NORD", "Comune": "NOVATE MILANESE", "idImpianto": 43747, "points": [{"type": "Feature", "properties": {}, "geometry": {"type": "Point", "coordinates": [9.14892315864563, 45.52995078468612]}}], "price": 2.072, "ultima_rilevazione": "08/06/2022 23:30:09"}, {"Gestore": "ACEMA S.P.A.", "Bandiera": "OIL ONE", "Tipo impianto": "Altro", "Indirizzo": "Via Saint Denis 1 20092", "Nome impianto": "OILONE CINISELLO BALSAMO", "Comune": "CINISELLO BALSAMO", "idImpianto": 27082, "points": [{"type": "Feature", "properties": {}, "geometry": {"type": "Point", "coordinates": [9.22249250118864, 45.54084405659239]}}], "price": 1.999, "ultima_rilevazione": "09/06/2022 07:16:12"}, {"Gestore": "SERVIZI & GESTIONI ITALIA srl", "Bandiera": "Q8", "Tipo impianto": "Altro", "Indirizzo": "VIA MONTE ORTIGARA 19 20092", "Nome impianto": "CINISELLO BALSAMO VIA MONTE ORTIGARA  19", "Comune": "CINISELLO BALSAMO", "idImpianto": 6434, "points": [{"type": "Feature", "properties": {}, "geometry": {"type": "Point", "coordinates": [9.211831747221368, 45.559275424392986]}}], "price": 1.999, "ultima_rilevazione": "09/06/2022 01:04:59"}, {"Gestore": "SERVIZI & GESTIONI ITALIA srl", "Bandiera": "Q8", "Tipo impianto": "Altro", "Indirizzo": "VIA XX SETTEMBRE SNC 20091", "Nome impianto": "BRESSO VIA XX SETTEMBRE", "Comune": "BRESSO", "idImpianto": 6442, "points": [{"type": "Feature", "properties": {}, "geometry": {"type": "Point", "coordinates": [9.200026722090117, 45.52954012900832]}}], "price": 1.999, "ultima_rilevazione": "09/06/2022 01:05:00"}, {"Gestore": "SERVIZI & GESTIONI ITALIA srl", "Bandiera": "Q8", "Tipo impianto": "Altro", "Indirizzo": "VIA OSPITALETTO SNC 20021", "Nome impianto": "BOLLATE VIA OSPITALETTO", "Comune": "BOLLATE", "idImpianto": 6447, "points": [{"type": "Feature", "properties": {}, "geometry": {"type": "Point", "coordinates": [9.144175796364609, 45.546976439492525]}}], "price": 1.999, "ultima_rilevazione": "09/06/2022 01:05:00"}, {"Gestore": "STAZIONE DI SERVIZIO SNC DI DE NARDI ROBERTO & C.", "Bandiera": "Esso", "Tipo impianto": "Altro", "Indirizzo": "Viale fulvio testi 141 20092", "Nome impianto": "Stazione di servizio snc", "Comune": "CINISELLO BALSAMO", "idImpianto": 20204, "points": [{"type": "Feature", "properties": {}, "geometry": {"type": "Point", "coordinates": [9.22626298954924, 45.546465100148346]}}], "price": 1.999, "ultima_rilevazione": "09/06/2022 07:12:53"}, {"Gestore": "F.LLI CERUTI S.N.C. DI ANGELO E ATTILIO CERUTI", "Bandiera": "Tamoil", "Tipo impianto": "Altro", "Indirizzo": "STRADA PROVINCIALE 35 MILANO MEDA  20037", "Nome impianto": "TAMOIL", "Comune": "PADERNO DUGNANO", "idImpianto": 16979, "points": [{"type": "Feature", "properties": {}, "geometry": {"type": "Point", "coordinates": [9.17536363005638, 45.583678765520126]}}], "price": 1.999, "ultima_rilevazione": "09/06/2022 07:22:04"}, {"Gestore": "VUOTTI ANTONIO", "Bandiera": "Retitalia", "Tipo impianto": "Altro", "Indirizzo": "VIA VINCENZO DA SEREGNO 2 20161", "Nome impianto": "Rete Italia", "Comune": "MILANO", "idImpianto": 45218, "points": [{"type": "Feature", "properties": {}, "geometry": {"type": "Point", "coordinates": [9.170301705598831, 45.5198193255777]}}], "price": 2.039, "ultima_rilevazione": "09/06/2022 07:37:04"}], "5": [{"Gestore": "ALCA S.N.C. DI TROIANO E LUPOLI", "Bandiera": "Q8", "Tipo impianto": "Altro", "Indirizzo": "VIALE FULVIO TESTI 214 20092", "Nome impianto": "ALCA s.n.c.", "Comune": "CINISELLO BALSAMO", "idImpianto": 31194, "points": [{"type": "Feature", "properties": {}, "geometry": {"type": "Point", "coordinates": [9.233167916536331, 45.54780119027294]}}], "price": 1.769, "ultima_rilevazione": "15/11/2021 08:58:13"}, {"Gestore": "EUROGAS NOVA S.R.L.", "Bandiera": "Pompe Bianche", "Tipo impianto": "Altro", "Indirizzo": "Via G. A. Diaz 31 20834", "Nome impianto": "EUROGAS", "Comune": "NOVA MILANESE", "idImpianto": 49274, "points": [{"type": "Feature", "properties": {}, "geometry": {"type": "Point", "coordinates": [9.200202285811043, 45.59990726284961]}}], "price": 1.699, "ultima_rilevazione": "06/10/2021 00:08:48"}, {"Gestore": "CASOLO STEFANO", "Bandiera": "Agip Eni", "Tipo impianto": "Altro", "Indirizzo": "Via risorgimento 70/1 20037", "Nome impianto": "Eni di Casolo Stefano", "Comune": "PADERNO DUGNANO", "idImpianto": 39661, "points": [{"type": "Feature", "properties": {}, "geometry": {"type": "Point", "coordinates": [9.144410267472267, 45.57794022591459]}}], "price": 2.164, "ultima_rilevazione": "07/06/2022 08:27:05"}, {"Gestore": "KE.RO IMPIANTI S.R.L.", "Bandiera": "KEROPETROL", "Tipo impianto": "Altro", "Indirizzo": "VIA GIOVANNI DURANDO 3 20158", "Nome impianto": "KE.RO IMPIANTI VIA DURANDO", "Comune": "MILANO", "idImpianto": 7908, "points": [{"type": "Feature", "properties": {}, "geometry": {"type": "Point", "coordinates": [9.164146879832856, 45.50381188643153]}}], "price": 1.719, "ultima_rilevazione": "08/06/2022 16:50:29"}, {"Gestore": "EGI-2GO S.R.L.", "Bandiera": "Esso", "Tipo impianto": "Altro", "Indirizzo": "VIA A. LOCATELLI 10 20834", "Nome impianto": "Nova Milanese", "Comune": "NOVA MILANESE", "idImpianto": 48753, "points": [{"type": "Feature", "properties": {}, "geometry": {"type": "Point", "coordinates": [9.195352999999995, 45.59261673865961]}}], "price": 1.879, "ultima_rilevazione": "25/05/2022 17:08:35"}, {"Gestore": "EGI-2GO S.R.L.", "Bandiera": "Esso", "Tipo impianto": "Altro", "Indirizzo": "VIA G. MAZZINI 13 20835", "Nome impianto": "Muggio", "Comune": "MUGGIO'", "idImpianto": 48001, "points": [{"type": "Feature", "properties": {}, "geometry": {"type": "Point", "coordinates": [9.236082046627049, 45.59281963065065]}}], "price": 1.859, "ultima_rilevazione": "25/05/2022 17:09:38"}, {"Gestore": "EGI-2GO S.R.L.", "Bandiera": "Esso", "Tipo impianto": "Altro", "Indirizzo": "PIAZZALE ISTRIA 14 20125", "Nome impianto": "piazzale Istria", "Comune": "MILANO", "idImpianto": 48002, "points": [{"type": "Feature", "properties": {}, "geometry": {"type": "Point", "coordinates": [9.198785752149572, 45.50224604966351]}}], "price": 1.919, "ultima_rilevazione": "26/05/2022 08:49:06"}, {"Gestore": "DALLAVALLE S.A.S. DI BONFANTI MASSIMO & C.", "Bandiera": "Q8", "Tipo impianto": "Altro", "Indirizzo": "VIA ROMAGNA  20900", "Nome impianto": "DALLAVALLE S.A.S. DI BONFANTI MASSIMO & C.", "Comune": "MONZA", "idImpianto": 38696, "points": [{"type": "Feature", "properties": {}, "geometry": {"type": "Point", "coordinates": [9.253979846835136, 45.573366739548135]}}], "price": 1.899, "ultima_rilevazione": "30/05/2022 06:56:23"}, {"Gestore": "GIO & ERY DI ERIDONA PRENGA", "Bandiera": "Esso", "Tipo impianto": "Altro", "Indirizzo": "VIALE TESTI FULVIO 200 20126", "Nome impianto": "esso ", "Comune": "MILANO", "idImpianto": 43730, "points": [{"type": "Feature", "properties": {}, "geometry": {"type": "Point", "coordinates": [9.206934658895534, 45.5165665780121]}}], "price": 2.056, "ultima_rilevazione": "01/06/2022 17:18:09"}, {"Gestore": "SCALI ROSSELLA", "Bandiera": "Agip Eni", "Tipo impianto": "Altro", "Indirizzo": "via vialba 34 20026", "Nome impianto": "AGIP ", "Comune": "NOVATE MILANESE", "idImpianto": 11327, "points": [{"type": "Feature", "properties": {}, "geometry": {"type": "Point", "coordinates": [9.134978950023651, 45.5289443807462]}}], "price": 1.939, "ultima_rilevazione": "03/06/2022 09:10:37"}, {"Gestore": "PB6 S.A.S. DI PARENTE VITO & C.", "Bandiera": "Pompe Bianche", "Tipo impianto": "Altro", "Indirizzo": "VIA PER CRESCENZAGO 6 20099", "Nome impianto": "Petrol Outlet", "Comune": "SESTO SAN GIOVANNI", "idImpianto": 46708, "points": [{"type": "Feature", "properties": {}, "geometry": {"type": "Point", "coordinates": [9.241200367124408, 45.52200318608135]}}], "price": 1.999, "ultima_rilevazione": "06/06/2022 07:52:14"}, {"Gestore": "NOCE SAMUELE", "Bandiera": "Api-Ip", "Tipo impianto": "Altro", "Indirizzo": "VIA VITTORIO VENETO 25 20834", "Nome impianto": "Italiana Petroli", "Comune": "NOVA MILANESE", "idImpianto": 37257, "points": [{"type": "Feature", "properties": {}, "geometry": {"type": "Point", "coordinates": [9.201848411045034, 45.5914146691208]}}], "price": 2.029, "ultima_rilevazione": "06/06/2022 08:28:22"}, {"Gestore": "NASSER PETROL SOCIETA' A RESPONSABILITA' LIMITATA SEMPLIFICATA", "Bandiera": "KEROPETROL", "Tipo impianto": "Altro", "Indirizzo": "VIALE Fratello Casiraghi 270 20099", "Nome impianto": "keropetrol", "Comune": "SESTO SAN GIOVANNI", "idImpianto": 50167, "points": [{"type": "Feature", "properties": {}, "geometry": {"type": "Point", "coordinates": [9.23442288458464, 45.54196656139872]}}], "price": 2.049, "ultima_rilevazione": "06/06/2022 20:17:36"}, {"Gestore": "F.LLI PUPPIO SNC DI PUPPIO PASQUALE E C.", "Bandiera": "Agip Eni", "Tipo impianto": "Altro", "Indirizzo": "VIALE GRAMSCI ANG. VIA MONTENERO  20099", "Nome impianto": "F.LLI PUPPIO SNC", "Comune": "SESTO SAN GIOVANNI", "idImpianto": 12374, "points": [{"type": "Feature", "properties": {}, "geometry": {"type": "Point", "coordinates": [9.24358695745468, 45.546936861949234]}}], "price": 2.024, "ultima_rilevazione": "07/06/2022 08:03:30"}, {"Gestore": "LUCARELLI LEONARDO", "Bandiera": "Agip Eni", "Tipo impianto": "Altro", "Indirizzo": "VIALE CAMPANIA 64, 20900", "Nome impianto": "leonardo lucarelli", "Comune": "MONZA", "idImpianto": 24973, "points": [{"type": "Feature", "properties": {}, "geometry": {"type": "Point", "coordinates": [9.252105412372655, 45.56871310184942]}}], "price": 2.029, "ultima_rilevazione": "07/06/2022 08:48:24"}, {"Gestore": "BRAMBILLA S.N.C. DI GABRIELE BRAMBILLA & C.", "Bandiera": "Agip Eni", "Tipo impianto": "Altro", "Indirizzo": "VIALE LOMBARDIA 224 20052", "Nome impianto": "AGIP di BRAMBILLA S.N.C.", "Comune": "MONZA", "idImpianto": 6254, "points": [{"type": "Feature", "properties": {}, "geometry": {"type": "Point", "coordinates": [9.244179725646973, 45.56768653673911]}}], "price": 2.029, "ultima_rilevazione": "07/06/2022 08:56:34"}, {"Gestore": "ZAMBELLI ROBERTO", "Bandiera": "Agip Eni", "Tipo impianto": "Altro", "Indirizzo": "VIALE MONZA 166 20127", "Nome impianto": "ENI DI ZAMBELLI ROBERTO", "Comune": "MILANO", "idImpianto": 12747, "points": [{"type": "Feature", "properties": {}, "geometry": {"type": "Point", "coordinates": [9.223346854631018, 45.50724104566137]}}], "price": 2.029, "ultima_rilevazione": "07/06/2022 09:13:44"}, {"Gestore": "SCARFONE COSIMO", "Bandiera": "Agip Eni", "Tipo impianto": "Altro", "Indirizzo": "mazzini  20835", "Nome impianto": "eni", "Comune": "MUGGIO'", "idImpianto": 41512, "points": [{"type": "Feature", "properties": {}, "geometry": {"type": "Point", "coordinates": [9.233100190758703, 45.59301366559917]}}], "price": 1.989, "ultima_rilevazione": "07/06/2022 10:41:22"}, {"Gestore": "TECNISERVICE - S.N.C. DI IERARDI SIMONE & C.", "Bandiera": "Api-Ip", "Tipo impianto": "Altro", "Indirizzo": "VIALE MONZA 280 20128", "Nome impianto": "TECNISERVICE SNC", "Comune": "MILANO", "idImpianto": 18859, "points": [{"type": "Feature", "properties": {}, "geometry": {"type": "Point", "coordinates": [9.226599896958987, 45.51816621244278]}}], "price": 2.039, "ultima_rilevazione": "07/06/2022 15:32:03"}, {"Gestore": "FOLTRAN MARCO", "Bandiera": "Api-Ip", "Tipo impianto": "Altro", "Indirizzo": "Via Combattenti 4 20835", "Nome impianto": "IP", "Comune": "MUGGIO'", "idImpianto": 10320, "points": [{"type": "Feature", "properties": {}, "geometry": {"type": "Point", "coordinates": [9.230070086508247, 45.57588091184567]}}], "price": 2.029, "ultima_rilevazione": "07/06/2022 16:10:09"}, {"Gestore": "COLELLA RAFFAELE", "Bandiera": "Esso", "Tipo impianto": "Altro", "Indirizzo": "VIALE SUZZANI 12 20126", "Nome impianto": "COLELLA RAFFAELE", "Comune": "MILANO", "idImpianto": 15350, "points": [{"type": "Feature", "properties": {}, "geometry": {"type": "Point", "coordinates": [9.197736606001854, 45.506036549658646]}}], "price": 2.079, "ultima_rilevazione": "07/06/2022 17:51:50"}, {"Gestore": "GM S.A.S. DI CALANDRA GIOVANNI & C.", "Bandiera": "Api-Ip", "Tipo impianto": "Strada Statale", "Indirizzo": "527 Bustese, Km. 6+829, Sud-Est 20814", "Nome impianto": "IP", "Comune": "VAREDO", "idImpianto": 48651, "points": [{"type": "Feature", "properties": {}, "geometry": {"type": "Point", "coordinates": [9.16818677389342, 45.59807912912228]}}], "price": 2.039, "ultima_rilevazione": "07/06/2022 21:34:26"}, {"Gestore": "DEL GIUDICE BONAVENTURA", "Bandiera": "Q8", "Tipo impianto": "Altro", "Indirizzo": "VIA BOLLATE 68 20026", "Nome impianto": "Stazione di Servizio n\u00b0 1131 Q8 Outlet", "Comune": "NOVATE MILANESE", "idImpianto": 30023, "points": [{"type": "Feature", "properties": {}, "geometry": {"type": "Point", "coordinates": [9.130849689245224, 45.53807566917228]}}], "price": 1.979, "ultima_rilevazione": "07/06/2022 23:03:06"}, {"Gestore": "SERVIZI & GESTIONI ITALIA S.R.L.", "Bandiera": "Q8", "Tipo impianto": "Altro", "Indirizzo": "VIA BETTOLA - ANGOLO VIA CASTALDI 32 20092", "Nome impianto": "CINISELLO BALSAMO-VIA BETTOLA 32 - ANGOLO VIA CASTALDI", "Comune": "CINISELLO BALSAMO", "idImpianto": 11710, "points": [{"type": "Feature", "properties": {}, "geometry": {"type": "Point", "coordinates": [9.243809580802916, 45.556688014194734]}}], "price": 2.059, "ultima_rilevazione": "08/06/2022 01:43:21"}, {"Gestore": "SERVIZI & GESTIONI ITALIA S.R.L.", "Bandiera": "Q8", "Tipo impianto": "Altro", "Indirizzo": "V.LE ROMAGNA 42 20052", "Nome impianto": "MONZA V.LE ROMAGNA 42", "Comune": "MONZA", "idImpianto": 6439, "points": [{"type": "Feature", "properties": {}, "geometry": {"type": "Point", "coordinates": [9.248283505439758, 45.572231571073054]}}], "price": 2.019, "ultima_rilevazione": "08/06/2022 01:43:25"}, {"Gestore": "SERVIZI & GESTIONI ITALIA srl", "Bandiera": "Q8", "Tipo impianto": "Altro", "Indirizzo": "VIA BOVISASCA SNC 20026", "Nome impianto": "NOVATE VIA BOVISASCA", "Comune": "NOVATE MILANESE", "idImpianto": 6440, "points": [{"type": "Feature", "properties": {}, "geometry": {"type": "Point", "coordinates": [9.150898711045102, 45.5207109449471]}}], "price": 2.059, "ultima_rilevazione": "08/06/2022 01:43:26"}, {"Gestore": "SERVIZI & GESTIONI ITALIA S.R.L.", "Bandiera": "Q8", "Tipo impianto": "Altro", "Indirizzo": "VIALE GRAMSCI 609 20099", "Nome impianto": "SESTO SAN GIOVANNI - VIALE GRAMSCI 609", "Comune": "SESTO SAN GIOVANNI", "idImpianto": 24145, "points": [{"type": "Feature", "properties": {}, "geometry": {"type": "Point", "coordinates": [9.24427519828646, 45.54835895706711]}}], "price": 2.039, "ultima_rilevazione": "08/06/2022 01:43:49"}, {"Gestore": "GOBBI PAOLO", "Bandiera": "Esso", "Tipo impianto": "Altro", "Indirizzo": "VIALE RIMEMBRANZE SNC 20099", "Nome impianto": "ESSO GOBBI PAOLO", "Comune": "SESTO SAN GIOVANNI", "idImpianto": 7357, "points": [{"type": "Feature", "properties": {}, "geometry": {"type": "Point", "coordinates": [9.24127757549286, 45.52456572153702]}}], "price": 1.979, "ultima_rilevazione": "08/06/2022 06:21:09"}, {"Gestore": "SERVIZI & GESTIONI ITALIA S.R.L.", "Bandiera": "Q8", "Tipo impianto": "Altro", "Indirizzo": "VIA ERITREA 71 20157", "Nome impianto": "MILANO VIA ERITREA, 71", "Comune": "MILANO", "idImpianto": 43279, "points": [{"type": "Feature", "properties": {}, "geometry": {"type": "Point", "coordinates": [9.136708201223428, 45.51261552152685]}}], "price": 2.079, "ultima_rilevazione": "08/06/2022 07:07:19"}, {"Gestore": "SERVIZI & GESTIONI ITALIA S.R.L.", "Bandiera": "Q8", "Tipo impianto": "Altro", "Indirizzo": "VIA GRANDI 31 20099", "Nome impianto": "SESTO S.GIOVANNI VIA GRANDI 31", "Comune": "SESTO SAN GIOVANNI", "idImpianto": 36302, "points": [{"type": "Feature", "properties": {}, "geometry": {"type": "Point", "coordinates": [9.252056032419205, 45.53061668234774]}}], "price": 2.059, "ultima_rilevazione": "08/06/2022 07:07:21"}, {"Gestore": "SERVIZI & GESTIONI ITALIA S.R.L.", "Bandiera": "Q8", "Tipo impianto": "Altro", "Indirizzo": "VIA PELLEGRINO ROSSI 60 20161", "Nome impianto": "MILANO-VIA PELLEGRINO ROSSI 60", "Comune": "MILANO", "idImpianto": 11660, "points": [{"type": "Feature", "properties": {}, "geometry": {"type": "Point", "coordinates": [9.174989271163897, 45.51233157028877]}}], "price": 2.059, "ultima_rilevazione": "08/06/2022 07:07:22"}, {"Gestore": "SERVIZI & GESTIONI ITALIA S.R.L.", "Bandiera": "Q8", "Tipo impianto": "Altro", "Indirizzo": "VIA AMORETTI S/N 20026", "Nome impianto": "NOVATE MILANESE-VIA AMORETTI", "Comune": "NOVATE MILANESE", "idImpianto": 11675, "points": [{"type": "Feature", "properties": {}, "geometry": {"type": "Point", "coordinates": [9.149742915344175, 45.52126013683692]}}], "price": 2.079, "ultima_rilevazione": "08/06/2022 07:07:24"}, {"Gestore": "SERVIZI & GESTIONI ITALIA S.R.L.", "Bandiera": "Q8", "Tipo impianto": "Altro", "Indirizzo": "VIALE RIMEMBRANZE 175 20099", "Nome impianto": "SESTO SAN GIOVANNI-VIALE RIMEMBRANZE 175", "Comune": "SESTO SAN GIOVANNI", "idImpianto": 11700, "points": [{"type": "Feature", "properties": {}, "geometry": {"type": "Point", "coordinates": [9.241302331352244, 45.52596455007453]}}], "price": 2.059, "ultima_rilevazione": "08/06/2022 07:07:26"}, {"Gestore": "VALANDRO S.N.C. DI VALANDRO ENZO E OSVALDO", "Bandiera": "Retitalia", "Tipo impianto": "Altro", "Indirizzo": "VIALE MONZA 305 20126", "Nome impianto": "MILANO", "Comune": "MILANO", "idImpianto": 15522, "points": [{"type": "Feature", "properties": {}, "geometry": {"type": "Point", "coordinates": [9.225574040866036, 45.51645438347051]}}], "price": 2.029, "ultima_rilevazione": "08/06/2022 09:26:42"}, {"Gestore": "AMBROGIO MORO S.P.A.", "Bandiera": "Api-Ip", "Tipo impianto": "Altro", "Indirizzo": "VIA ROSSI PELLEGRINO 93 20161", "Nome impianto": "Moro _ Distributore IP_ Milano Pellegrino Rossi 93", "Comune": "MILANO", "idImpianto": 24108, "points": [{"type": "Feature", "properties": {}, "geometry": {"type": "Point", "coordinates": [9.17249386683261, 45.51541440509804]}}], "price": 2.019, "ultima_rilevazione": "08/06/2022 09:49:38"}, {"Gestore": "T.D.M. S.R.L.", "Bandiera": "Tamoil", "Tipo impianto": "Altro", "Indirizzo": "VIA DELLA REPUBBLICA 6 20021", "Nome impianto": "8483", "Comune": "BOLLATE", "idImpianto": 46839, "points": [{"type": "Feature", "properties": {}, "geometry": {"type": "Point", "coordinates": [9.111826769940537, 45.54182715694789]}}], "price": 1.999, "ultima_rilevazione": "08/06/2022 12:02:07"}, {"Gestore": "IP SERVICES S.R.L.", "Bandiera": "Api-Ip", "Tipo impianto": "Altro", "Indirizzo": "via CAVALLOTTI 110 20900", "Nome impianto": "Monza Cavallotti", "Comune": "MONZA", "idImpianto": 31387, "points": [{"type": "Feature", "properties": {}, "geometry": {"type": "Point", "coordinates": [9.254766404628754, 45.57817602447157]}}], "price": 1.999, "ultima_rilevazione": "08/06/2022 12:07:08"}, {"Gestore": "IP SERVICES S.R.L.", "Bandiera": "Api-Ip", "Tipo impianto": "Altro", "Indirizzo": "Via Trilussa 3 20157", "Nome impianto": "Milano Via Trilussa", "Comune": "MILANO", "idImpianto": 24668, "points": [{"type": "Feature", "properties": {}, "geometry": {"type": "Point", "coordinates": [9.137596786022186, 45.51461428840631]}}], "price": 2.019, "ultima_rilevazione": "08/06/2022 12:07:10"}, {"Gestore": "META.WASH SRL", "Bandiera": "OIL ONE", "Tipo impianto": "Altro", "Indirizzo": "VIALE MONZA 254 20128", "Nome impianto": "OILONE Milano Viale Monza n. 254", "Comune": "MILANO", "idImpianto": 33361, "points": [{"type": "Feature", "properties": {}, "geometry": {"type": "Point", "coordinates": [9.225765606151526, 45.51531583271674]}}], "price": 2.019, "ultima_rilevazione": "08/06/2022 15:00:05"}, {"Gestore": "DE NITTIS PASQUALE", "Bandiera": "Tamoil", "Tipo impianto": "Altro", "Indirizzo": "VIALE CAMPANIA 8 20900", "Nome impianto": "STAZIONE DI SERVIZIO TAMOIL", "Comune": "MONZA", "idImpianto": 9990, "points": [{"type": "Feature", "properties": {}, "geometry": {"type": "Point", "coordinates": [9.258126151520514, 45.5659023786019]}}], "price": 1.999, "ultima_rilevazione": "08/06/2022 15:12:04"}, {"Gestore": "IP SERVICES S.R.L.", "Bandiera": "Api-Ip", "Tipo impianto": "Altro", "Indirizzo": "Viale Monza 285 20128", "Nome impianto": "Milano Viale Monza", "Comune": "MILANO", "idImpianto": 22494, "points": [{"type": "Feature", "properties": {}, "geometry": {"type": "Point", "coordinates": [9.224946963134698, 45.5144954436484]}}], "price": 2.019, "ultima_rilevazione": "08/06/2022 16:06:09"}, {"Gestore": "KEROPETROL S.P.A.", "Bandiera": "KEROPETROL", "Tipo impianto": "Altro", "Indirizzo": "VIA UGO FOSCOLO 2 20834", "Nome impianto": "KEROPETROL SPA NOVA MILANESE", "Comune": "NOVA MILANESE", "idImpianto": 49204, "points": [{"type": "Feature", "properties": {}, "geometry": {"type": "Point", "coordinates": [9.209046421212811, 45.59021508857542]}}], "price": 2.069, "ultima_rilevazione": "08/06/2022 16:48:37"}, {"Gestore": "S.I.A. ENGINEERING CONSTRUCTION S.R.L.", "Bandiera": "Sia fuel", "Tipo impianto": "Altro", "Indirizzo": "Via Bovisasca  201 20157", "Nome impianto": "Sia Fuel Bovisasca", "Comune": "MILANO", "idImpianto": 39504, "points": [{"type": "Feature", "properties": {}, "geometry": {"type": "Point", "coordinates": [9.154344977107256, 45.518404587624445]}}], "price": 1.999, "ultima_rilevazione": "08/06/2022 16:57:58"}, {"Gestore": "SERVIZI E GESTIONI ZENIT S.R.L. IN SIGLA - ZENIT S.R.L.", "Bandiera": "Giap", "Tipo impianto": "Altro", "Indirizzo": "VIA XXIV MAGGIO  20030", "Nome impianto": "VIA XXIV MAGGIO SENAGO", "Comune": "SENAGO", "idImpianto": 24400, "points": [{"type": "Feature", "properties": {}, "geometry": {"type": "Point", "coordinates": [9.116305728836096, 45.57547650985402]}}], "price": 2.048, "ultima_rilevazione": "08/06/2022 17:56:52"}, {"Gestore": "SERVIZI E GESTIONI ZENIT S.R.L. IN SIGLA - ZENIT S.R.L.", "Bandiera": "Esso", "Tipo impianto": "Altro", "Indirizzo": "VIA S. PELLICO 20 20021", "Nome impianto": "VIA PELLICO BOLL", "Comune": "BOLLATE", "idImpianto": 12069, "points": [{"type": "Feature", "properties": {}, "geometry": {"type": "Point", "coordinates": [9.130003201223415, 45.54511030892274]}}], "price": 2.019, "ultima_rilevazione": "08/06/2022 17:56:53"}, {"Gestore": "SERVIZI E GESTIONI ZENIT S.R.L. IN SIGLA - ZENIT S.R.L.", "Bandiera": "Esso", "Tipo impianto": "Altro", "Indirizzo": "VIA CAVOUR 79 20030", "Nome impianto": "VIA CAVOUR, 79 SENAGO", "Comune": "SENAGO", "idImpianto": 24399, "points": [{"type": "Feature", "properties": {}, "geometry": {"type": "Point", "coordinates": [9.129318813491864, 45.58245416727176]}}], "price": 2.048, "ultima_rilevazione": "08/06/2022 17:56:53"}, {"Gestore": "IPERSTAROIL S.R.L.", "Bandiera": "Pompe Bianche", "Tipo impianto": "Altro", "Indirizzo": "viale Brianza 31 20092", "Nome impianto": "iperstaroil CINISELLO", "Comune": "CINISELLO BALSAMO", "idImpianto": 50704, "points": [{"type": "Feature", "properties": {}, "geometry": {"type": "Point", "coordinates": [9.23803592007732, 45.55229444729481]}}], "price": 1.969, "ultima_rilevazione": "08/06/2022 18:00:04"}, {"Gestore": "G.T. CARBURANTI  DI  GIULIANI TOMMASO MARCO", "Bandiera": "Esso", "Tipo impianto": "Altro", "Indirizzo": "VIALE MARELLI 266 20099", "Nome impianto": "ESSO GTcarburanti", "Comune": "SESTO SAN GIOVANNI", "idImpianto": 31812, "points": [{"type": "Feature", "properties": {}, "geometry": {"type": "Point", "coordinates": [9.22847156745911, 45.52596815708628]}}], "price": 2.179, "ultima_rilevazione": "08/06/2022 19:53:48"}, {"Gestore": "DICOMI S.R.L.", "Bandiera": "Q8", "Tipo impianto": "Altro", "Indirizzo": "VIA ARMANDO DIAZ 31 20834", "Nome impianto": "Q8", "Comune": "NOVA MILANESE", "idImpianto": 51349, "points": [{"type": "Feature", "properties": {}, "geometry": {"type": "Point", "coordinates": [9.200262000000016, 45.59991908386896]}}], "price": 1.999, "ultima_rilevazione": "09/06/2022 00:08:16"}, {"Gestore": "ENI FUEL S.P.A.", "Bandiera": "Agip Eni", "Tipo impianto": "Altro", "Indirizzo": "Viale Lombardia 166 20052", "Nome impianto": "PV 2172 Monza V. Lombardia", "Comune": "MONZA", "idImpianto": 38524, "points": [{"type": "Feature", "properties": {}, "geometry": {"type": "Point", "coordinates": [9.24692600852893, 45.5745145949299]}}], "price": 2.029, "ultima_rilevazione": "09/06/2022 00:18:03"}, {"Gestore": "CUSITEX DI CIRRINCIONE DOMENICO E C. S.N.C.", "Bandiera": "Esso", "Tipo impianto": "Altro", "Indirizzo": "VIA G. VERDI  20021", "Nome impianto": "via verdi", "Comune": "BOLLATE", "idImpianto": 8741, "points": [{"type": "Feature", "properties": {}, "geometry": {"type": "Point", "coordinates": [9.112526178359984, 45.54750564381035]}}], "price": 2.036, "ultima_rilevazione": "09/06/2022 06:28:27"}, {"Gestore": "MANFREDI LUCA", "Bandiera": "Agip Eni", "Tipo impianto": "Altro", "Indirizzo": "VIALE MONZA 316 20128", "Nome impianto": "ENI di manfredi luca", "Comune": "MILANO", "idImpianto": 44907, "points": [{"type": "Feature", "properties": {}, "geometry": {"type": "Point", "coordinates": [9.227576000123, 45.520849000123]}}], "price": 2.049, "ultima_rilevazione": "09/06/2022 06:50:19"}, {"Gestore": "SERVIZI & GESTIONI ITALIA S.R.L.", "Bandiera": "Q8", "Tipo impianto": "Altro", "Indirizzo": "FZ.PALAZZOLO SS/SP 35 KM.6+550 OVEST S/N 20037", "Nome impianto": "PADERNO DUGNANO-FZ.PALAZZOLO SS/SP35KM.6+550 OVEST", "Comune": "PADERNO DUGNANO", "idImpianto": 11678, "points": [{"type": "Feature", "properties": {}, "geometry": {"type": "Point", "coordinates": [9.173264373016307, 45.588769325187954]}}], "price": 2.049, "ultima_rilevazione": "09/06/2022 07:03:47"}, {"Gestore": "SERVIZI & GESTIONI ITALIA S.R.L.", "Bandiera": "Q8", "Tipo impianto": "Altro", "Indirizzo": "VIA DON ANGHILERI S/N 20037", "Nome impianto": "PADERNO DUGNANO-VIA DON ANGHILERI", "Comune": "PADERNO DUGNANO", "idImpianto": 11705, "points": [{"type": "Feature", "properties": {}, "geometry": {"type": "Point", "coordinates": [9.164721865081788, 45.583733789381526]}}], "price": 2.059, "ultima_rilevazione": "09/06/2022 07:03:47"}, {"Gestore": "SERVIZI & GESTIONI ITALIA S.R.L.", "Bandiera": "Q8", "Tipo impianto": "Altro", "Indirizzo": "VIALE CASIRAGHI F.TESTI 493 20099", "Nome impianto": "SESTO SAN GIOVANNI-VIALE CASIRAGHI F.TESTI 493", "Comune": "SESTO SAN GIOVANNI", "idImpianto": 11656, "points": [{"type": "Feature", "properties": {}, "geometry": {"type": "Point", "coordinates": [9.23625172023776, 45.54886994636463]}}], "price": 2.029, "ultima_rilevazione": "09/06/2022 07:03:48"}, {"Gestore": "ESSEBI S.N.C. DI BORACCO LORENZO E SALA ANDREA", "Bandiera": "Esso", "Tipo impianto": "Altro", "Indirizzo": "viale vittorio veneto 19 20900", "Nome impianto": "esso", "Comune": "MONZA", "idImpianto": 37759, "points": [{"type": "Feature", "properties": {}, "geometry": {"type": "Point", "coordinates": [9.253012496958943, 45.57905863394036]}}], "price": 1.999, "ultima_rilevazione": "09/06/2022 07:13:01"}, {"Gestore": "TUFO CARMINE  S.N.C. DI TUFO CARMINE E C.", "Bandiera": "Agip Eni", "Tipo impianto": "Altro", "Indirizzo": "VIALE ITALIA ANGOLO VIA ISONZO  20099", "Nome impianto": "TUFO SNC", "Comune": "SESTO SAN GIOVANNI", "idImpianto": 4272, "points": [{"type": "Feature", "properties": {}, "geometry": {"type": "Point", "coordinates": [9.233606457710266, 45.52644861308865]}}], "price": 2.049, "ultima_rilevazione": "09/06/2022 07:16:46"}, {"Gestore": "RAGOSA DOMENICO", "Bandiera": "Esso", "Tipo impianto": "Altro", "Indirizzo": "PIAZZALE ISTRIA 14 20159", "Nome impianto": "Stazione di servizio esso di Ragosa ", "Comune": "MILANO", "idImpianto": 23424, "points": [{"type": "Feature", "properties": {}, "geometry": {"type": "Point", "coordinates": [9.198801220832024, 45.502158695941546]}}], "price": 2.029, "ultima_rilevazione": "09/06/2022 07:25:12"}, {"Gestore": "VUOTTI ANTONIO", "Bandiera": "Agip Eni", "Tipo impianto": "Altro", "Indirizzo": "VIA ERITREA 65 20157", "Nome impianto": "Eni", "Comune": "MILANO", "idImpianto": 45219, "points": [{"type": "Feature", "properties": {}, "geometry": {"type": "Point", "coordinates": [9.13694977760315, 45.511988580308376]}}], "price": 2.024, "ultima_rilevazione": "09/06/2022 07:37:23"}, {"Gestore": "HYDRO CAR - S.R.L.", "Bandiera": "Socogas", "Tipo impianto": "Altro", "Indirizzo": "VIA CARLO AMORETTI  93 20157", "Nome impianto": "HYDRO CAR SRL", "Comune": "MILANO", "idImpianto": 47681, "points": [{"type": "Feature", "properties": {}, "geometry": {"type": "Point", "coordinates": [9.148152916455397, 45.52109863317232]}}], "price": 2.034, "ultima_rilevazione": "09/06/2022 07:50:08"}, {"Gestore": "L.M. DI LOIOLA MARINO", "Bandiera": "Esso", "Tipo impianto": "Altro", "Indirizzo": "Via Don G. Minzoni 1 20158", "Nome impianto": "Esso di L.M. di Loiola Marino", "Comune": "MILANO", "idImpianto": 48858, "points": [{"type": "Feature", "properties": {}, "geometry": {"type": "Point", "coordinates": [9.1690946006117, 45.50475200212683]}}], "price": 2.019, "ultima_rilevazione": "09/06/2022 07:53:16"}, {"Gestore": "DE NITTIS PASQUALE", "Bandiera": "Tamoil", "Tipo impianto": "Altro", "Indirizzo": "VIALE CAMPANIA 8 20900", "Nome impianto": "STAZIONE DI SERVIZIO TAMOIL", "Comune": "MONZA", "idImpianto": 9990, "points": [{"type": "Feature", "properties": {}, "geometry": {"type": "Point", "coordinates": [9.258126151520514, 45.5659023786019]}}], "price": 2.149, "ultima_rilevazione": "08/06/2022 15:12:04"}]}, "Gasolio": {"1": [{"Gestore": "STAZIONE AGIP DI VETRI PAOLO E C. S.A.S.", "Bandiera": "Agip Eni", "Tipo impianto": "Altro", "Indirizzo": "VIA ANTONIO GRAMSCI 109 20037", "Nome impianto": "staz.agip di vetri paolo ", "Comune": "PADERNO DUGNANO", "idImpianto": 13647, "points": [{"type": "Feature", "properties": {}, "geometry": {"type": "Point", "coordinates": [9.17061626441796, 45.558841461515954]}}], "price": 1.949, "ultima_rilevazione": "07/06/2022 07:34:34"}, {"Gestore": "NATALI SNC DI NATALI STEFANO E NATALI NICOLO'", "Bandiera": "Agip Eni", "Tipo impianto": "Altro", "Indirizzo": "VIA DON MINZONI SNC 20091", "Nome impianto": "ENI", "Comune": "BRESSO", "idImpianto": 12442, "points": [{"type": "Feature", "properties": {}, "geometry": {"type": "Point", "coordinates": [9.190016507283502, 45.54247778006184]}}], "price": 1.949, "ultima_rilevazione": "07/06/2022 07:44:12"}, {"Gestore": "STAZIONE DI SERVIZIO KUWAIT DI MUNARI MAURO", "Bandiera": "Q8", "Tipo impianto": "Altro", "Indirizzo": "via seveso s.n.c. snc 20095", "Nome impianto": "stazione di servizio Q8 di mauro Munari", "Comune": "CUSANO MILANINO", "idImpianto": 50046, "points": [{"type": "Feature", "properties": {}, "geometry": {"type": "Point", "coordinates": [9.172633886337277, 45.555949923215685]}}], "price": 1.989, "ultima_rilevazione": "08/06/2022 08:08:44"}, {"Gestore": "F.LLI TIRINATO NICOLA & PIETRO S.N.C.", "Bandiera": "Tamoil", "Tipo impianto": "Altro", "Indirizzo": "VIA SORMANI 38 20095", "Nome impianto": "Tamoil", "Comune": "CUSANO MILANINO", "idImpianto": 15514, "points": [{"type": "Feature", "properties": {}, "geometry": {"type": "Point", "coordinates": [9.186291620135307, 45.55366889427864]}}], "price": 2.049, "ultima_rilevazione": "08/06/2022 09:42:06"}, {"Gestore": "IP SERVICES S.R.L.", "Bandiera": "Api-Ip", "Tipo impianto": "Altro", "Indirizzo": "VIA  TOGLIATTI 2 20092", "Nome impianto": "CINISELLO BALSAMO - TOGLIATTI", "Comune": "CINISELLO BALSAMO", "idImpianto": 29861, "points": [{"type": "Feature", "properties": {}, "geometry": {"type": "Point", "coordinates": [9.202316093254126, 45.55392629457841]}}], "price": 1.919, "ultima_rilevazione": "08/06/2022 12:04:31"}, {"Gestore": "T.D.M. S.R.L.", "Bandiera": "Tamoil", "Tipo impianto": "Altro", "Indirizzo": "Viale Marconi/Ang. Via Manzoni  20095", "Nome impianto": "2517", "Comune": "CUSANO MILANINO", "idImpianto": 27870, "points": [{"type": "Feature", "properties": {}, "geometry": {"type": "Point", "coordinates": [9.17568951845169, 45.54620994598323]}}], "price": 1.979, "ultima_rilevazione": "08/06/2022 12:14:17"}, {"Gestore": "NUOVA SIDAP  S.R.L.", "Bandiera": "Api-Ip", "Tipo impianto": "Autostradale", "Indirizzo": "A52 TANG.LE NORD DI MILANO, Km. 10,9, Est 20092", "Nome impianto": "CINISELLO B. NORD", "Comune": "CINISELLO BALSAMO", "idImpianto": 43748, "points": [{"type": "Feature", "properties": {}, "geometry": {"type": "Point", "coordinates": [9.19825166463852, 45.57018517883253]}}], "price": 1.967, "ultima_rilevazione": "08/06/2022 16:00:05"}, {"Gestore": "IP SERVICES S.R.L.", "Bandiera": "Api-Ip", "Tipo impianto": "Altro", "Indirizzo": "VIA LUIGI CADORNA  20032", "Nome impianto": "CORMANO - CADORNA", "Comune": "CORMANO", "idImpianto": 27528, "points": [{"type": "Feature", "properties": {}, "geometry": {"type": "Point", "coordinates": [9.184189271163971, 45.54291596769146]}}], "price": 1.979, "ultima_rilevazione": "08/06/2022 16:01:31"}, {"Gestore": "CALOGERO LUCA", "Bandiera": "Api-Ip", "Tipo impianto": "Altro", "Indirizzo": "VIA TOGLIATTI 43 20092", "Nome impianto": "IP t", "Comune": "CINISELLO BALSAMO", "idImpianto": 46435, "points": [{"type": "Feature", "properties": {}, "geometry": {"type": "Point", "coordinates": [9.200220039963824, 45.55619380216169]}}], "price": 1.919, "ultima_rilevazione": "08/06/2022 16:48:37"}, {"Gestore": "SERVIZI E GESTIONI ZENIT S.R.L. IN SIGLA - ZENIT S.R.L.", "Bandiera": "Giap", "Tipo impianto": "Altro", "Indirizzo": "VIA SEVESO ANG. VIA LIBERTA' SNC 20095", "Nome impianto": "VIA SEVESO CUSAN", "Comune": "CUSANO MILANINO", "idImpianto": 12068, "points": [{"type": "Feature", "properties": {}, "geometry": {"type": "Point", "coordinates": [9.174054974204978, 45.5546165379325]}}], "price": 1.979, "ultima_rilevazione": "08/06/2022 17:56:51"}, {"Gestore": "COMMERCIALE PAGANONI S.P.A.", "Bandiera": "Pompe Bianche", "Tipo impianto": "Altro", "Indirizzo": "VIA XXV APRILE 245 20092", "Nome impianto": "COMMERCIALE PAGANONI PC18", "Comune": "CINISELLO BALSAMO", "idImpianto": 48139, "points": [{"type": "Feature", "properties": {}, "geometry": {"type": "Point", "coordinates": [9.196240983221193, 45.55346798912397]}}], "price": 1.949, "ultima_rilevazione": "09/06/2022 00:08:14"}, {"Gestore": "NIGRO SNC DI NIGRO ANTONINO E MAURO", "Bandiera": "Agip Eni", "Tipo impianto": "Altro", "Indirizzo": "VIA F. FILZI 9 20032", "Nome impianto": "NIGRO SNC Cormano", "Comune": "CORMANO", "idImpianto": 12665, "points": [{"type": "Feature", "properties": {}, "geometry": {"type": "Point", "coordinates": [9.166926741600037, 45.54489498527752]}}], "price": 1.969, "ultima_rilevazione": "09/06/2022 05:29:08"}, {"Gestore": "NIGRO SNC DI NIGRO ANTONINO E MAURO", "Bandiera": "Agip Eni", "Tipo impianto": "Strada Statale", "Indirizzo": "35 dei Giovi, Km. 132+300, Nord 20037", "Nome impianto": "enimilanomeda", "Comune": "PADERNO DUGNANO", "idImpianto": 50212, "points": [{"type": "Feature", "properties": {}, "geometry": {"type": "Point", "coordinates": [9.173606993586697, 45.559938200567736]}}], "price": 1.929, "ultima_rilevazione": "09/06/2022 05:29:52"}, {"Gestore": "CIARCIA SABATO", "Bandiera": "Q8", "Tipo impianto": "Altro", "Indirizzo": "VIA ANTONIO GRAMSCI 29 20032", "Nome impianto": "Stazione di servizio Q8", "Comune": "CORMANO", "idImpianto": 8627, "points": [{"type": "Feature", "properties": {}, "geometry": {"type": "Point", "coordinates": [9.168273688885506, 45.53951699110777]}}], "price": 1.999, "ultima_rilevazione": "09/06/2022 06:47:49"}, {"Gestore": "STAZIONE DI SERVIZIO DI DI BERNARDO IVANO", "Bandiera": "Agip Eni", "Tipo impianto": "Altro", "Indirizzo": "VIA SORMANI 29 20095", "Nome impianto": "Stazione di servizio di Di Bernardo Ivano", "Comune": "CUSANO MILANINO", "idImpianto": 51338, "points": [{"type": "Feature", "properties": {}, "geometry": {"type": "Point", "coordinates": [9.185928728641352, 45.54929389932906]}}], "price": 1.964, "ultima_rilevazione": "09/06/2022 06:49:25"}, {"Gestore": "SERVIZI & GESTIONI ITALIA S.R.L.", "Bandiera": "Q8", "Tipo impianto": "Altro", "Indirizzo": "S.PROV. 44  MILANO-MEDA  20032", "Nome impianto": "CORMANO S.PROV. 44  MILANO-MEDA", "Comune": "CORMANO", "idImpianto": 51187, "points": [{"type": "Feature", "properties": {}, "geometry": {"type": "Point", "coordinates": [9.164995610692491, 45.55296297937115]}}], "price": 1.979, "ultima_rilevazione": "09/06/2022 07:03:47"}], "3": [{"Gestore": "BR.IT ENERGY SRL", "Bandiera": "Q8", "Tipo impianto": "Altro", "Indirizzo": "VIA VIGANO DE' VIZZI  36 20092", "Nome impianto": "Q8 PV 1061", "Comune": "CINISELLO BALSAMO", "idImpianto": 51243, "points": [{"type": "Feature", "properties": {}, "geometry": {"type": "Point", "coordinates": [9.23158615430675, 45.56033578108916]}}], "price": 1.759, "ultima_rilevazione": "26/04/2022 08:56:11"}, {"Gestore": "F.LLI SARTORATO S.N.C. DI GABRIELE MARCO & C.", "Bandiera": "Agip Eni", "Tipo impianto": "Altro", "Indirizzo": "PIAZZA ITALIA  20091", "Nome impianto": "eni spa", "Comune": "BRESSO", "idImpianto": 13164, "points": [{"type": "Feature", "properties": {}, "geometry": {"type": "Point", "coordinates": [9.19575110077858, 45.53213298472479]}}], "price": 1.899, "ultima_rilevazione": "01/06/2022 09:45:56"}, {"Gestore": "Nuova Sidap SRL", "Bandiera": "Api-Ip", "Tipo impianto": "Autostradale", "Indirizzo": "A4 MILANO-BRESCIA, Km. 133+599, Est 20092", "Nome impianto": "LAMBRO SUD", "Comune": "CINISELLO BALSAMO", "idImpianto": 3548, "points": [{"type": "Feature", "properties": {}, "geometry": {"type": "Point", "coordinates": [9.208756966934176, 45.54819602199825]}}], "price": 1.959, "ultima_rilevazione": "01/06/2022 13:00:26"}, {"Gestore": "PROGETTI E SVILUPPO S.A.S. DI  MARAZZINA PAOLO E C.", "Bandiera": "KEROPETROL", "Tipo impianto": "Altro", "Indirizzo": "VIA MONFALCONE SNC 20092", "Nome impianto": "Keropetrol  Cinisello Balsamo MI", "Comune": "CINISELLO BALSAMO", "idImpianto": 46561, "points": [{"type": "Feature", "properties": {}, "geometry": {"type": "Point", "coordinates": [9.216780691950476, 45.5514147041983]}}], "price": 1.835, "ultima_rilevazione": "01/06/2022 14:50:57"}, {"Gestore": "EGI-2GO S.R.L.", "Bandiera": "Esso", "Tipo impianto": "Altro", "Indirizzo": "VIA ORNATO LUIGI 84 20162", "Nome impianto": "Mi - Ornato", "Comune": "MILANO", "idImpianto": 48154, "points": [{"type": "Feature", "properties": {}, "geometry": {"type": "Point", "coordinates": [9.192438058283791, 45.52110848287962]}}], "price": 1.889, "ultima_rilevazione": "03/06/2022 09:29:49"}, {"Gestore": "F.LLI SCURATTI AUTORIPARAZIONI S.N.C. DI DANIELE E STEFANO SCURAT TI", "Bandiera": "KEROPETROL", "Tipo impianto": "Altro", "Indirizzo": "VIA PER CINISELLO 8 20834", "Nome impianto": "F.lli scuratti", "Comune": "NOVA MILANESE", "idImpianto": 25385, "points": [{"type": "Feature", "properties": {}, "geometry": {"type": "Point", "coordinates": [9.204874733839231, 45.58543539394178]}}], "price": 1.949, "ultima_rilevazione": "04/06/2022 19:13:32"}, {"Gestore": "BARBIERO GIANCARLO", "Bandiera": "Api-Ip", "Tipo impianto": "Altro", "Indirizzo": "VIA MARCHIONNI 14 20161", "Nome impianto": "TOTALERG", "Comune": "MILANO", "idImpianto": 9046, "points": [{"type": "Feature", "properties": {}, "geometry": {"type": "Point", "coordinates": [9.17459785938263, 45.52648018196772]}}], "price": 1.869, "ultima_rilevazione": "06/06/2022 06:56:06"}, {"Gestore": "LOMBARDI STEFANO", "Bandiera": "Agip Eni", "Tipo impianto": "Altro", "Indirizzo": "VIA TOGLIATTI 47 20037", "Nome impianto": "stazione di servizio eni di lombardi stefano", "Comune": "PADERNO DUGNANO", "idImpianto": 44608, "points": [{"type": "Feature", "properties": {}, "geometry": {"type": "Point", "coordinates": [9.15239831590361, 45.57772291146348]}}], "price": 1.944, "ultima_rilevazione": "07/06/2022 08:45:29"}, {"Gestore": "FERA MARCO", "Bandiera": "Agip Eni", "Tipo impianto": "Altro", "Indirizzo": "via robecco  27 20092", "Nome impianto": "eni", "Comune": "CINISELLO BALSAMO", "idImpianto": 40748, "points": [{"type": "Feature", "properties": {}, "geometry": {"type": "Point", "coordinates": [9.220705364417997, 45.55809624391139]}}], "price": 1.924, "ultima_rilevazione": "07/06/2022 09:54:54"}, {"Gestore": "LEVAGGI ROBERTO", "Bandiera": "Agip Eni", "Tipo impianto": "Altro", "Indirizzo": "Viale Fulvio Testi 25 20099", "Nome impianto": "ENI 2480", "Comune": "SESTO SAN GIOVANNI", "idImpianto": 38484, "points": [{"type": "Feature", "properties": {}, "geometry": {"type": "Point", "coordinates": [9.217412733729589, 45.53491661675064]}}], "price": 1.929, "ultima_rilevazione": "07/06/2022 10:11:52"}, {"Gestore": "KUMAR PARMINDER", "Bandiera": "Agip Eni", "Tipo impianto": "Altro", "Indirizzo": "VIA COMASINA 19 20161", "Nome impianto": "ENI", "Comune": "MILANO", "idImpianto": 35348, "points": [{"type": "Feature", "properties": {}, "geometry": {"type": "Point", "coordinates": [9.165810948410012, 45.52429645902771]}}], "price": 1.949, "ultima_rilevazione": "07/06/2022 11:20:58"}, {"Gestore": "SERVIZI & GESTIONI ITALIA S.R.L.", "Bandiera": "Q8", "Tipo impianto": "Altro", "Indirizzo": "VIA PELIZZA DA VOLPEDO  20092", "Nome impianto": "CINISELLO BALSAMO VIA PELIZZA DA VOLPEDO", "Comune": "CINISELLO BALSAMO", "idImpianto": 42916, "points": [{"type": "Feature", "properties": {}, "geometry": {"type": "Point", "coordinates": [9.23242891226846, 45.555156760928725]}}], "price": 1.979, "ultima_rilevazione": "07/06/2022 14:08:54"}, {"Gestore": "LOR GAS DI OLIVARES RODRIGUEZ JUAN CARLOS", "Bandiera": "Api-Ip", "Tipo impianto": "Altro", "Indirizzo": "via ugo foscolo  20900", "Nome impianto": "totalerg", "Comune": "MONZA", "idImpianto": 11211, "points": [{"type": "Feature", "properties": {}, "geometry": {"type": "Point", "coordinates": [9.22737032175064, 45.57082423144908]}}], "price": 1.904, "ultima_rilevazione": "07/06/2022 17:35:36"}, {"Gestore": "SERVIZI & GESTIONI ITALIA S.R.L.", "Bandiera": "Q8", "Tipo impianto": "Altro", "Indirizzo": "VIA U.GIORDANO S/N 20092", "Nome impianto": "CINISELLO BALSAMO-VIA U.GIORDANO", "Comune": "CINISELLO BALSAMO", "idImpianto": 11676, "points": [{"type": "Feature", "properties": {}, "geometry": {"type": "Point", "coordinates": [9.219528746032664, 45.55855024253631]}}], "price": 1.919, "ultima_rilevazione": "08/06/2022 01:43:14"}, {"Gestore": "SERVIZI & GESTIONI ITALIA S.R.L.", "Bandiera": "Q8", "Tipo impianto": "Altro", "Indirizzo": "VIA LINCOLN ANG.VIA ROBECCO S/N 20092", "Nome impianto": "CINISELLO BALSAMO-VIA LINCOLN ANG.VIA ROBECCO", "Comune": "CINISELLO BALSAMO", "idImpianto": 11680, "points": [{"type": "Feature", "properties": {}, "geometry": {"type": "Point", "coordinates": [9.227057084655826, 45.55971971323913]}}], "price": 1.919, "ultima_rilevazione": "08/06/2022 01:43:18"}, {"Gestore": "SERVIZI & GESTIONI ITALIA S.R.L.", "Bandiera": "Q8", "Tipo impianto": "Altro", "Indirizzo": "VIALE F.TESTI 132 20092", "Nome impianto": "CINISELLO BALSAMO-VIALE F.TESTI 132", "Comune": "CINISELLO BALSAMO", "idImpianto": 11681, "points": [{"type": "Feature", "properties": {}, "geometry": {"type": "Point", "coordinates": [9.220952885913904, 45.54087659053977]}}], "price": 1.919, "ultima_rilevazione": "08/06/2022 01:43:18"}, {"Gestore": "SERVIZI & GESTIONI ITALIA srl", "Bandiera": "Q8", "Tipo impianto": "Altro", "Indirizzo": "VIA ROBECCO 69 20092", "Nome impianto": "CINISELLO BALSAMO ROBECCO 69", "Comune": "CINISELLO BALSAMO", "idImpianto": 6449, "points": [{"type": "Feature", "properties": {}, "geometry": {"type": "Point", "coordinates": [9.22493409451215, 45.5589375284437]}}], "price": 1.919, "ultima_rilevazione": "08/06/2022 01:44:00"}, {"Gestore": "TOREGAS S.A.S. DI PAROZZI RINALDO & C.", "Bandiera": "Api-Ip", "Tipo impianto": "Altro", "Indirizzo": "VIA CARDUCCI SNC 20091", "Nome impianto": "TOREGAS", "Comune": "BRESSO", "idImpianto": 29239, "points": [{"type": "Feature", "properties": {}, "geometry": {"type": "Point", "coordinates": [9.20464069428715, 45.5327732952849]}}], "price": 1.869, "ultima_rilevazione": "08/06/2022 06:56:22"}, {"Gestore": "SERVIZI & GESTIONI ITALIA S.R.L.", "Bandiera": "Q8", "Tipo impianto": "Altro", "Indirizzo": "VIA MATTEOTTI S/N 20091", "Nome impianto": "BRESSO-VIA MATTEOTTI", "Comune": "BRESSO", "idImpianto": 11687, "points": [{"type": "Feature", "properties": {}, "geometry": {"type": "Point", "coordinates": [9.198049620866756, 45.53619539306639]}}], "price": 1.959, "ultima_rilevazione": "08/06/2022 07:07:18"}, {"Gestore": "SERVIZI & GESTIONI ITALIA S.R.L.", "Bandiera": "Q8", "Tipo impianto": "Altro", "Indirizzo": "VIA RISORGIMENTO 120 20092", "Nome impianto": "CINISELLO BALSAMO-VIA RISORGIMENTO 120", "Comune": "CINISELLO BALSAMO", "idImpianto": 11709, "points": [{"type": "Feature", "properties": {}, "geometry": {"type": "Point", "coordinates": [9.211318192625072, 45.5656530402386]}}], "price": 1.999, "ultima_rilevazione": "08/06/2022 07:07:20"}, {"Gestore": "SERVIZI & GESTIONI ITALIA srl", "Bandiera": "Q8", "Tipo impianto": "Altro", "Indirizzo": "V MATTEOTTI 104 20099", "Nome impianto": "SESTO SAN GIOVANNI V MATTEOTTI 104", "Comune": "SESTO SAN GIOVANNI", "idImpianto": 6445, "points": [{"type": "Feature", "properties": {}, "geometry": {"type": "Point", "coordinates": [9.22621838836062, 45.53662892477784]}}], "price": 1.939, "ultima_rilevazione": "08/06/2022 07:07:27"}, {"Gestore": "STAZIONE SERVIZIO Q8 DI DI PADOVA FRANCESCO E MATTEO S.N.C.", "Bandiera": "Q8", "Tipo impianto": "Altro", "Indirizzo": "VIA GIUSEPPE GARIBALDI 130 20834", "Nome impianto": "stazione di servizio di padova francesco e matteo", "Comune": "NOVA MILANESE", "idImpianto": 7752, "points": [{"type": "Feature", "properties": {}, "geometry": {"type": "Point", "coordinates": [9.195328474204985, 45.585064792838175]}}], "price": 1.939, "ultima_rilevazione": "08/06/2022 07:25:20"}, {"Gestore": "CALOGERO LUCA", "Bandiera": "Api-Ip", "Tipo impianto": "Altro", "Indirizzo": "VIA DANTE ALIGHIERI 84 20092", "Nome impianto": "Stazione di servizio IP d", "Comune": "CINISELLO BALSAMO", "idImpianto": 8744, "points": [{"type": "Feature", "properties": {}, "geometry": {"type": "Point", "coordinates": [9.209659200663737, 45.55304702467864]}}], "price": 2.066, "ultima_rilevazione": "08/06/2022 08:03:35"}, {"Gestore": "S.M.C. SNC DI AGNANI MASSIMO E STEFANO", "Bandiera": "Beyfin", "Tipo impianto": "Strada Statale", "Indirizzo": "Statale 35 dei Giovi, Km. 134, dir. sud", "Nome impianto": "S.M.C. SNC DI AGNANI MASSIMO E STEFANO", "Comune": "PADERNO DUGNANO", "idImpianto": 24113, "points": [{"type": "Feature", "properties": {}, "geometry": {"type": "Point", "coordinates": [9.17557418346405, 45.57421087244983]}}], "price": 1.899, "ultima_rilevazione": "08/06/2022 08:57:06"}, {"Gestore": "COSTANTIN DISTRIBUZIONE E SERVIZI SRL", "Bandiera": "Costantin", "Tipo impianto": "Altro", "Indirizzo": "Vincenzo da Seregno 38 20161", "Nome impianto": "COSTANTIN MILANO", "Comune": "MILANO", "idImpianto": 33491, "points": [{"type": "Feature", "properties": {}, "geometry": {"type": "Point", "coordinates": [9.174699949737487, 45.52269771621936]}}], "price": 1.899, "ultima_rilevazione": "08/06/2022 09:52:05"}, {"Gestore": "NUOVA SIDAP  S.R.L.", "Bandiera": "Esso", "Tipo impianto": "Altro", "Indirizzo": "VIA REALI 106 20037", "Nome impianto": "Paderno Dugnano", "Comune": "PADERNO DUGNANO", "idImpianto": 43746, "points": [{"type": "Feature", "properties": {}, "geometry": {"type": "Point", "coordinates": [9.146991968154907, 45.57574929016682]}}], "price": 1.952, "ultima_rilevazione": "08/06/2022 11:16:39"}, {"Gestore": "IP SERVICES S.R.L.", "Bandiera": "Api-Ip", "Tipo impianto": "Altro", "Indirizzo": "VIA BRODOLINI 14 20026", "Nome impianto": "NOVATE MILANESE", "Comune": "NOVATE MILANESE", "idImpianto": 39752, "points": [{"type": "Feature", "properties": {}, "geometry": {"type": "Point", "coordinates": [9.146490320563316, 45.53384295647024]}}], "price": 1.999, "ultima_rilevazione": "08/06/2022 12:05:09"}, {"Gestore": "IP SERVICES S.R.L.", "Bandiera": "Api-Ip", "Tipo impianto": "Autostradale", "Indirizzo": "Autostrada A4 MILANO-BRESCIA, Km. 383, dir. Torino 15077", "Nome impianto": "LAMBRO NORD", "Comune": "CINISELLO BALSAMO", "idImpianto": 36458, "points": [{"type": "Feature", "properties": {}, "geometry": {"type": "Point", "coordinates": [9.207860525131196, 45.54869436492454]}}], "price": 2.049, "ultima_rilevazione": "08/06/2022 12:06:00"}, {"Gestore": "T.D.M. S.R.L.", "Bandiera": "Tamoil", "Tipo impianto": "Altro", "Indirizzo": "VIA LITTA MODIGNANI 50 20161", "Nome impianto": "8050", "Comune": "MILANO", "idImpianto": 24527, "points": [{"type": "Feature", "properties": {}, "geometry": {"type": "Point", "coordinates": [9.159154501480089, 45.52284512806989]}}], "price": 1.929, "ultima_rilevazione": "08/06/2022 12:08:11"}, {"Gestore": "KEROPETROL S.P.A.", "Bandiera": "KEROPETROL", "Tipo impianto": "Altro", "Indirizzo": "Viale Fulvio Testi SNC 20092", "Nome impianto": "KEROPETROL SPA CINISELLO BALSAMO", "Comune": "CINISELLO BALSAMO", "idImpianto": 40566, "points": [{"type": "Feature", "properties": {}, "geometry": {"type": "Point", "coordinates": [9.225009977817535, 45.54521808386223]}}], "price": 1.949, "ultima_rilevazione": "08/06/2022 14:46:09"}, {"Gestore": "AUTOSERVICE DI GIOVANNI D'ALOIA S.A.S.", "Bandiera": "Tamoil", "Tipo impianto": "Altro", "Indirizzo": "VIA ORNATO LUIGI 158 20162", "Nome impianto": "TAMOIL 2918", "Comune": "MILANO", "idImpianto": 15820, "points": [{"type": "Feature", "properties": {}, "geometry": {"type": "Point", "coordinates": [9.193408191204073, 45.525911187396126]}}], "price": 1.929, "ultima_rilevazione": "08/06/2022 15:04:08"}, {"Gestore": "IP SERVICES S.R.L.", "Bandiera": "Api-Ip", "Tipo impianto": "Altro", "Indirizzo": "VIALE FULVIO TESTI  51 20092", "Nome impianto": "CINISELLO BALSAMO - FULVIO TESTI 51", "Comune": "CINISELLO BALSAMO", "idImpianto": 28047, "points": [{"type": "Feature", "properties": {}, "geometry": {"type": "Point", "coordinates": [9.220614752149572, 45.54258215365598]}}], "price": 1.939, "ultima_rilevazione": "08/06/2022 16:03:31"}, {"Gestore": "IP SERVICES S.R.L.", "Bandiera": "Api-Ip", "Tipo impianto": "Altro", "Indirizzo": "Via Fulvio Testi 196 20092", "Nome impianto": "CINISELLO BALSAMO", "Comune": "CINISELLO BALSAMO", "idImpianto": 5529, "points": [{"type": "Feature", "properties": {}, "geometry": {"type": "Point", "coordinates": [9.229324635581976, 45.54657702743668]}}], "price": 1.939, "ultima_rilevazione": "08/06/2022 16:05:40"}, {"Gestore": "GS SPA", "Bandiera": "Q8", "Tipo impianto": "Altro", "Indirizzo": "S.S. 35 dei Giovi  20037", "Nome impianto": "Carrefour Q8 Paderno", "Comune": "PADERNO DUGNANO", "idImpianto": 48742, "points": [{"type": "Feature", "properties": {}, "geometry": {"type": "Point", "coordinates": [9.17677844662704, 45.574291657480615]}}], "price": 1.919, "ultima_rilevazione": "08/06/2022 16:22:33"}, {"Gestore": "SERVIZI E GESTIONI ZENIT S.R.L. IN SIGLA - ZENIT S.R.L.", "Bandiera": "Esso", "Tipo impianto": "Altro", "Indirizzo": "VIA PACE 38 20021", "Nome impianto": "VIA PACE BOLLATE", "Comune": "BOLLATE", "idImpianto": 28598, "points": [{"type": "Feature", "properties": {}, "geometry": {"type": "Point", "coordinates": [9.131144732236862, 45.55917463931419]}}], "price": 1.929, "ultima_rilevazione": "08/06/2022 17:56:54"}, {"Gestore": "PROVVIDO SALVATORE", "Bandiera": "Retitalia", "Tipo impianto": "Altro", "Indirizzo": "VIA ABRAMO LINCOLN 7 20092", "Nome impianto": "Retitalia", "Comune": "CINISELLO BALSAMO", "idImpianto": 12462, "points": [{"type": "Feature", "properties": {}, "geometry": {"type": "Point", "coordinates": [9.227097333712209, 45.55886811119226]}}], "price": 1.939, "ultima_rilevazione": "08/06/2022 21:24:24"}, {"Gestore": "CASTELLUCCIO SERVICE S.A.S. DI NESCI ERNESTO & C.", "Bandiera": "Retitalia", "Tipo impianto": "Altro", "Indirizzo": "Via Papa Giovanni XXIII,  26 20091", "Nome impianto": "Retitalia PV 48619", "Comune": "BRESSO", "idImpianto": 49812, "points": [{"type": "Feature", "properties": {}, "geometry": {"type": "Point", "coordinates": [9.189595364418013, 45.52885812097869]}}], "price": 1.939, "ultima_rilevazione": "08/06/2022 21:27:14"}, {"Gestore": "NUOVA SIDAP  S.R.L.", "Bandiera": "Esso", "Tipo impianto": "Autostradale", "Indirizzo": "A4 MILANO-BRESCIA, Km. 3,5, Ovest 20026", "Nome impianto": "NOVATE NORD", "Comune": "NOVATE MILANESE", "idImpianto": 43747, "points": [{"type": "Feature", "properties": {}, "geometry": {"type": "Point", "coordinates": [9.14892315864563, 45.52995078468612]}}], "price": 1.932, "ultima_rilevazione": "08/06/2022 23:30:09"}, {"Gestore": "ACEMA S.P.A.", "Bandiera": "OIL ONE", "Tipo impianto": "Altro", "Indirizzo": "Via Saint Denis 1 20092", "Nome impianto": "OILONE CINISELLO BALSAMO", "Comune": "CINISELLO BALSAMO", "idImpianto": 27082, "points": [{"type": "Feature", "properties": {}, "geometry": {"type": "Point", "coordinates": [9.22249250118864, 45.54084405659239]}}], "price": 1.909, "ultima_rilevazione": "09/06/2022 07:16:12"}, {"Gestore": "SERVIZI & GESTIONI ITALIA srl", "Bandiera": "Q8", "Tipo impianto": "Altro", "Indirizzo": "VIA MONTE ORTIGARA 19 20092", "Nome impianto": "CINISELLO BALSAMO VIA MONTE ORTIGARA  19", "Comune": "CINISELLO BALSAMO", "idImpianto": 6434, "points": [{"type": "Feature", "properties": {}, "geometry": {"type": "Point", "coordinates": [9.211831747221368, 45.559275424392986]}}], "price": 1.919, "ultima_rilevazione": "09/06/2022 01:04:59"}, {"Gestore": "SERVIZI & GESTIONI ITALIA srl", "Bandiera": "Q8", "Tipo impianto": "Altro", "Indirizzo": "VIA XX SETTEMBRE SNC 20091", "Nome impianto": "BRESSO VIA XX SETTEMBRE", "Comune": "BRESSO", "idImpianto": 6442, "points": [{"type": "Feature", "properties": {}, "geometry": {"type": "Point", "coordinates": [9.200026722090117, 45.52954012900832]}}], "price": 1.929, "ultima_rilevazione": "09/06/2022 01:05:00"}, {"Gestore": "SERVIZI & GESTIONI ITALIA srl", "Bandiera": "Q8", "Tipo impianto": "Altro", "Indirizzo": "VIA OSPITALETTO SNC 20021", "Nome impianto": "BOLLATE VIA OSPITALETTO", "Comune": "BOLLATE", "idImpianto": 6447, "points": [{"type": "Feature", "properties": {}, "geometry": {"type": "Point", "coordinates": [9.144175796364609, 45.546976439492525]}}], "price": 1.919, "ultima_rilevazione": "09/06/2022 01:05:00"}, {"Gestore": "STAZIONE DI SERVIZIO SNC DI DE NARDI ROBERTO & C.", "Bandiera": "Esso", "Tipo impianto": "Altro", "Indirizzo": "Viale fulvio testi 141 20092", "Nome impianto": "Stazione di servizio snc", "Comune": "CINISELLO BALSAMO", "idImpianto": 20204, "points": [{"type": "Feature", "properties": {}, "geometry": {"type": "Point", "coordinates": [9.22626298954924, 45.546465100148346]}}], "price": 1.959, "ultima_rilevazione": "09/06/2022 07:12:53"}, {"Gestore": "F.LLI CERUTI S.N.C. DI ANGELO E ATTILIO CERUTI", "Bandiera": "Tamoil", "Tipo impianto": "Altro", "Indirizzo": "STRADA PROVINCIALE 35 MILANO MEDA  20037", "Nome impianto": "TAMOIL", "Comune": "PADERNO DUGNANO", "idImpianto": 16979, "points": [{"type": "Feature", "properties": {}, "geometry": {"type": "Point", "coordinates": [9.17536363005638, 45.583678765520126]}}], "price": 1.919, "ultima_rilevazione": "09/06/2022 07:22:04"}, {"Gestore": "VUOTTI ANTONIO", "Bandiera": "Retitalia", "Tipo impianto": "Altro", "Indirizzo": "VIA VINCENZO DA SEREGNO 2 20161", "Nome impianto": "Rete Italia", "Comune": "MILANO", "idImpianto": 45218, "points": [{"type": "Feature", "properties": {}, "geometry": {"type": "Point", "coordinates": [9.170301705598831, 45.5198193255777]}}], "price": 1.999, "ultima_rilevazione": "09/06/2022 07:37:04"}], "5": [{"Gestore": "EUROGAS NOVA S.R.L.", "Bandiera": "Pompe Bianche", "Tipo impianto": "Altro", "Indirizzo": "Via G. A. Diaz 31 20834", "Nome impianto": "EUROGAS", "Comune": "NOVA MILANESE", "idImpianto": 49274, "points": [{"type": "Feature", "properties": {}, "geometry": {"type": "Point", "coordinates": [9.200202285811043, 45.59990726284961]}}], "price": 1.539, "ultima_rilevazione": "06/10/2021 00:08:48"}, {"Gestore": "ALCA S.N.C. DI TROIANO E LUPOLI", "Bandiera": "Q8", "Tipo impianto": "Altro", "Indirizzo": "VIALE FULVIO TESTI 214 20092", "Nome impianto": "ALCA s.n.c.", "Comune": "CINISELLO BALSAMO", "idImpianto": 31194, "points": [{"type": "Feature", "properties": {}, "geometry": {"type": "Point", "coordinates": [9.233167916536331, 45.54780119027294]}}], "price": 1.599, "ultima_rilevazione": "15/11/2021 08:58:13"}, {"Gestore": "CASOLO STEFANO", "Bandiera": "Agip Eni", "Tipo impianto": "Altro", "Indirizzo": "Via risorgimento 70/1 20037", "Nome impianto": "Eni di Casolo Stefano", "Comune": "PADERNO DUGNANO", "idImpianto": 39661, "points": [{"type": "Feature", "properties": {}, "geometry": {"type": "Point", "coordinates": [9.144410267472267, 45.57794022591459]}}], "price": 2.194, "ultima_rilevazione": "07/06/2022 08:27:05"}, {"Gestore": "KE.RO IMPIANTI S.R.L.", "Bandiera": "KEROPETROL", "Tipo impianto": "Altro", "Indirizzo": "VIA GIOVANNI DURANDO 3 20158", "Nome impianto": "KE.RO IMPIANTI VIA DURANDO", "Comune": "MILANO", "idImpianto": 7908, "points": [{"type": "Feature", "properties": {}, "geometry": {"type": "Point", "coordinates": [9.164146879832856, 45.50381188643153]}}], "price": 1.749, "ultima_rilevazione": "08/06/2022 16:50:29"}, {"Gestore": "EGI-2GO S.R.L.", "Bandiera": "Esso", "Tipo impianto": "Altro", "Indirizzo": "VIA A. LOCATELLI 10 20834", "Nome impianto": "Nova Milanese", "Comune": "NOVA MILANESE", "idImpianto": 48753, "points": [{"type": "Feature", "properties": {}, "geometry": {"type": "Point", "coordinates": [9.195352999999995, 45.59261673865961]}}], "price": 1.839, "ultima_rilevazione": "25/05/2022 17:08:35"}, {"Gestore": "EGI-2GO S.R.L.", "Bandiera": "Esso", "Tipo impianto": "Altro", "Indirizzo": "VIA G. MAZZINI 13 20835", "Nome impianto": "Muggio", "Comune": "MUGGIO'", "idImpianto": 48001, "points": [{"type": "Feature", "properties": {}, "geometry": {"type": "Point", "coordinates": [9.236082046627049, 45.59281963065065]}}], "price": 1.789, "ultima_rilevazione": "25/05/2022 17:09:38"}, {"Gestore": "EGI-2GO S.R.L.", "Bandiera": "Esso", "Tipo impianto": "Altro", "Indirizzo": "PIAZZALE ISTRIA 14 20125", "Nome impianto": "piazzale Istria", "Comune": "MILANO", "idImpianto": 48002, "points": [{"type": "Feature", "properties": {}, "geometry": {"type": "Point", "coordinates": [9.198785752149572, 45.50224604966351]}}], "price": 1.869, "ultima_rilevazione": "26/05/2022 08:49:06"}, {"Gestore": "DALLAVALLE S.A.S. DI BONFANTI MASSIMO & C.", "Bandiera": "Q8", "Tipo impianto": "Altro", "Indirizzo": "VIA ROMAGNA  20900", "Nome impianto": "DALLAVALLE S.A.S. DI BONFANTI MASSIMO & C.", "Comune": "MONZA", "idImpianto": 38696, "points": [{"type": "Feature", "properties": {}, "geometry": {"type": "Point", "coordinates": [9.253979846835136, 45.573366739548135]}}], "price": 1.849, "ultima_rilevazione": "30/05/2022 06:56:23"}, {"Gestore": "GIO & ERY DI ERIDONA PRENGA", "Bandiera": "Esso", "Tipo impianto": "Altro", "Indirizzo": "VIALE TESTI FULVIO 200 20126", "Nome impianto": "esso ", "Comune": "MILANO", "idImpianto": 43730, "points": [{"type": "Feature", "properties": {}, "geometry": {"type": "Point", "coordinates": [9.206934658895534, 45.5165665780121]}}], "price": 1.967, "ultima_rilevazione": "01/06/2022 17:18:09"}, {"Gestore": "SCALI ROSSELLA", "Bandiera": "Agip Eni", "Tipo impianto": "Altro", "Indirizzo": "via vialba 34 20026", "Nome impianto": "AGIP ", "Comune": "NOVATE MILANESE", "idImpianto": 11327, "points": [{"type": "Feature", "properties": {}, "geometry": {"type": "Point", "coordinates": [9.134978950023651, 45.5289443807462]}}], "price": 1.869, "ultima_rilevazione": "03/06/2022 09:10:37"}, {"Gestore": "PB6 S.A.S. DI PARENTE VITO & C.", "Bandiera": "Pompe Bianche", "Tipo impianto": "Altro", "Indirizzo": "VIA PER CRESCENZAGO 6 20099", "Nome impianto": "Petrol Outlet", "Comune": "SESTO SAN GIOVANNI", "idImpianto": 46708, "points": [{"type": "Feature", "properties": {}, "geometry": {"type": "Point", "coordinates": [9.241200367124408, 45.52200318608135]}}], "price": 1.889, "ultima_rilevazione": "06/06/2022 07:52:14"}, {"Gestore": "NOCE SAMUELE", "Bandiera": "Api-Ip", "Tipo impianto": "Altro", "Indirizzo": "VIA VITTORIO VENETO 25 20834", "Nome impianto": "Italiana Petroli", "Comune": "NOVA MILANESE", "idImpianto": 37257, "points": [{"type": "Feature", "properties": {}, "geometry": {"type": "Point", "coordinates": [9.201848411045034, 45.5914146691208]}}], "price": 1.989, "ultima_rilevazione": "06/06/2022 08:28:22"}, {"Gestore": "NASSER PETROL SOCIETA' A RESPONSABILITA' LIMITATA SEMPLIFICATA", "Bandiera": "KEROPETROL", "Tipo impianto": "Altro", "Indirizzo": "VIALE Fratello Casiraghi 270 20099", "Nome impianto": "keropetrol", "Comune": "SESTO SAN GIOVANNI", "idImpianto": 50167, "points": [{"type": "Feature", "properties": {}, "geometry": {"type": "Point", "coordinates": [9.23442288458464, 45.54196656139872]}}], "price": 1.939, "ultima_rilevazione": "06/06/2022 20:17:36"}, {"Gestore": "F.LLI PUPPIO SNC DI PUPPIO PASQUALE E C.", "Bandiera": "Agip Eni", "Tipo impianto": "Altro", "Indirizzo": "VIALE GRAMSCI ANG. VIA MONTENERO  20099", "Nome impianto": "F.LLI PUPPIO SNC", "Comune": "SESTO SAN GIOVANNI", "idImpianto": 12374, "points": [{"type": "Feature", "properties": {}, "geometry": {"type": "Point", "coordinates": [9.24358695745468, 45.546936861949234]}}], "price": 1.924, "ultima_rilevazione": "07/06/2022 08:03:30"}, {"Gestore": "LUCARELLI LEONARDO", "Bandiera": "Agip Eni", "Tipo impianto": "Altro", "Indirizzo": "VIALE CAMPANIA 64, 20900", "Nome impianto": "leonardo lucarelli", "Comune": "MONZA", "idImpianto": 24973, "points": [{"type": "Feature", "properties": {}, "geometry": {"type": "Point", "coordinates": [9.252105412372655, 45.56871310184942]}}], "price": 1.969, "ultima_rilevazione": "07/06/2022 08:48:24"}, {"Gestore": "BRAMBILLA S.N.C. DI GABRIELE BRAMBILLA & C.", "Bandiera": "Agip Eni", "Tipo impianto": "Altro", "Indirizzo": "VIALE LOMBARDIA 224 20052", "Nome impianto": "AGIP di BRAMBILLA S.N.C.", "Comune": "MONZA", "idImpianto": 6254, "points": [{"type": "Feature", "properties": {}, "geometry": {"type": "Point", "coordinates": [9.244179725646973, 45.56768653673911]}}], "price": 1.969, "ultima_rilevazione": "07/06/2022 08:56:34"}, {"Gestore": "ZAMBELLI ROBERTO", "Bandiera": "Agip Eni", "Tipo impianto": "Altro", "Indirizzo": "VIALE MONZA 166 20127", "Nome impianto": "ENI DI ZAMBELLI ROBERTO", "Comune": "MILANO", "idImpianto": 12747, "points": [{"type": "Feature", "properties": {}, "geometry": {"type": "Point", "coordinates": [9.223346854631018, 45.50724104566137]}}], "price": 1.929, "ultima_rilevazione": "07/06/2022 09:13:44"}, {"Gestore": "SCARFONE COSIMO", "Bandiera": "Agip Eni", "Tipo impianto": "Altro", "Indirizzo": "mazzini  20835", "Nome impianto": "eni", "Comune": "MUGGIO'", "idImpianto": 41512, "points": [{"type": "Feature", "properties": {}, "geometry": {"type": "Point", "coordinates": [9.233100190758703, 45.59301366559917]}}], "price": 1.949, "ultima_rilevazione": "07/06/2022 10:41:22"}, {"Gestore": "TECNISERVICE - S.N.C. DI IERARDI SIMONE & C.", "Bandiera": "Api-Ip", "Tipo impianto": "Altro", "Indirizzo": "VIALE MONZA 280 20128", "Nome impianto": "TECNISERVICE SNC", "Comune": "MILANO", "idImpianto": 18859, "points": [{"type": "Feature", "properties": {}, "geometry": {"type": "Point", "coordinates": [9.226599896958987, 45.51816621244278]}}], "price": 1.929, "ultima_rilevazione": "07/06/2022 15:32:03"}, {"Gestore": "FOLTRAN MARCO", "Bandiera": "Api-Ip", "Tipo impianto": "Altro", "Indirizzo": "Via Combattenti 4 20835", "Nome impianto": "IP", "Comune": "MUGGIO'", "idImpianto": 10320, "points": [{"type": "Feature", "properties": {}, "geometry": {"type": "Point", "coordinates": [9.230070086508247, 45.57588091184567]}}], "price": 1.949, "ultima_rilevazione": "07/06/2022 16:10:09"}, {"Gestore": "COLELLA RAFFAELE", "Bandiera": "Esso", "Tipo impianto": "Altro", "Indirizzo": "VIALE SUZZANI 12 20126", "Nome impianto": "COLELLA RAFFAELE", "Comune": "MILANO", "idImpianto": 15350, "points": [{"type": "Feature", "properties": {}, "geometry": {"type": "Point", "coordinates": [9.197736606001854, 45.506036549658646]}}], "price": 1.979, "ultima_rilevazione": "07/06/2022 17:51:50"}, {"Gestore": "GM S.A.S. DI CALANDRA GIOVANNI & C.", "Bandiera": "Api-Ip", "Tipo impianto": "Strada Statale", "Indirizzo": "527 Bustese, Km. 6+829, Sud-Est 20814", "Nome impianto": "IP", "Comune": "VAREDO", "idImpianto": 48651, "points": [{"type": "Feature", "properties": {}, "geometry": {"type": "Point", "coordinates": [9.16818677389342, 45.59807912912228]}}], "price": 1.929, "ultima_rilevazione": "07/06/2022 21:34:26"}, {"Gestore": "DEL GIUDICE BONAVENTURA", "Bandiera": "Q8", "Tipo impianto": "Altro", "Indirizzo": "VIA BOLLATE 68 20026", "Nome impianto": "Stazione di Servizio n\u00b0 1131 Q8 Outlet", "Comune": "NOVATE MILANESE", "idImpianto": 30023, "points": [{"type": "Feature", "properties": {}, "geometry": {"type": "Point", "coordinates": [9.130849689245224, 45.53807566917228]}}], "price": 1.899, "ultima_rilevazione": "07/06/2022 23:03:06"}, {"Gestore": "SERVIZI & GESTIONI ITALIA S.R.L.", "Bandiera": "Q8", "Tipo impianto": "Altro", "Indirizzo": "VIA BETTOLA - ANGOLO VIA CASTALDI 32 20092", "Nome impianto": "CINISELLO BALSAMO-VIA BETTOLA 32 - ANGOLO VIA CASTALDI", "Comune": "CINISELLO BALSAMO", "idImpianto": 11710, "points": [{"type": "Feature", "properties": {}, "geometry": {"type": "Point", "coordinates": [9.243809580802916, 45.556688014194734]}}], "price": 1.959, "ultima_rilevazione": "08/06/2022 01:43:21"}, {"Gestore": "SERVIZI & GESTIONI ITALIA S.R.L.", "Bandiera": "Q8", "Tipo impianto": "Altro", "Indirizzo": "V.LE ROMAGNA 42 20052", "Nome impianto": "MONZA V.LE ROMAGNA 42", "Comune": "MONZA", "idImpianto": 6439, "points": [{"type": "Feature", "properties": {}, "geometry": {"type": "Point", "coordinates": [9.248283505439758, 45.572231571073054]}}], "price": 1.939, "ultima_rilevazione": "08/06/2022 01:43:25"}, {"Gestore": "SERVIZI & GESTIONI ITALIA srl", "Bandiera": "Q8", "Tipo impianto": "Altro", "Indirizzo": "VIA BOVISASCA SNC 20026", "Nome impianto": "NOVATE VIA BOVISASCA", "Comune": "NOVATE MILANESE", "idImpianto": 6440, "points": [{"type": "Feature", "properties": {}, "geometry": {"type": "Point", "coordinates": [9.150898711045102, 45.5207109449471]}}], "price": 2.019, "ultima_rilevazione": "08/06/2022 01:43:26"}, {"Gestore": "SERVIZI & GESTIONI ITALIA S.R.L.", "Bandiera": "Q8", "Tipo impianto": "Altro", "Indirizzo": "VIALE GRAMSCI 609 20099", "Nome impianto": "SESTO SAN GIOVANNI - VIALE GRAMSCI 609", "Comune": "SESTO SAN GIOVANNI", "idImpianto": 24145, "points": [{"type": "Feature", "properties": {}, "geometry": {"type": "Point", "coordinates": [9.24427519828646, 45.54835895706711]}}], "price": 1.949, "ultima_rilevazione": "08/06/2022 01:43:49"}, {"Gestore": "GOBBI PAOLO", "Bandiera": "Esso", "Tipo impianto": "Altro", "Indirizzo": "VIALE RIMEMBRANZE SNC 20099", "Nome impianto": "ESSO GOBBI PAOLO", "Comune": "SESTO SAN GIOVANNI", "idImpianto": 7357, "points": [{"type": "Feature", "properties": {}, "geometry": {"type": "Point", "coordinates": [9.24127757549286, 45.52456572153702]}}], "price": 1.929, "ultima_rilevazione": "08/06/2022 06:21:09"}, {"Gestore": "SERVIZI & GESTIONI ITALIA S.R.L.", "Bandiera": "Q8", "Tipo impianto": "Altro", "Indirizzo": "VIA ERITREA 71 20157", "Nome impianto": "MILANO VIA ERITREA, 71", "Comune": "MILANO", "idImpianto": 43279, "points": [{"type": "Feature", "properties": {},