{"area_comune": "[{\"type\": \"Feature\", \"properties\": {}, \"geometry\": {\"type\": \"Polygon\", \"coordinates\": [[[9.61869824168344, 45.65937716205346], [9.621658561484711, 45.6575989391975], [9.623066814827704, 45.65495403159974], [9.623351767513752, 45.65359783853919], [9.62573901864869, 45.6528782220007], [9.631398520015898, 45.65169497465541], [9.626315387638135, 45.64701551632378], [9.626507847325453, 45.64586235376259], [9.627400633315716, 45.64421930243175], [9.629637861421005, 45.64117370129292], [9.628657767259213, 45.63844284634802], [9.62722905618717, 45.63689354430712], [9.619896938200371, 45.63404429471075], [9.61383266286695, 45.633266968975654], [9.612548055866299, 45.63312084385868], [9.60996693964932, 45.634088751922654], [9.608456654549752, 45.63442983059866], [9.602749381922342, 45.63463109559454], [9.597544814148614, 45.63384836514664], [9.595818832330067, 45.63320932365143], [9.568170571365568, 45.63830965756405], [9.565293936230105, 45.638382435172915], [9.570065198368756, 45.64673400663647], [9.569877389141318, 45.64798606049968], [9.576061134110653, 45.65899007431978], [9.579470905738624, 45.6578477287112], [9.5900043500777, 45.657415774586326], [9.596612380944968, 45.65841656362251], [9.597102603998799, 45.65864801761712], [9.6044511550449, 45.66044553358959], [9.609425363091086, 45.661058164765805], [9.615168664216487, 45.66155843878506], [9.61869824168344, 45.65937716205346]]]}}]", "comune": "dalmine", "buffer_1": "[{\"type\": \"Feature\", \"properties\": {}, \"geometry\": {\"type\": \"Polygon\", \"coordinates\": [[[9.618535472585158, 45.66837705770818], [9.61986226571108, 45.66834069905527], [9.621176600056916, 45.668208434394714], [9.622464408512672, 45.66798167937669], [9.623711908281354, 45.667662860947054], [9.624905748580622, 45.66725539133537], [9.626033153688711, 45.666763631484976], [9.62708205979493, 45.66619284431996], [9.63978271234595, 45.65850973190349], [9.640674019182677, 45.65791587421361], [9.641480190643557, 45.657264934005454], [9.64219383051311, 45.656562885823185], [9.642808392600836, 45.65581617306179], [9.64331824073962, 45.655031648781346], [9.64371870039987, 45.654216512767896], [9.644006101449586, 45.65337824542086], [9.644177811672758, 45.65252453907532], [9.64423226074435, 45.651663227390934], [9.64416895444833, 45.650802213456366], [9.64398847901531, 45.649949397269694], [9.639815839582083, 45.63514843903567], [9.639501748926877, 45.634269267137206], [9.639063225104877, 45.63341671180653], [9.638504719737043, 45.63259941693116], [9.637831900207486, 45.63182566853946], [9.637051592036673, 45.63110331084605], [9.636171709553556, 45.6304396667866], [9.635201175574213, 45.62984146384516], [9.63414983090423, 45.62931476592198], [9.633028334583058, 45.62886491192993], [9.63184805588062, 45.62849646173811], [9.630620959137836, 45.628213150007724], [9.629359482613669, 45.62801784838536], [9.628076412560299, 45.62791253643421], [9.626784753795029, 45.62789828159616], [9.564859525538163, 45.62938688705981], [9.5635896384589, 45.629461492668646], [9.562336559739913, 45.629624108709024], [9.561112648078907, 45.62987313139985], [9.559929974920133, 45.63020610474154], [9.558800205542747, 45.63061974470486], [9.55773448412777, 45.631109971577295], [9.556743323930977, 45.63167195015024], [9.55583650364014, 45.63230013735272], [9.555022970935632, 45.632988336865274], [9.554310754204037, 45.633729760177616], [9.553706883275847, 45.634517093491226], [9.553217319971099, 45.635342569809886], [9.552846899141796, 45.63619804550961], [9.552599280798015, 45.63707508063539], [9.552476913796664, 45.63796502213442], [9.552481011458942, 45.638859089206626], [9.552611539365726, 45.63974845993125], [9.552867215460447, 45.640624358315506], [9.553245522467757, 45.641478140906244], [9.564008915977155, 45.662086922575206], [9.56451289054308, 45.6629194074036], [9.565133482245194, 45.66371222403499], [9.565864428817912, 45.66445736624501], [9.56669835271701, 45.66514730894666], [9.56762683551586, 45.66577508424626], [9.568640502859317, 45.66633435187864], [9.569729119119126, 45.666819463306226], [9.570881690794797, 45.667225518832105], [9.57208657761358, 45.667548417146456], [9.573331610203477, 45.667784896803184], [9.574604213145179, 45.667932569205306], [9.57589153215296, 45.66798994276343], [9.618535472585158, 45.66837705770818]]]}}]", "buffer_3": "[{\"type\": \"Feature\", \"properties\": {}, \"geometry\": {\"type\": \"Polygon\", \"coordinates\": [[[9.618209823444467, 45.68637680666026], [9.622191474012865, 45.68626768953296], [9.62613569866848, 45.685870764607465], [9.630000243888173, 45.685190284432466], [9.633743713441897, 45.684233539042445], [9.637326013543687, 45.68301077752737], [9.640708783761003, 45.68153509779233], [9.643855808987198, 45.67982230571273], [9.656557207912735, 45.672137342433714], [9.659231179353954, 45.67035535959743], [9.661649518919097, 45.668402133980884], [9.663790044405921, 45.66629560405855], [9.6656331317236, 45.664055114134904], [9.667161894353598, 45.66170123626938], [9.668362337383005, 45.65925558098764], [9.669223484730681, 45.65674059853507], [9.669737478442444, 45.654179372513276], [9.669899649196456, 45.65159540780621], [9.669708557430381, 45.649012414751844], [9.669166004776077, 45.64645409154553], [9.664987016862142, 45.631654079505445], [9.664043656836675, 45.62901677292874], [9.662727138132263, 45.62645938710393], [9.661050853885238, 45.62400784235174], [9.659031837268936, 45.62168698300547], [9.656690587363403, 45.619520326103654], [9.654050860265993, 45.617529823626136], [9.651139427601846, 45.61573564065541], [9.64798580490654, 45.61415595168234], [9.644621952640623, 45.61280675708974], [9.641081952854758, 45.611701721643314], [9.63740166475348, 45.61085203659794], [9.633618362602878, 45.61026630679052], [9.629770359591989, 45.609950463841045], [9.625896621387984, 45.60990770632377], [9.563991162519851, 45.61139574142774], [9.56018270465142, 45.61161948197333], [9.55642460651406, 45.61210717291693], [9.552753899443736, 45.6128540090925], [9.549206757340244, 45.61385263161555], [9.545818141520957, 45.615093200092026], [9.542621457278733, 45.616563489198775], [9.539648225472842, 45.618249008702584], [9.536927772346003, 45.620133145757606], [9.53448694059508, 45.62219732810364], [9.532349824528936, 45.62442120658324], [9.530537531925681, 45.62678285520573], [9.529067974954483, 45.62925898681252], [9.527955692256217, 45.63182518224249], [9.52721170398442, 45.634456130760235], [9.526843401295721, 45.6371258793956], [9.526854471449589, 45.63980808874991], [9.527244859333766, 45.642476292756164], [9.528010765877319, 45.64510415983519], [9.529144683450806, 45.6476657528708], [9.539900462008408, 45.66827681759583], [9.541411530821911, 45.670774585308095], [9.543272647283496, 45.673153400996775], [9.545465051186797, 45.67538923125141], [9.547966627511794, 45.67745948454368], [9.550752128898909, 45.67934324005146], [9.553793430187053, 45.681021459655376], [9.557059812460748, 45.68247718093583], [9.560518273735218, 45.683695689190465], [9.564133863121036, 45.68466466670436], [9.56787003505546, 45.68537431773709], [9.571689019969112, 45.685817467939714], [9.575552207577125, 45.68598963717659], [9.618209823444467, 45.68637680666026]]]}}]", "buffer_5": "[{\"type\": \"Feature\", \"properties\": {}, \"geometry\": {\"type\": \"Polygon\", \"coordinates\": [[[9.617884026163047, 45.70437649913515], [9.624522231092445, 45.70419456856977], [9.631097976709006, 45.7035328085319], [9.637540753310768, 45.70239831596045], [9.64378148730738, 45.700803256285305], [9.64975328656228, 45.69876473204905], [9.655392161536478, 45.69630459828263], [9.66063771428149, 45.69344922668182], [9.673339856826633, 45.68576241143959], [9.677796559559404, 45.68279175676289], [9.681826832568984, 45.67953570556364], [9.68539371638772, 45.67602418006332], [9.688464528479033, 45.6722894443149], [9.691011161436347, 45.66836580654758], [9.693010338344209, 45.664289302899554], [9.694443823053097, 45.66009736549424], [9.69529858356096, 45.65582847795252], [9.695566907148109, 45.65152182153891], [9.69524646637269, 45.647216915215594], [9.694340335496511, 45.64295325292235], [9.690155002744051, 45.62815418969531], [9.688580923922894, 45.623759027984335], [9.686385149040394, 45.619497185775145], [9.683590063626418, 45.61541184466647], [9.680224107832348, 45.61154438894489], [9.676321484146419, 45.60793398766876], [9.671921807751035, 45.604617199446295], [9.667069703179248, 45.601627603836164], [9.661814351424235, 45.5989954630227], [9.656208992107857, 45.596747417108446], [9.650310385719447, 45.59490621602706], [9.644178241291888, 45.59349049071267], [9.637874615186988, 45.59251456577122], [9.63146328691501, 45.59198831548996], [9.625009118112839, 45.59191706459413], [9.563123409969277, 45.59340452993068], [9.556777983942236, 45.5937773038519], [9.550516382108585, 45.594589860435846], [9.544400248910597, 45.59583420133757], [9.538489806904854, 45.597498076896464], [9.532843267489648, 45.59956510589248], [9.527516260757126, 45.602014935753516], [9.522561289930078, 45.60482344168873], [9.51802721563501, 45.60796296284885], [9.513958775008275, 45.61140257325648], [9.510396140331203, 45.615108384911416], [9.507374521545527, 45.6190438801603], [9.504923816612534, 45.623170270129606], [9.50306831325136, 45.62744687575969], [9.501826445125538, 45.63183152774726], [9.50121060504551, 45.63628098150687], [9.501227017222098, 45.64075134310215], [9.50187567004538, 45.645198501974605], [9.503150310280278, 45.64957856621594], [9.505038498969224, 45.65384829608862], [9.51578665429717, 45.67446164121587], [9.51830367568632, 45.678625108998844], [9.52140443676418, 45.682590411230244], [9.525057715013583, 45.68631746766953], [9.529226681593727, 45.689768598644925], [9.533869270923823, 45.69290890752132], [9.53893860436014, 45.69570663518292], [9.544383463732077, 45.698133482864485], [9.550148809948091, 45.70016489998336], [9.556176341376002, 45.70178033397975], [9.562405086251832, 45.702963439562495], [9.568772022983138, 45.703702245177254], [9.575212721892852, 45.703989274956804], [9.617884026163047, 45.70437649913515]]]}}]", "centroid": "[{\"type\": \"Feature\", \"properties\": {}, \"geometry\": {\"type\": \"Point\", \"coordinates\": [9.598711996083592, 45.64708715619973]}}]", "Benzina": {"1": [{"Gestore": "INVERNIZZI ROBERTO E C. S.N.C.", "Bandiera": "Agip Eni", "Tipo impianto": "Altro", "Indirizzo": "V.le A. Locatelli 22 24044", "Nome impianto": "eni", "Comune": "DALMINE", "idImpianto": 16536, "points": [{"type": "Feature", "properties": {}, "geometry": {"type": "Point", "coordinates": [9.605836269944804, 45.64660578650458]}}], "price": 1.919, "ultima_rilevazione": "18/05/2022 07:51:36"}, {"Gestore": "TRUSSARDI PETROLI SPA", "Bandiera": "Esso", "Tipo impianto": "Altro", "Indirizzo": "VIA FRATELLI KENNEDY 23 24040", "Nome impianto": "PV Levate", "Comune": "LEVATE", "idImpianto": 31413, "points": [{"type": "Feature", "properties": {}, "geometry": {"type": "Point", "coordinates": [9.620638683991956, 45.62810490189467]}}], "price": 1.819, "ultima_rilevazione": "18/05/2022 10:36:40"}, {"Gestore": "MORA RENATO GAETANO", "Bandiera": "Agip Eni", "Tipo impianto": "Altro", "Indirizzo": "via provinciale 39 24044", "Nome impianto": "mora renato gaetano", "Comune": "DALMINE", "idImpianto": 12959, "points": [{"type": "Feature", "properties": {}, "geometry": {"type": "Point", "coordinates": [9.616631269454956, 45.64649670011112]}}], "price": 1.919, "ultima_rilevazione": "18/05/2022 12:44:06"}, {"Gestore": "NUOVA SIDAP  S.R.L.", "Bandiera": "Q8", "Tipo impianto": "Autostradale", "Indirizzo": "Autostrada A4 MILANO-BRESCIA, Km. 166, dir. EST 24040", "Nome impianto": "BREMBO SUD", "Comune": "OSIO SOPRA", "idImpianto": 25613, "points": [{"type": "Feature", "properties": {}, "geometry": {"type": "Point", "coordinates": [9.600096659217913, 45.63188736814508]}}], "price": 1.929, "ultima_rilevazione": "18/05/2022 14:30:11"}, {"Gestore": "NUOVA SIDAP  S.R.L.", "Bandiera": "Esso", "Tipo impianto": "Autostradale", "Indirizzo": "Autostrada A4 MILANO-BRESCIA, Km. 349, dir. Nord 24040", "Nome impianto": "BREMBO NORD", "Comune": "OSIO SOPRA", "idImpianto": 4645, "points": [{"type": "Feature", "properties": {}, "geometry": {"type": "Point", "coordinates": [9.598032832145693, 45.63229936377726]}}], "price": 1.902, "ultima_rilevazione": "18/05/2022 16:00:11"}, {"Gestore": "RAVASIO ORESTE", "Bandiera": "Agip Eni", "Tipo impianto": "Altro", "Indirizzo": "VIA PAPA GIOVANNI XXIII 13 24040", "Nome impianto": "ENI RAVASIO ORESTE", "Comune": "OSIO SOPRA", "idImpianto": 46736, "points": [{"type": "Feature", "properties": {}, "geometry": {"type": "Point", "coordinates": [9.588019597553284, 45.63083460728634]}}], "price": 1.899, "ultima_rilevazione": "18/05/2022 17:34:27"}, {"Gestore": "COMMERCIALE PAGANONI S.P.A.", "Bandiera": "Pompe Bianche", "Tipo impianto": "Altro", "Indirizzo": "VIA PROVINCIALE 38 24044", "Nome impianto": "DALMINE", "Comune": "DALMINE", "idImpianto": 41994, "points": [{"type": "Feature", "properties": {}, "geometry": {"type": "Point", "coordinates": [9.614684414791554, 45.64347589021752]}}], "price": 1.885, "ultima_rilevazione": "19/05/2022 00:14:14"}, {"Gestore": "PIROVA SAS DI ROTA VALENTINO & C.", "Bandiera": "Agip Eni", "Tipo impianto": "Altro", "Indirizzo": "via provinciale  51 24044", "Nome impianto": "Pirova sas di Rota Valentino & C.", "Comune": "DALMINE", "idImpianto": 46205, "points": [{"type": "Feature", "properties": {}, "geometry": {"type": "Point", "coordinates": [9.6187824010849, 45.6491558861246]}}], "price": 1.919, "ultima_rilevazione": "19/05/2022 07:21:01"}], "3": [{"Gestore": "F.LLI BELOTTI DI OVIDIO E GIOVANNI S.N.C.", "Bandiera": "OIL ONE", "Tipo impianto": "Altro", "Indirizzo": "VIA GRUMELLO 45/A 24127", "Nome impianto": "IP F.LLI BELOTTI", "Comune": "BERGAMO", "idImpianto": 14436, "points": [{"type": "Feature", "properties": {}, "geometry": {"type": "Point", "coordinates": [9.64323341846466, 45.673581038934536]}}], "price": 2.159, "ultima_rilevazione": "18/05/2022 07:31:25"}, {"Gestore": "SG69.SOCIETA' A RESPONSABILITA' LIMITATA SEMPLIFICATA", "Bandiera": "Esso", "Tipo impianto": "Altro", "Indirizzo": "VIA GRUMELLO 40 24100", "Nome impianto": "Esso", "Comune": "BERGAMO", "idImpianto": 47125, "points": [{"type": "Feature", "properties": {}, "geometry": {"type": "Point", "coordinates": [9.640194017048753, 45.67048560607016]}}], "price": 1.819, "ultima_rilevazione": "13/05/2022 15:28:47"}, {"Gestore": "ILHAMI HAMZA", "Bandiera": "Esso", "Tipo impianto": "Altro", "Indirizzo": "Via dalmine 23 24035", "Nome impianto": "Esso di Ilhami Hamza", "Comune": "CURNO", "idImpianto": 44677, "points": [{"type": "Feature", "properties": {}, "geometry": {"type": "Point", "coordinates": [9.602728246486322, 45.685638241888576]}}], "price": 1.769, "ultima_rilevazione": "13/05/2022 18:21:52"}, {"Gestore": "DORELEI CARBURANTI DI GUALCO DAVIDE & C. S.A.S.", "Bandiera": "Esso", "Tipo impianto": "Strada Statale", "Indirizzo": "Statale 470 della Val Brembana, Km. 1,4, dir. DALMINE 24035", "Nome impianto": "DORELEI CARBURANTI SAS ", "Comune": "CURNO", "idImpianto": 14558, "points": [{"type": "Feature", "properties": {}, "geometry": {"type": "Point", "coordinates": [9.602007865905762, 45.68602346571805]}}], "price": 1.806, "ultima_rilevazione": "14/05/2022 11:25:06"}, {"Gestore": "PREDA SILVANO", "Bandiera": "Pompe Bianche", "Tipo impianto": "Altro", "Indirizzo": "VIA PAPA GIOVANNI XXIII 8 24040", "Nome impianto": "Preda Silvano", "Comune": "MADONE", "idImpianto": 48550, "points": [{"type": "Feature", "properties": {}, "geometry": {"type": "Point", "coordinates": [9.55323758395622, 45.65630343632625]}}], "price": 1.817, "ultima_rilevazione": "16/05/2022 08:16:05"}, {"Gestore": "MAZZOLA ROBERTO", "Bandiera": "Pompe Bianche", "Tipo impianto": "Altro", "Indirizzo": "VIA PAPA GIOVANNI XXIII 31 24040", "Nome impianto": "MAZZOLA", "Comune": "MADONE", "idImpianto": 33398, "points": [{"type": "Feature", "properties": {}, "geometry": {"type": "Point", "coordinates": [9.550803765606702, 45.65032548035179]}}], "price": 1.848, "ultima_rilevazione": "17/05/2022 00:15:36"}, {"Gestore": "CAFFE' SCUDELETTI S.R.L.", "Bandiera": "Q8", "Tipo impianto": "Altro", "Indirizzo": "VIA PROVINCIALE 4 24040", "Nome impianto": "0956", "Comune": "LALLIO", "idImpianto": 49364, "points": [{"type": "Feature", "properties": {}, "geometry": {"type": "Point", "coordinates": [9.633973697424487, 45.66537756829584]}}], "price": 1.889, "ultima_rilevazione": "17/05/2022 07:49:36"}, {"Gestore": "SERVIZI & GESTIONI ITALIA S.R.L.", "Bandiera": "Q8", "Tipo impianto": "Altro", "Indirizzo": "VIA STEZZANO - SS.42 KM.17+004 99 24126", "Nome impianto": "BERGAMO-VIA STEZZANO N. 99 SS.42 KM.17+004", "Comune": "BERGAMO", "idImpianto": 11488, "points": [{"type": "Feature", "properties": {}, "geometry": {"type": "Point", "coordinates": [9.6569712539673, 45.66011751627286]}}], "price": 1.899, "ultima_rilevazione": "17/05/2022 15:41:49"}, {"Gestore": "ARIOLI ALDO", "Bandiera": "Agip Eni", "Tipo impianto": "Altro", "Indirizzo": "VIA MATTEOTTI 16 24046", "Nome impianto": "ENI ARIOLI ALDO", "Comune": "OSIO SOTTO", "idImpianto": 11991, "points": [{"type": "Feature", "properties": {}, "geometry": {"type": "Point", "coordinates": [9.593163122672308, 45.61735283788998]}}], "price": 1.899, "ultima_rilevazione": "17/05/2022 18:16:57"}, {"Gestore": "ESSEGI DI SCARPELLINI GIUSEPPE & C. SAS", "Bandiera": "Api-Ip", "Tipo impianto": "Strada Statale", "Indirizzo": "525 del Brembo, Km. 1/9, Milano 24046", "Nome impianto": "IP Via Gorizia (Osio Sotto)", "Comune": "OSIO SOTTO", "idImpianto": 45664, "points": [{"type": "Feature", "properties": {}, "geometry": {"type": "Point", "coordinates": [9.59592176930846, 45.61703243456996]}}], "price": 1.889, "ultima_rilevazione": "17/05/2022 20:00:04"}, {"Gestore": "EGI-2GO S.R.L.", "Bandiera": "Esso", "Tipo impianto": "Strada Statale", "Indirizzo": "671 della Val Seriana, Km. 0+750, LECCO 24035", "Nome impianto": "EGI-2GO CURNO", "Comune": "CURNO", "idImpianto": 50728, "points": [{"type": "Feature", "properties": {}, "geometry": {"type": "Point", "coordinates": [9.611357382954363, 45.67949785174545]}}], "price": 1.899, "ultima_rilevazione": "18/05/2022 07:06:12"}, {"Gestore": "SERVIZI & GESTIONI ITALIA S.R.L.", "Bandiera": "Q8", "Tipo impianto": "Altro", "Indirizzo": "VIA DELLE INDUSTRIE 22 24040", "Nome impianto": " FILAGO - VIA DELLE INDUSTRIE 22", "Comune": "FILAGO", "idImpianto": 11495, "points": [{"type": "Feature", "properties": {}, "geometry": {"type": "Point", "coordinates": [9.548567813491786, 45.6212924962764]}}], "price": 1.869, "ultima_rilevazione": "18/05/2022 07:08:05"}, {"Gestore": "COSMA FABRIZIO", "Bandiera": "Agip Eni", "Tipo impianto": "Altro", "Indirizzo": "VIA ARRIGO BOITO 12 24040", "Nome impianto": "Cosma Fabrizio - Stezzano", "Comune": "STEZZANO", "idImpianto": 12534, "points": [{"type": "Feature", "properties": {}, "geometry": {"type": "Point", "coordinates": [9.63703751564026, 45.671871760248166]}}], "price": 1.914, "ultima_rilevazione": "18/05/2022 07:51:01"}, {"Gestore": "MA.PI. S.N.C. DEI F.LLI CORNAGO", "Bandiera": "Agip Eni", "Tipo impianto": "Strada Statale", "Indirizzo": "Statale 671 della Val Seriana, Km. 0,982, dir. bergamo 24035", "Nome impianto": "eni", "Comune": "CURNO", "idImpianto": 4981, "points": [{"type": "Feature", "properties": {}, "geometry": {"type": "Point", "coordinates": [9.613474309444427, 45.67956670215767]}}], "price": 1.899, "ultima_rilevazione": "18/05/2022 08:25:28"}, {"Gestore": "FM DI FILIPPOLI LORENZO", "Bandiera": "Pompe Bianche", "Tipo impianto": "Altro", "Indirizzo": "Via Stezzano Snc 24126", "Nome impianto": "BG - Via Stezzano / FM di Filippoli Lorenzo", "Comune": "BERGAMO", "idImpianto": 45194, "points": [{"type": "Feature", "properties": {}, "geometry": {"type": "Point", "coordinates": [9.660189747810364, 45.667702935355365]}}], "price": 1.859, "ultima_rilevazione": "18/05/2022 08:58:54"}, {"Gestore": "T.D.M. S.R.L.", "Bandiera": "Tamoil", "Tipo impianto": "Altro", "Indirizzo": "VIA CARLINGA CENTRO COMMERCIALE  24035", "Nome impianto": "3676", "Comune": "CURNO", "idImpianto": 47370, "points": [{"type": "Feature", "properties": {}, "geometry": {"type": "Point", "coordinates": [9.607331713372956, 45.68289598467205]}}], "price": 1.839, "ultima_rilevazione": "18/05/2022 10:34:01"}, {"Gestore": "F.LLI ERBA DI ERBA MARCO E PAOLO SNC", "Bandiera": "Agip Eni", "Tipo impianto": "Altro", "Indirizzo": "via roma 50 24049", "Nome impianto": "Eni cafe F.lli Erba", "Comune": "VERDELLO", "idImpianto": 44246, "points": [{"type": "Feature", "properties": {}, "geometry": {"type": "Point", "coordinates": [9.632345417687134, 45.615282861409455]}}], "price": 1.914, "ultima_rilevazione": "18/05/2022 13:42:44"}, {"Gestore": "IP SERVICES S.R.L.", "Bandiera": "Api-Ip", "Tipo impianto": "Altro", "Indirizzo": "Via delle Valli 10 24048", "Nome impianto": "TREVIOLO", "Comune": "TREVIOLO", "idImpianto": 5519, "points": [{"type": "Feature", "properties": {}, "geometry": {"type": "Point", "coordinates": [9.601222000000009, 45.671643006037066]}}], "price": 1.839, "ultima_rilevazione": "18/05/2022 16:04:43"}, {"Gestore": "IPERSTAROIL S.R.L.", "Bandiera": "Auchan", "Tipo impianto": "Altro", "Indirizzo": "VIA FERMI ANGOLO VIA CURNASCO SNC 24035", "Nome impianto": "Curno", "Comune": "CURNO", "idImpianto": 50282, "points": [{"type": "Feature", "properties": {}, "geometry": {"type": "Point", "coordinates": [9.617299983614926, 45.68332426509254]}}], "price": 1.839, "ultima_rilevazione": "18/05/2022 18:02:02"}, {"Gestore": "AF PETROL S.R.L.", "Bandiera": "Pompe Bianche", "Tipo impianto": "Altro", "Indirizzo": "VIA MILANO  9 24040", "Nome impianto": "AF PETROL", "Comune": "BONATE SOPRA", "idImpianto": 46031, "points": [{"type": "Feature", "properties": {}, "geometry": {"type": "Point", "coordinates": [9.568731020832049, 45.68179171980827]}}], "price": 1.839, "ultima_rilevazione": "19/05/2022 00:12:09"}, {"Gestore": "AF PETROL S.R.L.", "Bandiera": "Pompe Bianche", "Tipo impianto": "Altro", "Indirizzo": "VIA SANTUARIO 6 24040", "Nome impianto": "AF PETROL ", "Comune": "STEZZANO", "idImpianto": 43045, "points": [{"type": "Feature", "properties": {}, "geometry": {"type": "Point", "coordinates": [9.652808394243038, 45.65311834797392]}}], "price": 1.819, "ultima_rilevazione": "19/05/2022 07:52:10"}, {"Gestore": "SERVIZI & GESTIONI ITALIA S.R.L.", "Bandiera": "Q8", "Tipo impianto": "Altro", "Indirizzo": "VIALE EUROPA S/N 24048", "Nome impianto": "TREVIOLO-VIALE EUROPA", "Comune": "TREVIOLO", "idImpianto": 11493, "points": [{"type": "Feature", "properties": {}, "geometry": {"type": "Point", "coordinates": [9.631402682209, 45.67589183113847]}}], "price": 1.899, "ultima_rilevazione": "19/05/2022 06:36:32"}], "5": [{"Gestore": "PIAZZOLLA FAUSTA", "Bandiera": "Agip Eni", "Tipo impianto": "Altro", "Indirizzo": "Via Broseta 61/63 24128", "Nome impianto": "ENI Piazzolla Fausta", "Comune": "BERGAMO", "idImpianto": 46889, "points": [{"type": "Feature", "properties": {}, "geometry": {"type": "Point", "coordinates": [9.655722271163995, 45.69338727669847]}}], "price": 2.119, "ultima_rilevazione": "18/05/2022 14:12:17"}, {"Gestore": "DIEFFE SRL", "Bandiera": "Pompe Bianche", "Tipo impianto": "Altro", "Indirizzo": "VIA Giosu\u00e8 Carducci 450 24127", "Nome impianto": "BergamOil", "Comune": "BERGAMO", "idImpianto": 43500, "points": [{"type": "Feature", "properties": {}, "geometry": {"type": "Point", "coordinates": [9.647449271163964, 45.68944386284728]}}], "price": 2.069, "ultima_rilevazione": "18/05/2022 09:53:51"}, {"Gestore": "ALESSIO CRISTIANO", "Bandiera": "Agip Eni", "Tipo impianto": "Altro", "Indirizzo": "Via Vittorio Veneto 483 24030", "Nome impianto": "Agip", "Comune": "PRESEZZO", "idImpianto": 13871, "points": [{"type": "Feature", "properties": {}, "geometry": {"type": "Point", "coordinates": [9.57359640244681, 45.692711103106575]}}], "price": 1.874, "ultima_rilevazione": "14/05/2022 12:09:11"}, {"Gestore": "A.R. SERVICE S.A.S. DI MUHAMMAD AMIR & C.", "Bandiera": "Oil Italia", "Tipo impianto": "Altro", "Indirizzo": "VIA DONIZZETTI 5 24040", "Nome impianto": "OIL ITALIA", "Comune": "CHIGNOLO D'ISOLA", "idImpianto": 39057, "points": [{"type": "Feature", "properties": {}, "geometry": {"type": "Point", "coordinates": [9.530040757843608, 45.66393007640911]}}], "price": 1.919, "ultima_rilevazione": "16/05/2022 06:57:46"}, {"Gestore": "MZ ENERGIA S.R.L.", "Bandiera": "Pompe Bianche", "Tipo impianto": "Altro", "Indirizzo": "VIA OROBIE 1 24041", "Nome impianto": "MZ ENERGIA", "Comune": "BREMBATE", "idImpianto": 41399, "points": [{"type": "Feature", "properties": {}, "geometry": {"type": "Point", "coordinates": [9.554833173751833, 45.61009655755201]}}], "price": 1.839, "ultima_rilevazione": "16/05/2022 09:50:50"}, {"Gestore": "STAZIONE DI SERVIZIO ESSO DI ILHAMI AZEDDINE", "Bandiera": "Esso", "Tipo impianto": "Altro", "Indirizzo": "VIA BROSETA 55 24128", "Nome impianto": "Stazione Esso di Ilhami Azeddine", "Comune": "BERGAMO", "idImpianto": 48392, "points": [{"type": "Feature", "properties": {}, "geometry": {"type": "Point", "coordinates": [9.657846267875811, 45.69296505836206]}}], "price": 1.799, "ultima_rilevazione": "16/05/2022 17:57:09"}, {"Gestore": "SERVIZI & GESTIONI ITALIA srl", "Bandiera": "Q8", "Tipo impianto": "Altro", "Indirizzo": "VIA SAN BERNARDINO DISTR.Q8 SNC 24100", "Nome impianto": "BERGAMO VIA SAN BERNARDINO DISTR.Q8", "Comune": "BERGAMO", "idImpianto": 6425, "points": [{"type": "Feature", "properties": {}, "geometry": {"type": "Point", "coordinates": [9.660737890213, 45.67485736569532]}}], "price": 1.869, "ultima_rilevazione": "17/05/2022 01:38:39"}, {"Gestore": "CO.RINA. S.N.C. DI CORNA, RINALDI & C.", "Bandiera": "Q8", "Tipo impianto": "Altro", "Indirizzo": "VIA BRIANTEA, KM 4  24129", "Nome impianto": "co.rina ", "Comune": "BERGAMO", "idImpianto": 8053, "points": [{"type": "Feature", "properties": {}, "geometry": {"type": "Point", "coordinates": [9.626941680908203, 45.69124802532839]}}], "price": 1.839, "ultima_rilevazione": "17/05/2022 07:34:18"}, {"Gestore": "CHOUDRY DI RAZA REHMAN", "Bandiera": "Esso", "Tipo impianto": "Altro", "Indirizzo": "VIA DEI MILLE 2 20056", "Nome impianto": "CHOUDRY DI RAZA REHMAN TREZZO", "Comune": "TREZZO SULL'ADDA", "idImpianto": 50509, "points": [{"type": "Feature", "properties": {}, "geometry": {"type": "Point", "coordinates": [9.521316858673885, 45.60669098285288]}}], "price": 1.859, "ultima_rilevazione": "17/05/2022 08:42:20"}, {"Gestore": "TOMASINI GIAMPRIETO", "Bandiera": "Api-Ip", "Tipo impianto": "Altro", "Indirizzo": "VIA ZANICA 31/B 24126", "Nome impianto": "stazione di servizio", "Comune": "BERGAMO", "idImpianto": 15437, "points": [{"type": "Feature", "properties": {}, "geometry": {"type": "Point", "coordinates": [9.672985716886616, 45.68276943477138]}}], "price": 1.839, "ultima_rilevazione": "17/05/2022 12:24:25"}, {"Gestore": "BAR ONE DI SANGALLI ZEUDI E C. S.A.S.", "Bandiera": "Total Erg", "Tipo impianto": "Altro", "Indirizzo": "Via Lecco 18 24040", "Nome impianto": "Stazione di servizio ip", "Comune": "CURNO", "idImpianto": 47973, "points": [{"type": "Feature", "properties": {}, "geometry": {"type": "Point", "coordinates": [9.600723306134208, 45.69435968371205]}}], "price": 1.859, "ultima_rilevazione": "17/05/2022 15:46:02"}, {"Gestore": "SERVIZI & GESTIONI ITALIA S.R.L.", "Bandiera": "Q8", "Tipo impianto": "Altro", "Indirizzo": "S.S. 342 BRIANTEA KM.4,885  24035", "Nome impianto": "CURNO S.S. 342 BRIANTEA KM.4,885 -Q8", "Comune": "CURNO", "idImpianto": 24759, "points": [{"type": "Feature", "properties": {}, "geometry": {"type": "Point", "coordinates": [9.616742851589947, 45.69245442050466]}}], "price": 1.849, "ultima_rilevazione": "18/05/2022 02:35:56"}, {"Gestore": "SERVIZI & GESTIONI ITALIA S.R.L.", "Bandiera": "Q8", "Tipo impianto": "Altro", "Indirizzo": "C.SO EUROPA  24046", "Nome impianto": "C.SO EUROPA -  OSIO SOTTO", "Comune": "OSIO SOTTO", "idImpianto": 29720, "points": [{"type": "Feature", "properties": {}, "geometry": {"type": "Point", "coordinates": [9.58543326812287, 45.60547838158743]}}], "price": 1.899, "ultima_rilevazione": "18/05/2022 02:36:06"}, {"Gestore": "SERVIZI & GESTIONI ITALIA S.R.L.", "Bandiera": "Q8", "Tipo impianto": "Altro", "Indirizzo": "VIA VITTORIO VENETO 8 24042", "Nome impianto": "CAPRIATE S. GERVASIO-VIA VITTORIO VENETO 8", "Comune": "CAPRIATE SAN GERVASIO", "idImpianto": 11490, "points": [{"type": "Feature", "properties": {}, "geometry": {"type": "Point", "coordinates": [9.530714750289915, 45.610106314305874]}}], "price": 1.849, "ultima_rilevazione": "18/05/2022 02:36:06"}, {"Gestore": "SERVIZI & GESTIONI ITALIA S.R.L.", "Bandiera": "Q8", "Tipo impianto": "Altro", "Indirizzo": "SS.BRIANTEA 342 VIA BERGAMO 21 24035", "Nome impianto": "CURNO-SS.BRIANTEA 342 VIA BERGAMO 21", "Comune": "CURNO", "idImpianto": 11492, "points": [{"type": "Feature", "properties": {}, "geometry": {"type": "Point", "coordinates": [9.62216897916801, 45.69200117253395]}}], "price": 1.869, "ultima_rilevazione": "18/05/2022 07:08:04"}, {"Gestore": "SERVIZI & GESTIONI ITALIA S.R.L.", "Bandiera": "Q8", "Tipo impianto": "Altro", "Indirizzo": "S.P. 184 KM 1+400  24046", "Nome impianto": "OSIO SOTTO - S.P. 184 KM 1+400", "Comune": "OSIO SOTTO", "idImpianto": 31854, "points": [{"type": "Feature", "properties": {}, "geometry": {"type": "Point", "coordinates": [9.566535276126842, 45.60995496857018]}}], "price": 1.919, "ultima_rilevazione": "18/05/2022 07:08:40"}, {"Gestore": "AUTOSERVIZI GHILL S.N.C. DI KHABRA K. G. E SINGH J. & C.", "Bandiera": "Agip Eni", "Tipo impianto": "Altro", "Indirizzo": "VIA SAN BERNARDINO 127 24126", "Nome impianto": "stazione di servizio AGIP ", "Comune": "BERGAMO", "idImpianto": 42258, "points": [{"type": "Feature", "properties": {}, "geometry": {"type": "Point", "coordinates": [9.661690918433123, 45.68061701840012]}}], "price": 1.914, "ultima_rilevazione": "18/05/2022 07:31:45"}, {"Gestore": "COSMA FABRIZIO", "Bandiera": "Agip Eni", "Tipo impianto": "Altro", "Indirizzo": "VIA ROMA 43 24050", "Nome impianto": "Cosma Fabrizio - Zanica", "Comune": "ZANICA", "idImpianto": 12537, "points": [{"type": "Feature", "properties": {}, "geometry": {"type": "Point", "coordinates": [9.683144688606262, 45.64830313021452]}}], "price": 1.894, "ultima_rilevazione": "18/05/2022 07:51:30"}, {"Gestore": "R.C. S.N.C. DI ROSSETTI STEFANO E COFFETTI LUCA", "Bandiera": "Esso", "Tipo impianto": "Altro", "Indirizzo": "via autostrada 14 24126", "Nome impianto": "via autostrada (108947)", "Comune": "BERGAMO", "idImpianto": 48572, "points": [{"type": "Feature", "properties": {}, "geometry": {"type": "Point", "coordinates": [9.66834582824174, 45.68642489259134]}}], "price": 1.899, "ultima_rilevazione": "18/05/2022 07:55:26"}, {"Gestore": "R.C. S.N.C. DI ROSSETTI STEFANO E COFFETTI LUCA", "Bandiera": "Esso", "Tipo impianto": "Altro", "Indirizzo": "Via industria  6 24040", "Nome impianto": "Esso Bottanuco ", "Comune": "BOTTANUCO", "idImpianto": 50176, "points": [{"type": "Feature", "properties": {}, "geometry": {"type": "Point", "coordinates": [9.509343504476874, 45.64542076938716]}}], "price": 1.948, "ultima_rilevazione": "18/05/2022 07:56:09"}, {"Gestore": "ALL CAR SERVICE S.N.C. DEI F.LLI SANA", "Bandiera": "Esso", "Tipo impianto": "Altro", "Indirizzo": "VIA VITTORIO VENETO 1697 24030", "Nome impianto": "ALL CAR SERVICE SNC", "Comune": "PRESEZZO", "idImpianto": 11306, "points": [{"type": "Feature", "properties": {}, "geometry": {"type": "Point", "coordinates": [9.562004226389265, 45.69084381775606]}}], "price": 1.869, "ultima_rilevazione": "18/05/2022 08:09:55"}, {"Gestore": "GARGANTINI MASSIMO", "Bandiera": "Agip Eni", "Tipo impianto": "Altro", "Indirizzo": "VIA CARDUCCI 236 24127", "Nome impianto": "STAZIONE DI SERVIZIO GARGANTINI MASSIMO", "Comune": "BERGAMO", "idImpianto": 47921, "points": [{"type": "Feature", "properties": {}, "geometry": {"type": "Point", "coordinates": [9.651470482349396, 45.68944822678624]}}], "price": 1.854, "ultima_rilevazione": "18/05/2022 08:17:55"}, {"Gestore": "D'APOTE VINCENZO", "Bandiera": "Agip Eni", "Tipo impianto": "Altro", "Indirizzo": "Corso Europa  24040", "Nome impianto": "ENI CAFFE' & SHOP di D'APOTE VINCENZO", "Comune": "BOLTIERE", "idImpianto": 45316, "points": [{"type": "Feature", "properties": {}, "geometry": {"type": "Point", "coordinates": [9.592943000123, 45.602243000123]}}], "price": 1.919, "ultima_rilevazione": "18/05/2022 08:20:28"}, {"Gestore": "NUOVA SIDAP  S.R.L.", "Bandiera": "Esso", "Tipo impianto": "Altro", "Indirizzo": "VIA PAPA GIOVANNI XXIII 8 24042", "Nome impianto": "Capriate", "Comune": "CAPRIATE SAN GERVASIO", "idImpianto": 4644, "points": [{"type": "Feature", "properties": {}, "geometry": {"type": "Point", "coordinates": [9.530127346515656, 45.62114690872448]}}], "price": 1.872, "ultima_rilevazione": "18/05/2022 08:46:42"}, {"Gestore": "IPERSTAROIL S.R.L.", "Bandiera": "Auchan", "Tipo impianto": "Altro", "Indirizzo": "VIA GIOSUE CARDUCCI 4 24127", "Nome impianto": "Bergamo", "Comune": "BERGAMO", "idImpianto": 50283, "points": [{"type": "Feature", "properties": {}, "geometry": {"type": "Point", "coordinates": [9.650376858887563, 45.68715129690769]}}], "price": 1.799, "ultima_rilevazione": "18/05/2022 08:52:05"}, {"Gestore": "LIGURIA GAS S.R.L.", "Bandiera": "Pompe Bianche", "Tipo impianto": "Altro", "Indirizzo": "VIA GUGLIELMO MARCONI SN 24040", "Nome impianto": "LIGURIA GAS", "Comune": "SUISIO", "idImpianto": 25733, "points": [{"type": "Feature", "properties": {}, "geometry": {"type": "Point", "coordinates": [9.51567828655243, 45.658138658636645]}}], "price": 1.896, "ultima_rilevazione": "18/05/2022 10:37:49"}, {"Gestore": "ZENI VALERIANO E MARCO S.N.C.", "Bandiera": "Api-Ip", "Tipo impianto": "Strada Statale", "Indirizzo": "Statale 42 del Tonale e della Mendola, Km. 9900, dir. bergamo 24049", "Nome impianto": "ZENI VALERIANO E MARCO SNC IMPIANTO ERG", "Comune": "VERDELLO", "idImpianto": 7676, "points": [{"type": "Feature", "properties": {}, "geometry": {"type": "Point", "coordinates": [9.62255358695984, 45.59494972464716]}}], "price": 1.869, "ultima_rilevazione": "18/05/2022 13:10:13"}, {"Gestore": "IPER MONTEBELLO S.P.A.", "Bandiera": "Iper Station", "Tipo impianto": "Altro", "Indirizzo": "VIA VITTORIO VENETO 100 24041", "Nome impianto": "IPER STATION BREMBATE", "Comune": "BREMBATE", "idImpianto": 15101, "points": [{"type": "Feature", "properties": {}, "geometry": {"type": "Point", "coordinates": [9.542348831892014, 45.60789035404323]}}], "price": 1.838, "ultima_rilevazione": "18/05/2022 14:32:27"}, {"Gestore": "IPER MONTEBELLO S.P.A.", "Bandiera": "Iper Station", "Tipo impianto": "Altro", "Indirizzo": "Via Portico sn 24050", "Nome impianto": "IPER STATION ORIO AL SERIO", "Comune": "ORIO AL SERIO", "idImpianto": 34941, "points": [{"type": "Feature", "properties": {}, "geometry": {"type": "Point", "coordinates": [9.690978233135228, 45.664993811702494]}}], "price": 1.838, "ultima_rilevazione": "18/05/2022 14:35:06"}, {"Gestore": "CALOR SYSTEMS S.R.L.", "Bandiera": "Api-Ip", "Tipo impianto": "Altro", "Indirizzo": "Via San Bernardino  24126", "Nome impianto": "BERGAMO SAN BERNARDINO", "Comune": "BERGAMO", "idImpianto": 50386, "points": [{"type": "Feature", "properties": {}, "geometry": {"type": "Point", "coordinates": [9.661669621495834, 45.6805536196216]}}], "price": 1.899, "ultima_rilevazione": "18/05/2022 16:10:20"}, {"Gestore": "IP SERVICES S.R.L.", "Bandiera": "Api-Ip", "Tipo impianto": "Altro", "Indirizzo": "Via BROSETA 75 24128", "Nome impianto": "BROSETA", "Comune": "BERGAMO", "idImpianto": 29630, "points": [{"type": "Feature", "properties": {}, "geometry": {"type": "Point", "coordinates": [9.65200443435856, 45.69376833520888]}}], "price": 1.799, "ultima_rilevazione": "18/05/2022 23:04:08"}, {"Gestore": "IP SERVICES S.R.L.", "Bandiera": "Api-Ip", "Tipo impianto": "Altro", "Indirizzo": "Via Moroni   24122", "Nome impianto": "Bergamo", "Comune": "BERGAMO", "idImpianto": 10094, "points": [{"type": "Feature", "properties": {}, "geometry": {"type": "Point", "coordinates": [9.65637236427915, 45.68440930548873]}}], "price": 1.849, "ultima_rilevazione": "18/05/2022 23:04:11"}, {"Gestore": "AF PETROL S.R.L.", "Bandiera": "Pompe Bianche", "Tipo impianto": "Altro", "Indirizzo": "VIA BERGAMO  40 24035", "Nome impianto": "AF PETROL SRL", "Comune": "CURNO", "idImpianto": 47362, "points": [{"type": "Feature", "properties": {}, "geometry": {"type": "Point", "coordinates": [9.618496000123, 45.692214000123]}}], "price": 1.839, "ultima_rilevazione": "19/05/2022 00:12:10"}, {"Gestore": "AF PETROL S.R.L.", "Bandiera": "Pompe Bianche", "Tipo impianto": "Altro", "Indirizzo": "VIA GIOVANNI XXIII 50 24049", "Nome impianto": "AF PETROL SRL", "Comune": "VERDELLO", "idImpianto": 42362, "points": [{"type": "Feature", "properties": {}, "geometry": {"type": "Point", "coordinates": [9.629643753372989, 45.60629717324692]}}], "price": 1.809, "ultima_rilevazione": "19/05/2022 07:38:12"}, {"Gestore": "TIRONI VITTORIO DI TIRONI ERNESTO & C.SNC", "Bandiera": "Agip Eni", "Tipo impianto": "Altro", "Indirizzo": "via provinciale dalmine alme 3 24030", "Nome impianto": "ENI", "Comune": "MOZZO", "idImpianto": 28870, "points": [{"type": "Feature", "properties": {}, "geometry": {"type": "Point", "coordinates": [9.604947566986084, 45.70374271843002]}}], "price": 1.899, "ultima_rilevazione": "19/05/2022 05:12:07"}, {"Gestore": "SERVIZI & GESTIONI ITALIA srl", "Bandiera": "Q8", "Tipo impianto": "Altro", "Indirizzo": "S.P.MILANESE.V.MORONI DISTR.Q8 SNC 24100", "Nome impianto": "BERGAMO S.P.MILANESE.V.MORONI DISTR.Q8", "Comune": "BERGAMO", "idImpianto": 6424, "points": [{"type": "Feature", "properties": {}, "geometry": {"type": "Point", "coordinates": [9.65119043086338, 45.6792499525339]}}], "price": 1.869, "ultima_rilevazione": "19/05/2022 01:41:14"}, {"Gestore": "SERVIZI & GESTIONI ITALIA S.R.L.", "Bandiera": "Q8", "Tipo impianto": "Altro", "Indirizzo": "VIA CREMASCA 28 24052", "Nome impianto": "AZZANO SAN PAOLO - VIA CREMASCA 28", "Comune": "AZZANO SAN PAOLO", "idImpianto": 31849, "points": [{"type": "Feature", "properties": {}, "geometry": {"type": "Point", "coordinates": [9.679619736176278, 45.6611061254016]}}], "price": 1.904, "ultima_rilevazione": "19/05/2022 06:36:25"}]}, "Gasolio": {"1": [{"Gestore": "INVERNIZZI ROBERTO E C. S.N.C.", "Bandiera": "Agip Eni", "Tipo impianto": "Altro", "Indirizzo": "V.le A. Locatelli 22 24044", "Nome impianto": "eni", "Comune": "DALMINE", "idImpianto": 16536, "points": [{"type": "Feature", "properties": {}, "geometry": {"type": "Point", "coordinates": [9.605836269944804, 45.64660578650458]}}], "price": 1.849, "ultima_rilevazione": "18/05/2022 07:51:36"}, {"Gestore": "TRUSSARDI PETROLI SPA", "Bandiera": "Esso", "Tipo impianto": "Altro", "Indirizzo": "VIA FRATELLI KENNEDY 23 24040", "Nome impianto": "PV Levate", "Comune": "LEVATE", "idImpianto": 31413, "points": [{"type": "Feature", "properties": {}, "geometry": {"type": "Point", "coordinates": [9.620638683991956, 45.62810490189467]}}], "price": 1.833, "ultima_rilevazione": "18/05/2022 10:36:40"}, {"Gestore": "MORA RENATO GAETANO", "Bandiera": "Agip Eni", "Tipo impianto": "Altro", "Indirizzo": "via provinciale 39 24044", "Nome impianto": "mora renato gaetano", "Comune": "DALMINE", "idImpianto": 12959, "points": [{"type": "Feature", "properties": {}, "geometry": {"type": "Point", "coordinates": [9.616631269454956, 45.64649670011112]}}], "price": 1.849, "ultima_rilevazione": "18/05/2022 12:44:06"}, {"Gestore": "NUOVA SIDAP  S.R.L.", "Bandiera": "Q8", "Tipo impianto": "Autostradale", "Indirizzo": "Autostrada A4 MILANO-BRESCIA, Km. 166, dir. EST 24040", "Nome impianto": "BREMBO SUD", "Comune": "OSIO SOPRA", "idImpianto": 25613, "points": [{"type": "Feature", "properties": {}, "geometry": {"type": "Point", "coordinates": [9.600096659217913, 45.63188736814508]}}], "price": 1.889, "ultima_rilevazione": "18/05/2022 14:30:11"}, {"Gestore": "NUOVA SIDAP  S.R.L.", "Bandiera": "Esso", "Tipo impianto": "Autostradale", "Indirizzo": "Autostrada A4 MILANO-BRESCIA, Km. 349, dir. Nord 24040", "Nome impianto": "BREMBO NORD", "Comune": "OSIO SOPRA", "idImpianto": 4645, "points": [{"type": "Feature", "properties": {}, "geometry": {"type": "Point", "coordinates": [9.598032832145693, 45.63229936377726]}}], "price": 1.852, "ultima_rilevazione": "18/05/2022 16:00:11"}, {"Gestore": "RAVASIO ORESTE", "Bandiera": "Agip Eni", "Tipo impianto": "Altro", "Indirizzo": "VIA PAPA GIOVANNI XXIII 13 24040", "Nome impianto": "ENI RAVASIO ORESTE", "Comune": "OSIO SOPRA", "idImpianto": 46736, "points": [{"type": "Feature", "properties": {}, "geometry": {"type": "Point", "coordinates": [9.588019597553284, 45.63083460728634]}}], "price": 1.849, "ultima_rilevazione": "18/05/2022 17:34:27"}, {"Gestore": "COMMERCIALE PAGANONI S.P.A.", "Bandiera": "Pompe Bianche", "Tipo impianto": "Altro", "Indirizzo": "VIA PROVINCIALE 38 24044", "Nome impianto": "DALMINE", "Comune": "DALMINE", "idImpianto": 41994, "points": [{"type": "Feature", "properties": {}, "geometry": {"type": "Point", "coordinates": [9.614684414791554, 45.64347589021752]}}], "price": 1.819, "ultima_rilevazione": "19/05/2022 00:14:14"}, {"Gestore": "PIROVA SAS DI ROTA VALENTINO & C.", "Bandiera": "Agip Eni", "Tipo impianto": "Altro", "Indirizzo": "via provinciale  51 24044", "Nome impianto": "Pirova sas di Rota Valentino & C.", "Comune": "DALMINE", "idImpianto": 46205, "points": [{"type": "Feature", "properties": {}, "geometry": {"type": "Point", "coordinates": [9.6187824010849, 45.6491558861246]}}], "price": 1.849, "ultima_rilevazione": "19/05/2022 07:21:01"}], "3": [{"Gestore": "SG69.SOCIETA' A RESPONSABILITA' LIMITATA SEMPLIFICATA", "Bandiera": "Esso", "Tipo impianto": "Altro", "Indirizzo": "VIA GRUMELLO 40 24100", "Nome impianto": "Esso", "Comune": "BERGAMO", "idImpianto": 47125, "points": [{"type": "Feature", "properties": {}, "geometry": {"type": "Point", "coordinates": [9.640194017048753, 45.67048560607016]}}], "price": 1.799, "ultima_rilevazione": "13/05/2022 15:28:47"}, {"Gestore": "ILHAMI HAMZA", "Bandiera": "Esso", "Tipo impianto": "Altro", "Indirizzo": "Via dalmine 23 24035", "Nome impianto": "Esso di Ilhami Hamza", "Comune": "CURNO", "idImpianto": 44677, "points": [{"type": "Feature", "properties": {}, "geometry": {"type": "Point", "coordinates": [9.602728246486322, 45.685638241888576]}}], "price": 1.789, "ultima_rilevazione": "13/05/2022 18:21:52"}, {"Gestore": "DORELEI CARBURANTI DI GUALCO DAVIDE & C. S.A.S.", "Bandiera": "Esso", "Tipo impianto": "Strada Statale", "Indirizzo": "Statale 470 della Val Brembana, Km. 1,4, dir. DALMINE 24035", "Nome impianto": "DORELEI CARBURANTI SAS ", "Comune": "CURNO", "idImpianto": 14558, "points": [{"type": "Feature", "properties": {}, "geometry": {"type": "Point", "coordinates": [9.602007865905762, 45.68602346571805]}}], "price": 1.816, "ultima_rilevazione": "14/05/2022 11:25:06"}, {"Gestore": "PREDA SILVANO", "Bandiera": "Pompe Bianche", "Tipo impianto": "Altro", "Indirizzo": "VIA PAPA GIOVANNI XXIII 8 24040", "Nome impianto": "Preda Silvano", "Comune": "MADONE", "idImpianto": 48550, "points": [{"type": "Feature", "properties": {}, "geometry": {"type": "Point", "coordinates": [9.55323758395622, 45.65630343632625]}}], "price": 1.769, "ultima_rilevazione": "16/05/2022 08:16:05"}, {"Gestore": "MAZZOLA ROBERTO", "Bandiera": "Pompe Bianche", "Tipo impianto": "Altro", "Indirizzo": "VIA PAPA GIOVANNI XXIII 31 24040", "Nome impianto": "MAZZOLA", "Comune": "MADONE", "idImpianto": 33398, "points": [{"type": "Feature", "properties": {}, "geometry": {"type": "Point", "coordinates": [9.550803765606702, 45.65032548035179]}}], "price": 1.778, "ultima_rilevazione": "17/05/2022 00:15:36"}, {"Gestore": "SERVIZI & GESTIONI ITALIA S.R.L.", "Bandiera": "Q8", "Tipo impianto": "Altro", "Indirizzo": "VIA STEZZANO - SS.42 KM.17+004 99 24126", "Nome impianto": "BERGAMO-VIA STEZZANO N. 99 SS.42 KM.17+004", "Comune": "BERGAMO", "idImpianto": 11488, "points": [{"type": "Feature", "properties": {}, "geometry": {"type": "Point", "coordinates": [9.6569712539673, 45.66011751627286]}}], "price": 1.839, "ultima_rilevazione": "17/05/2022 15:41:49"}, {"Gestore": "CAFFE' SCUDELETTI S.R.L.", "Bandiera": "Q8", "Tipo impianto": "Altro", "Indirizzo": "VIA PROVINCIALE 4 24040", "Nome impianto": "0956", "Comune": "LALLIO", "idImpianto": 49364, "points": [{"type": "Feature", "properties": {}, "geometry": {"type": "Point", "coordinates": [9.633973697424487, 45.66537756829584]}}], "price": 1.849, "ultima_rilevazione": "17/05/2022 07:49:36"}, {"Gestore": "ARIOLI ALDO", "Bandiera": "Agip Eni", "Tipo impianto": "Altro", "Indirizzo": "VIA MATTEOTTI 16 24046", "Nome impianto": "ENI ARIOLI ALDO", "Comune": "OSIO SOTTO", "idImpianto": 11991, "points": [{"type": "Feature", "properties": {}, "geometry": {"type": "Point", "coordinates": [9.593163122672308, 45.61735283788998]}}], "price": 1.829, "ultima_rilevazione": "17/05/2022 18:16:57"}, {"Gestore": "ESSEGI DI SCARPELLINI GIUSEPPE & C. SAS", "Bandiera": "Api-Ip", "Tipo impianto": "Strada Statale", "Indirizzo": "525 del Brembo, Km. 1/9, Milano 24046", "Nome impianto": "IP Via Gorizia (Osio Sotto)", "Comune": "OSIO SOTTO", "idImpianto": 45664, "points": [{"type": "Feature", "properties": {}, "geometry": {"type": "Point", "coordinates": [9.59592176930846, 45.61703243456996]}}], "price": 1.868, "ultima_rilevazione": "17/05/2022 20:00:04"}, {"Gestore": "EGI-2GO S.R.L.", "Bandiera": "Esso", "Tipo impianto": "Strada Statale", "Indirizzo": "671 della Val Seriana, Km. 0+750, LECCO 24035", "Nome impianto": "EGI-2GO CURNO", "Comune": "CURNO", "idImpianto": 50728, "points": [{"type": "Feature", "properties": {}, "geometry": {"type": "Point", "coordinates": [9.611357382954363, 45.67949785174545]}}], "price": 1.839, "ultima_rilevazione": "18/05/2022 07:06:12"}, {"Gestore": "SERVIZI & GESTIONI ITALIA S.R.L.", "Bandiera": "Q8", "Tipo impianto": "Altro", "Indirizzo": "VIA DELLE INDUSTRIE 22 24040", "Nome impianto": " FILAGO - VIA DELLE INDUSTRIE 22", "Comune": "FILAGO", "idImpianto": 11495, "points": [{"type": "Feature", "properties": {}, "geometry": {"type": "Point", "coordinates": [9.548567813491786, 45.6212924962764]}}], "price": 1.839, "ultima_rilevazione": "18/05/2022 07:08:05"}, {"Gestore": "F.LLI BELOTTI DI OVIDIO E GIOVANNI S.N.C.", "Bandiera": "OIL ONE", "Tipo impianto": "Altro", "Indirizzo": "VIA GRUMELLO 45/A 24127", "Nome impianto": "IP F.LLI BELOTTI", "Comune": "BERGAMO", "idImpianto": 14436, "points": [{"type": "Feature", "properties": {}, "geometry": {"type": "Point", "coordinates": [9.64323341846466, 45.673581038934536]}}], "price": 1.789, "ultima_rilevazione": "18/05/2022 07:31:25"}, {"Gestore": "COSMA FABRIZIO", "Bandiera": "Agip Eni", "Tipo impianto": "Altro", "Indirizzo": "VIA ARRIGO BOITO 12 24040", "Nome impianto": "Cosma Fabrizio - Stezzano", "Comune": "STEZZANO", "idImpianto": 12534, "points": [{"type": "Feature", "properties": {}, "geometry": {"type": "Point", "coordinates": [9.63703751564026, 45.671871760248166]}}], "price": 1.844, "ultima_rilevazione": "18/05/2022 07:51:01"}, {"Gestore": "MA.PI. S.N.C. DEI F.LLI CORNAGO", "Bandiera": "Agip Eni", "Tipo impianto": "Strada Statale", "Indirizzo": "Statale 671 della Val Seriana, Km. 0,982, dir. bergamo 24035", "Nome impianto": "eni", "Comune": "CURNO", "idImpianto": 4981, "points": [{"type": "Feature", "properties": {}, "geometry": {"type": "Point", "coordinates": [9.613474309444427, 45.67956670215767]}}], "price": 1.849, "ultima_rilevazione": "18/05/2022 08:25:28"}, {"Gestore": "FM DI FILIPPOLI LORENZO", "Bandiera": "Pompe Bianche", "Tipo impianto": "Altro", "Indirizzo": "Via Stezzano Snc 24126", "Nome impianto": "BG - Via Stezzano / FM di Filippoli Lorenzo", "Comune": "BERGAMO", "idImpianto": 45194, "points": [{"type": "Feature", "properties": {}, "geometry": {"type": "Point", "coordinates": [9.660189747810364, 45.667702935355365]}}], "price": 1.767, "ultima_rilevazione": "18/05/2022 08:58:54"}, {"Gestore": "T.D.M. S.R.L.", "Bandiera": "Tamoil", "Tipo impianto": "Altro", "Indirizzo": "VIA CARLINGA CENTRO COMMERCIALE  24035", "Nome impianto": "3676", "Comune": "CURNO", "idImpianto": 47370, "points": [{"type": "Feature", "properties": {}, "geometry": {"type": "Point", "coordinates": [9.607331713372956, 45.68289598467205]}}], "price": 1.789, "ultima_rilevazione": "18/05/2022 10:34:01"}, {"Gestore": "F.LLI ERBA DI ERBA MARCO E PAOLO SNC", "Bandiera": "Agip Eni", "Tipo impianto": "Altro", "Indirizzo": "via roma 50 24049", "Nome impianto": "Eni cafe F.lli Erba", "Comune": "VERDELLO", "idImpianto": 44246, "points": [{"type": "Feature", "properties": {}, "geometry": {"type": "Point", "coordinates": [9.632345417687134, 45.615282861409455]}}], "price": 1.844, "ultima_rilevazione": "18/05/2022 13:42:44"}, {"Gestore": "IP SERVICES S.R.L.", "Bandiera": "Api-Ip", "Tipo impianto": "Altro", "Indirizzo": "Via delle Valli 10 24048", "Nome impianto": "TREVIOLO", "Comune": "TREVIOLO", "idImpianto": 5519, "points": [{"type": "Feature", "properties": {}, "geometry": {"type": "Point", "coordinates": [9.601222000000009, 45.671643006037066]}}], "price": 1.789, "ultima_rilevazione": "18/05/2022 16:04:43"}, {"Gestore": "IPERSTAROIL S.R.L.", "Bandiera": "Auchan", "Tipo impianto": "Altro", "Indirizzo": "VIA FERMI ANGOLO VIA CURNASCO SNC 24035", "Nome impianto": "Curno", "Comune": "CURNO", "idImpianto": 50282, "points": [{"type": "Feature", "properties": {}, "geometry": {"type": "Point", "coordinates": [9.617299983614926, 45.68332426509254]}}], "price": 1.789, "ultima_rilevazione": "18/05/2022 18:02:02"}, {"Gestore": "AF PETROL S.R.L.", "Bandiera": "Pompe Bianche", "Tipo impianto": "Altro", "Indirizzo": "VIA MILANO  9 24040", "Nome impianto": "AF PETROL", "Comune": "BONATE SOPRA", "idImpianto": 46031, "points": [{"type": "Feature", "properties": {}, "geometry": {"type": "Point", "coordinates": [9.568731020832049, 45.68179171980827]}}], "price": 1.778, "ultima_rilevazione": "19/05/2022 00:12:09"}, {"Gestore": "AF PETROL S.R.L.", "Bandiera": "Pompe Bianche", "Tipo impianto": "Altro", "Indirizzo": "VIA SANTUARIO 6 24040", "Nome impianto": "AF PETROL ", "Comune": "STEZZANO", "idImpianto": 43045, "points": [{"type": "Feature", "properties": {}, "geometry": {"type": "Point", "coordinates": [9.652808394243038, 45.65311834797392]}}], "price": 1.819, "ultima_rilevazione": "19/05/2022 07:52:10"}, {"Gestore": "SERVIZI & GESTIONI ITALIA S.R.L.", "Bandiera": "Q8", "Tipo impianto": "Altro", "Indirizzo": "VIALE EUROPA S/N 24048", "Nome impianto": "TREVIOLO-VIALE EUROPA", "Comune": "TREVIOLO", "idImpianto": 11493, "points": [{"type": "Feature", "properties": {}, "geometry": {"type": "Point", "coordinates": [9.631402682209, 45.67589183113847]}}], "price": 1.839, "ultima_rilevazione": "19/05/2022 06:36:32"}], "5": [{"Gestore": "PIAZZOLLA FAUSTA", "Bandiera": "Agip Eni", "Tipo impianto": "Altro", "Indirizzo": "Via Broseta 61/63 24128", "Nome impianto": "ENI Piazzolla Fausta", "Comune": "BERGAMO", "idImpianto": 46889, "points": [{"type": "Feature", "properties": {}, "geometry": {"type": "Point", "coordinates": [9.655722271163995, 45.69338727669847]}}], "price": 1.989, "ultima_rilevazione": "18/05/2022 14:12:17"}, {"Gestore": "NUOVA SIDAP  S.R.L.", "Bandiera": "Esso", "Tipo impianto": "Altro", "Indirizzo": "VIA PAPA GIOVANNI XXIII 8 24042", "Nome impianto": "Capriate", "Comune": "CAPRIATE SAN GERVASIO", "idImpianto": 4644, "points": [{"type": "Feature", "properties": {}, "geometry": {"type": "Point", "coordinates": [9.530127346515656, 45.62114690872448]}}], "price": 2.249, "ultima_rilevazione": "18/05/2022 08:46:42"}, {"Gestore": "DIEFFE SRL", "Bandiera": "Pompe Bianche", "Tipo impianto": "Altro", "Indirizzo": "VIA Giosu\u00e8 Carducci 450 24127", "Nome impianto": "BergamOil", "Comune": "BERGAMO", "idImpianto": 43500, "points": [{"type": "Feature", "properties": {}, "geometry": {"type": "Point", "coordinates": [9.647449271163964, 45.68944386284728]}}], "price": 2.029, "ultima_rilevazione": "18/05/2022 09:53:51"}, {"Gestore": "ALESSIO CRISTIANO", "Bandiera": "Agip Eni", "Tipo impianto": "Altro", "Indirizzo": "Via Vittorio Veneto 483 24030", "Nome impianto": "Agip", "Comune": "PRESEZZO", "idImpianto": 13871, "points": [{"type": "Feature", "properties": {}, "geometry": {"type": "Point", "coordinates": [9.57359640244681, 45.692711103106575]}}], "price": 1.884, "ultima_rilevazione": "14/05/2022 12:09:11"}, {"Gestore": "A.R. SERVICE S.A.S. DI MUHAMMAD AMIR & C.", "Bandiera": "Oil Italia", "Tipo impianto": "Altro", "Indirizzo": "VIA DONIZZETTI 5 24040", "Nome impianto": "OIL ITALIA", "Comune": "CHIGNOLO D'ISOLA", "idImpianto": 39057, "points": [{"type": "Feature", "properties": {}, "geometry": {"type": "Point", "coordinates": [9.530040757843608, 45.66393007640911]}}], "price": 1.899, "ultima_rilevazione": "16/05/2022 06:57:46"}, {"Gestore": "MZ ENERGIA S.R.L.", "Bandiera": "Pompe Bianche", "Tipo impianto": "Altro", "Indirizzo": "VIA OROBIE 1 24041", "Nome impianto": "MZ ENERGIA", "Comune": "BREMBATE", "idImpianto": 41399, "points": [{"type": "Feature", "properties": {}, "geometry": {"type": "Point", "coordinates": [9.554833173751833, 45.61009655755201]}}], "price": 1.849, "ultima_rilevazione": "16/05/2022 09:50:50"}, {"Gestore": "STAZIONE DI SERVIZIO ESSO DI ILHAMI AZEDDINE", "Bandiera": "Esso", "Tipo impianto": "Altro", "Indirizzo": "VIA BROSETA 55 24128", "Nome impianto": "Stazione Esso di Ilhami Azeddine", "Comune": "BERGAMO", "idImpianto": 48392, "points": [{"type": "Feature", "properties": {}, "geometry": {"type": "Point", "coordinates": [9.657846267875811, 45.69296505836206]}}], "price": 1.779, "ultima_rilevazione": "16/05/2022 17:57:09"}, {"Gestore": "SERVIZI & GESTIONI ITALIA srl", "Bandiera": "Q8", "Tipo impianto": "Altro", "Indirizzo": "VIA SAN BERNARDINO DISTR.Q8 SNC 24100", "Nome impianto": "BERGAMO VIA SAN BERNARDINO DISTR.Q8", "Comune": "BERGAMO", "idImpianto": 6425, "points": [{"type": "Feature", "properties": {}, "geometry": {"type": "Point", "coordinates": [9.660737890213, 45.67485736569532]}}], "price": 1.827, "ultima_rilevazione": "17/05/2022 01:38:39"}, {"Gestore": "CO.RINA. S.N.C. DI CORNA, RINALDI & C.", "Bandiera": "Q8", "Tipo impianto": "Altro", "Indirizzo": "VIA BRIANTEA, KM 4  24129", "Nome impianto": "co.rina ", "Comune": "BERGAMO", "idImpianto": 8053, "points": [{"type": "Feature", "properties": {}, "geometry": {"type": "Point", "coordinates": [9.626941680908203, 45.69124802532839]}}], "price": 1.819, "ultima_rilevazione": "17/05/2022 07:34:18"}, {"Gestore": "CHOUDRY DI RAZA REHMAN", "Bandiera": "Esso", "Tipo impianto": "Altro", "Indirizzo": "VIA DEI MILLE 2 20056", "Nome impianto": "CHOUDRY DI RAZA REHMAN TREZZO", "Comune": "TREZZO SULL'ADDA", "idImpianto": 50509, "points": [{"type": "Feature", "properties": {}, "geometry": {"type": "Point", "coordinates": [9.521316858673885, 45.60669098285288]}}], "price": 1.829, "ultima_rilevazione": "17/05/2022 08:42:20"}, {"Gestore": "TOMASINI GIAMPRIETO", "Bandiera": "Api-Ip", "Tipo impianto": "Altro", "Indirizzo": "VIA ZANICA 31/B 24126", "Nome impianto": "stazione di servizio", "Comune": "BERGAMO", "idImpianto": 15437, "points": [{"type": "Feature", "properties": {}, "geometry": {"type": "Point", "coordinates": [9.672985716886616, 45.68276943477138]}}], "price": 1.779, "ultima_rilevazione": "17/05/2022 12:24:25"}, {"Gestore": "BAR ONE DI SANGALLI ZEUDI E C. S.A.S.", "Bandiera": "Total Erg", "Tipo impianto": "Altro", "Indirizzo": "Via Lecco 18 24040", "Nome impianto": "Stazione di servizio ip", "Comune": "CURNO", "idImpianto": 47973, "points": [{"type": "Feature", "properties": {}, "geometry": {"type": "Point", "coordinates": [9.600723306134208, 45.69435968371205]}}], "price": 1.829, "ultima_rilevazione": "17/05/2022 15:46:02"}, {"Gestore": "SERVIZI & GESTIONI ITALIA S.R.L.", "Bandiera": "Q8", "Tipo impianto": "Altro", "Indirizzo": "S.S. 342 BRIANTEA KM.4,885  24035", "Nome impianto": "CURNO S.S. 342 BRIANTEA KM.4,885 -Q8", "Comune": "CURNO", "idImpianto": 24759, "points": [{"type": "Feature", "properties": {}, "geometry": {"type": "Point", "coordinates": [9.616742851589947, 45.69245442050466]}}], "price": 1.799, "ultima_rilevazione": "18/05/2022 02:35:56"}, {"Gestore": "SERVIZI & GESTIONI ITALIA S.R.L.", "Bandiera": "Q8", "Tipo impianto": "Altro", "Indirizzo": "C.SO EUROPA  24046", "Nome impianto": "C.SO EUROPA -  OSIO SOTTO", "Comune": "OSIO SOTTO", "idImpianto": 29720, "points": [{"type": "Feature", "properties": {}, "geometry": {"type": "Point", "coordinates": [9.58543326812287, 45.60547838158743]}}], "price": 1.839, "ultima_rilevazione": "18/05/2022 02:36:06"}, {"Gestore": "SERVIZI & GESTIONI ITALIA S.R.L.", "Bandiera": "Q8", "Tipo impianto": "Altro", "Indirizzo": "VIA VITTORIO VENETO 8 24042", "Nome impianto": "CAPRIATE S. GERVASIO-VIA VITTORIO VENETO 8", "Comune": "CAPRIATE SAN GERVASIO", "idImpianto": 11490, "points": [{"type": "Feature", "properties": {}, "geometry": {"type": "Point", "coordinates": [9.530714750289915, 45.610106314305874]}}], "price": 1.819, "ultima_rilevazione": "18/05/2022 02:36:06"}, {"Gestore": "SERVIZI & GESTIONI ITALIA S.R.L.", "Bandiera": "Q8", "Tipo impianto": "Altro", "Indirizzo": "SS.BRIANTEA 342 VIA BERGAMO 21 24035", "Nome impianto": "CURNO-SS.BRIANTEA 342 VIA BERGAMO 21", "Comune": "CURNO", "idImpianto": 11492, "points": [{"type": "Feature", "properties": {}, "geometry": {"type": "Point", "coordinates": [9.62216897916801, 45.69200117253395]}}], "price": 1.819, "ultima_rilevazione": "18/05/2022 07:08:04"}, {"Gestore": "SERVIZI & GESTIONI ITALIA S.R.L.", "Bandiera": "Q8", "Tipo impianto": "Altro", "Indirizzo": "S.P. 184 KM 1+400  24046", "Nome impianto": "OSIO SOTTO - S.P. 184 KM 1+400", "Comune": "OSIO SOTTO", "idImpianto": 31854, "points": [{"type": "Feature", "properties": {}, "geometry": {"type": "Point", "coordinates": [9.566535276126842, 45.60995496857018]}}], "price": 1.859, "ultima_rilevazione": "18/05/2022 07:08:40"}, {"Gestore": "AUTOSERVIZI GHILL S.N.C. DI KHABRA K. G. E SINGH J. & C.", "Bandiera": "Agip Eni", "Tipo impianto": "Altro", "Indirizzo": "VIA SAN BERNARDINO 127 24126", "Nome impianto": "stazione di servizio AGIP ", "Comune": "BERGAMO", "idImpianto": 42258, "points": [{"type": "Feature", "properties": {}, "geometry": {"type": "Point", "coordinates": [9.661690918433123, 45.68061701840012]}}], "price": 1.884, "ultima_rilevazione": "18/05/2022 07:31:45"}, {"Gestore": "COSMA FABRIZIO", "Bandiera": "Agip Eni", "Tipo impianto": "Altro", "Indirizzo": "VIA ROMA 43 24050", "Nome impianto": "Cosma Fabrizio - Zanica", "Comune": "ZANICA", "idImpianto": 12537, "points": [{"type": "Feature", "properties": {}, "geometry": {"type": "Point", "coordinates": [9.683144688606262, 45.64830313021452]}}], "price": 1.824, "ultima_rilevazione": "18/05/2022 07:51:30"}, {"Gestore": "R.C. S.N.C. DI ROSSETTI STEFANO E COFFETTI LUCA", "Bandiera": "Esso", "Tipo impianto": "Altro", "Indirizzo": "via autostrada 14 24126", "Nome impianto": "via autostrada (108947)", "Comune": "BERGAMO", "idImpianto": 48572, "points": [{"type": "Feature", "properties": {}, "geometry": {"type": "Point", "coordinates": [9.66834582824174, 45.68642489259134]}}], "price": 1.817, "ultima_rilevazione": "18/05/2022 07:55:26"}, {"Gestore": "R.C. S.N.C. DI ROSSETTI STEFANO E COFFETTI LUCA", "Bandiera": "Esso", "Tipo impianto": "Altro", "Indirizzo": "Via industria  6 24040", "Nome impianto": "Esso Bottanuco ", "Comune": "BOTTANUCO", "idImpianto": 50176, "points": [{"type": "Feature", "properties": {}, "geometry": {"type": "Point", "coordinates": [9.509343504476874, 45.64542076938716]}}], "price": 1.829, "ultima_rilevazione": "18/05/2022 07:56:09"}, {"Gestore": "ALL CAR SERVICE S.N.C. DEI F.LLI SANA", "Bandiera": "Esso", "Tipo impianto": "Altro", "Indirizzo": "VIA VITTORIO VENETO 1697 24030", "Nome impianto": "ALL CAR SERVICE SNC", "Comune": "PRESEZZO", "idImpianto": 11306, "points": [{"type": "Feature", "properties": {}, "geometry": {"type": "Point", "coordinates": [9.562004226389265, 45.69084381775606]}}], "price": 1.839, "ultima_rilevazione": "18/05/2022 08:09:55"}, {"Gestore": "GARGANTINI MASSIMO", "Bandiera": "Agip Eni", "Tipo impianto": "Altro", "Indirizzo": "VIA CARDUCCI 236 24127", "Nome impianto": "STAZIONE DI SERVIZIO GARGANTINI MASSIMO", "Comune": "BERGAMO", "idImpianto": 47921, "points": [{"type": "Feature", "properties": {}, "geometry": {"type": "Point", "coordinates": [9.651470482349396, 45.68944822678624]}}], "price": 1.844, "ultima_rilevazione": "18/05/2022 08:17:55"}, {"Gestore": "D'APOTE VINCENZO", "Bandiera": "Agip Eni", "Tipo impianto": "Altro", "Indirizzo": "Corso Europa  24040", "Nome impianto": "ENI CAFFE' & SHOP di D'APOTE VINCENZO", "Comune": "BOLTIERE", "idImpianto": 45316, "points": [{"type": "Feature", "properties": {}, "geometry": {"type": "Point", "coordinates": [9.592943000123, 45.602243000123]}}], "price": 1.849, "ultima_rilevazione": "18/05/2022 08:20:28"}, {"Gestore": "IPERSTAROIL S.R.L.", "Bandiera": "Auchan", "Tipo impianto": "Altro", "Indirizzo": "VIA GIOSUE CARDUCCI 4 24127", "Nome impianto": "Bergamo", "Comune": "BERGAMO", "idImpianto": 50283, "points": [{"type": "Feature", "properties": {}, "geometry": {"type": "Point", "coordinates": [9.650376858887563, 45.68715129690769]}}], "price": 1.799, "ultima_rilevazione": "18/05/2022 08:52:05"}, {"Gestore": "LIGURIA GAS S.R.L.", "Bandiera": "Pompe Bianche", "Tipo impianto": "Altro", "Indirizzo": "VIA GUGLIELMO MARCONI SN 24040", "Nome impianto": "LIGURIA GAS", "Comune": "SUISIO", "idImpianto": 25733, "points": [{"type": "Feature", "properties": {}, "geometry": {"type": "Point", "coordinates": [9.51567828655243, 45.658138658636645]}}], "price": 1.796, "ultima_rilevazione": "18/05/2022 10:37:49"}, {"Gestore": "IP SERVICES S.R.L.", "Bandiera": "Api-Ip", "Tipo impianto": "Altro", "Indirizzo": "Via BROSETA 75 24128", "Nome impianto": "BROSETA", "Comune": "BERGAMO", "idImpianto": 29630, "points": [{"type": "Feature", "properties": {}, "geometry": {"type": "Point", "coordinates": [9.65200443435856, 45.69376833520888]}}], "price": 1.799, "ultima_rilevazione": "18/05/2022 23:04:08"}, {"Gestore": "IP SERVICES S.R.L.", "Bandiera": "Api-Ip", "Tipo impianto": "Altro", "Indirizzo": "Via Moroni   24122", "Nome impianto": "Bergamo", "Comune": "BERGAMO", "idImpianto": 10094, "points": [{"type": "Feature", "properties": {}, "geometry": {"type": "Point", "coordinates": [9.65637236427915, 45.68440930548873]}}], "price": 1.799, "ultima_rilevazione": "18/05/2022 23:04:11"}, {"Gestore": "ZENI VALERIANO E MARCO S.N.C.", "Bandiera": "Api-Ip", "Tipo impianto": "Strada Statale", "Indirizzo": "Statale 42 del Tonale e della Mendola, Km. 9900, dir. bergamo 24049", "Nome impianto": "ZENI VALERIANO E MARCO SNC IMPIANTO ERG", "Comune": "VERDELLO", "idImpianto": 7676, "points": [{"type": "Feature", "properties": {}, "geometry": {"type": "Point", "coordinates": [9.62255358695984, 45.59494972464716]}}], "price": 1.809, "ultima_rilevazione": "18/05/2022 13:10:13"}, {"Gestore": "IPER MONTEBELLO S.P.A.", "Bandiera": "Iper Station", "Tipo impianto": "Altro", "Indirizzo": "VIA VITTORIO VENETO 100 24041", "Nome impianto": "IPER STATION BREMBATE", "Comune": "BREMBATE", "idImpianto": 15101, "points": [{"type": "Feature", "properties": {}, "geometry": {"type": "Point", "coordinates": [9.542348831892014, 45.60789035404323]}}], "price": 1.768, "ultima_rilevazione": "18/05/2022 14:32:27"}, {"Gestore": "IPER MONTEBELLO S.P.A.", "Bandiera": "Iper Station", "Tipo impianto": "Altro", "Indirizzo": "Via Portico sn 24050", "Nome impianto": "IPER STATION ORIO AL SERIO", "Comune": "ORIO AL SERIO", "idImpianto": 34941, "points": [{"type": "Feature", "properties": {}, "geometry": {"type": "Point", "coordinates": [9.690978233135228, 45.664993811702494]}}], "price": 1.765, "ultima_rilevazione": "18/05/2022 14:35:06"}, {"Gestore": "CALOR SYSTEMS S.R.L.", "Bandiera": "Api-Ip", "Tipo impianto": "Altro", "Indirizzo": "Via San Bernardino  24126", "Nome impianto": "BERGAMO SAN BERNARDINO", "Comune": "BERGAMO", "idImpianto": 50386, "points": [{"type": "Feature", "properties": {}, "geometry": {"type": "Point", "coordinates": [9.661669621495834, 45.6805536196216]}}], "price": 1.859, "ultima_rilevazione": "18/05/2022 16:10:20"}, {"Gestore": "AF PETROL S.R.L.", "Bandiera": "Pompe Bianche", "Tipo impianto": "Altro", "Indirizzo": "VIA BERGAMO  40 24035", "Nome impianto": "AF PETROL SRL", "Comune": "CURNO", "idImpianto": 47362, "points": [{"type": "Feature", "properties": {}, "geometry": {"type": "Point", "coordinates": [9.618496000123, 45.692214000123]}}], "price": 1.789, "ultima_rilevazione": "19/05/2022 00:12:10"}, {"Gestore": "AF PETROL S.R.L.", "Bandiera": "Pompe Bianche", "Tipo impianto": "Altro", "Indirizzo": "VIA GIOVANNI XXIII 50 24049", "Nome impianto": "AF PETROL SRL", "Comune": "VERDELLO", "idImpianto": 42362, "points": [{"type": "Feature", "properties": {}, "geometry": {"type": "Point", "coordinates": [9.629643753372989, 45.60629717324692]}}], "price": 1.789, "ultima_rilevazione": "19/05/2022 07:38:12"}, {"Gestore": "TIRONI VITTORIO DI TIRONI ERNESTO & C.SNC", "Bandiera": "Agip Eni", "Tipo impianto": "Altro", "Indirizzo": "via provinciale dalmine alme 3 24030", "Nome impianto": "ENI", "Comune": "MOZZO", "idImpianto": 28870, "points": [{"type": "Feature", "properties": {}, "geometry": {"type": "Point", "coordinates": [9.604947566986084, 45.70374271843002]}}], "price": 1.849, "ultima_rilevazione": "19/05/2022 05:12:07"}, {"Gestore": "SERVIZI & GESTIONI ITALIA srl", "Bandiera": "Q8", "Tipo impianto": "Altro", "Indirizzo": "S.P.MILANESE.V.MORONI DISTR.Q8 SNC 24100", "Nome impianto": "BERGAMO S.P.MILANESE.V.MORONI DISTR.Q8", "Comune": "BERGAMO", "idImpianto": 6424, "points": [{"type": "Feature", "properties": {}, "geometry": {"type": "Point", "coordinates": [9.65119043086338, 45.6792499525339]}}], "price": 1.799, "ultima_rilevazione": "19/05/2022 01:41:14"}, {"Gestore": "SERVIZI & GESTIONI ITALIA S.R.L.", "Bandiera": "Q8", "Tipo impianto": "Altro", "Indirizzo": "VIA CREMASCA 28 24052", "Nome impianto": "AZZANO SAN PAOLO - VIA CREMASCA 28", "Comune": "AZZANO SAN PAOLO", "idImpianto": 31849, "points": [{"type": "Feature", "properties": {}, "geometry": {"type": "Point", "coordinates": [9.679619736176278, 45.6611061254016]}}], "price": 1.829, "ultima_rilevazione": "19/05/2022 06:36:25"}]}, "Metano": {"1": [{"Gestore": "MORA RENATO GAETANO", "Bandiera": "Agip Eni", "Tipo impianto": "Altro", "Indirizzo": "via provinciale 39 24044", "Nome impianto": "mora renato gaetano", "Comune": "DALMINE", "idImpianto": 12959, "points": [{"type": "Feature", "properties": {}, "geometry": {"type": "Point", "coordinates": [9.616631269454956, 45.64649670011112]}}], "price": 2.149, "ultima_rilevazione": "18/05/2022 12:44:06"}], "3": [{"Gestore": "MA.PI. S.N.C. DEI F.LLI CORNAGO", "Bandiera": "Agip Eni", "Tipo impianto": "Strada Statale", "Indirizzo": "Statale 671 della Val Seriana, Km. 0,982, dir. bergamo 24035", "Nome impianto": "eni", "Comune": "CURNO", "idImpianto": 4981, "points": [{"type": "Feature", "properties": {}, "geometry": {"type": "Point", "coordinates": [9.613474309444427, 45.67956670215767]}}], "price": 2.181, "ultima_rilevazione": "18/05/2022 08:25:28"}, {"Gestore": "IPERSTAROIL S.R.L.", "Bandiera": "Auchan", "Tipo impianto": "Altro", "Indirizzo": "VIA FERMI ANGOLO VIA CURNASCO SNC 24035", "Nome impianto": "Curno", "Comune": "CURNO", "idImpianto": 50282, "points": [{"type": "Feature", "properties": {}, "geometry": {"type": "Point", "coordinates": [9.617299983614926, 45.68332426509254]}}], "price": 1.499, "ultima_rilevazione": "18/05/2022 18:02:02"}], "5": [{"Gestore": "M.A.C. METANO AUTOTRAZIONE CONTINI S.N.C. DI MONDELLI VITTORIA & C.", "Bandiera": "Agip Eni", "Tipo impianto": "Altro", "Indirizzo": "VIA ZANICA 119 24126", "Nome impianto": "MAC CONTINI BERGAMO", "Comune": "BERGAMO", "idImpianto": 14707, "points": [{"type": "Feature", "properties": {}, "geometry": {"type": "Point", "coordinates": [9.678002893924711, 45.66483692808588]}}], "price": 1.895, "ultima_rilevazione": "16/05/2022 16:50:49"}, {"Gestore": "LIGURIA GAS S.R.L.", "Bandiera": "Pompe Bianche", "Tipo impianto": "Altro", "Indirizzo": "VIA GUGLIELMO MARCONI SN 24040", "Nome impianto": "LIGURIA GAS", "Comune": "SUISIO", "idImpianto": 25733, "points": [{"type": "Feature", "properties": {}, "geometry": {"type": "Point", "coordinates": [9.51567828655243, 45.658138658636645]}}], "price": 1.532, "ultima_rilevazione": "18/05/2022 10:37:49"}, {"Gestore": "IPER MONTEBELLO S.P.A.", "Bandiera": "Iper Station", "Tipo impianto": "Altro", "Indirizzo": "VIA VITTORIO VENETO 100 24041", "Nome impianto": "IPER STATION BREMBATE", "Comune": "BREMBATE", "idImpianto": 15101, "points": [{"type": "Feature", "properties": {}, "geometry": {"type": "Point", "coordinates": [9.542348831892014, 45.60789035404323]}}], "price": 1.999, "ultima_rilevazione": "18/05/2022 14:32:27"}, {"Gestore": "IPER MONTEBELLO S.P.A.", "Bandiera": "Iper Station", "Tipo impianto": "Altro", "Indirizzo": "Via Portico sn 24050", "Nome impianto": "IPER STATION ORIO AL SERIO", "Comune": "ORIO AL SERIO", "idImpianto": 34941, "points": [{"type": "Feature", "properties": {}, "geometry": {"type": "Point", "coordinates": [9.690978233135228, 45.664993811702494]}}], "price": 1.999, "ultima_rilevazione": "18/05/2022 14:35:06"}]}, "GPL": {"1": [{"Gestore": "MORA RENATO GAETANO", "Bandiera": "Agip Eni", "Tipo impianto": "Altro", "Indirizzo": "via provinciale 39 24044", "Nome impianto": "mora renato gaetano", "Comune": "DALMINE", "idImpianto": 12959, "points": [{"type": "Feature", "properties": {}, "geometry": {"type": "Point", "coordinates": [9.616631269454956, 45.64649670011112]}}], "price": 0.859, "ultima_rilevazione": "18/05/2022 12:44:06"}, {"Gestore": "NUOVA SIDAP  S.R.L.", "Bandiera": "Q8", "Tipo impianto": "Autostradale", "Indirizzo": "Autostrada A4 MILANO-BRESCIA, Km. 166, dir. EST 24040", "Nome impianto": "BREMBO SUD", "Comune": "OSIO SOPRA", "idImpianto": 25613, "points": [{"type": "Feature", "properties": {}, "geometry": {"type": "Point", "coordinates": [9.600096659217913, 45.63188736814508]}}], "price": 0.859, "ultima_rilevazione": "18/05/2022 14:30:11"}, {"Gestore": "NUOVA SIDAP  S.R.L.", "Bandiera": "Esso", "Tipo impianto": "Autostradale", "Indirizzo": "Autostrada A4 MILANO-BRESCIA, Km. 349, dir. Nord 24040", "Nome impianto": "BREMBO NORD", "Comune": "OSIO SOPRA", "idImpianto": 4645, "points": [{"type": "Feature", "properties": {}, "geometry": {"type": "Point", "coordinates": [9.598032832145693, 45.63229936377726]}}], "price": 0.872, "ultima_rilevazione": "18/05/2022 16:00:11"}], "3": [{"Gestore": "MAFFI MARCO", "Bandiera": "Esso", "Tipo impianto": "Altro", "Indirizzo": "VIA GRUMELLO 30 24127", "Nome impianto": "ESSO", "Comune": "BERGAMO", "idImpianto": 7444, "points": [{"type": "Feature", "properties": {}, "geometry": {"type": "Point", "coordinates": [9.64455149517596, 45.67422225122757]}}], "price": 0.829, "ultima_rilevazione": "12/05/2022 09:16:57"}, {"Gestore": "SG69.SOCIETA' A RESPONSABILITA' LIMITATA SEMPLIFICATA", "Bandiera": "Esso", "Tipo impianto": "Altro", "Indirizzo": "VIA GRUMELLO 40 24100", "Nome impianto": "Esso", "Comune": "BERGAMO", "idImpianto": 47125, "points": [{"type": "Feature", "properties": {}, "geometry": {"type": "Point", "coordinates": [9.640194017048753, 45.67048560607016]}}], "price": 0.829, "ultima_rilevazione": "13/05/2022 15:28:47"}, {"Gestore": "DORELEI CARBURANTI DI GUALCO DAVIDE & C. S.A.S.", "Bandiera": "Esso", "Tipo impianto": "Strada Statale", "Indirizzo": "Statale 470 della Val Brembana, Km. 1,4, dir. DALMINE 24035", "Nome impianto": "DORELEI CARBURANTI SAS ", "Comune": "CURNO", "idImpianto": 14558, "points": [{"type": "Feature", "properties": {}, "geometry": {"type": "Point", "coordinates": [9.602007865905762, 45.68602346571805]}}], "price": 0.899, "ultima_rilevazione": "14/05/2022 11:25:06"}, {"Gestore": "PREDA SILVANO", "Bandiera": "Pompe Bianche", "Tipo impianto": "Altro", "Indirizzo": "VIA PAPA GIOVANNI XXIII 8 24040", "Nome impianto": "Preda Silvano", "Comune": "MADONE", "idImpianto": 48550, "points": [{"type": "Feature", "properties": {}, "geometry": {"type": "Point", "coordinates": [9.55323758395622, 45.65630343632625]}}], "price": 0.809, "ultima_rilevazione": "16/05/2022 08:16:05"}], "5": [{"Gestore": "M.A.C. METANO AUTOTRAZIONE CONTINI S.N.C. DI MONDELLI VITTORIA & C.", "Bandiera": "Agip Eni", "Tipo impianto": "Altro", "Indirizzo": "VIA ZANICA 119 24126", "Nome impianto": "MAC CONTINI BERGAMO", "Comune": "BERGAMO", "idImpianto": 14707, "points": [{"type": "Feature", "properties": {}, "geometry": {"type": "Point", "coordinates": [9.678002893924711, 45.66483692808588]}}], "price": 0.849, "ultima_rilevazione": "16/05/2022 16:50:49"}, {"Gestore": "SERVIZI & GESTIONI ITALIA S.R.L.", "Bandiera": "Q8", "Tipo impianto": "Altro", "Indirizzo": "S.P. 184 KM 1+400  24046", "Nome impianto": "OSIO SOTTO - S.P. 184 KM 1+400", "Comune": "OSIO SOTTO", "idImpianto": 31854, "points": [{"type": "Feature", "properties": {}, "geometry": {"type": "Point", "coordinates": [9.566535276126842, 45.60995496857018]}}], "price": 0.829, "ultima_rilevazione": "18/05/2022 07:08:40"}, {"Gestore": "NUOVA SIDAP  S.R.L.", "Bandiera": "Esso", "Tipo impianto": "Altro", "Indirizzo": "VIA PAPA GIOVANNI XXIII 8 24042", "Nome impianto": "Capriate", "Comune": "CAPRIATE SAN GERVASIO", "idImpianto": 4644, "points": [{"type": "Feature", "properties": {}, "geometry": {"type": "Point", "coordinates": [9.530127346515656, 45.62114690872448]}}], "price": 0.842, "ultima_rilevazione": "18/05/2022 08:46:42"}]}, "Blue Diesel": {"1": [{"Gestore": "MORA RENATO GAETANO", "Bandiera": "Agip Eni", "Tipo impianto": "Altro", "Indirizzo": "via provinciale 39 24044", "Nome impianto": "mora renato gaetano", "Comune": "DALMINE", "idImpianto": 12959, "points": [{"type": "Feature", "properties": {}, "geometry": {"type": "Point", "coordinates": [9.616631269454956, 45.64649670011112]}}], "price": 1.759, "ultima_rilevazione": "18/05/2022 12:44:06"}, {"Gestore": "RAVASIO ORESTE", "Bandiera": "Agip Eni", "Tipo impianto": "Altro", "Indirizzo": "VIA PAPA GIOVANNI XXIII 13 24040", "Nome impianto": "ENI RAVASIO ORESTE", "Comune": "OSIO SOPRA", "idImpianto": 46736, "points": [{"type": "Feature", "properties": {}, "geometry": {"type": "Point", "coordinates": [9.588019597553284, 45.63083460728634]}}], "price": 2.049, "ultima_rilevazione": "18/05/2022 17:34:27"}, {"Gestore": "PIROVA SAS DI ROTA VALENTINO & C.", "Bandiera": "Agip Eni", "Tipo impianto": "Altro", "Indirizzo": "via provinciale  51 24044", "Nome impianto": "Pirova sas di Rota Valentino & C.", "Comune": "DALMINE", "idImpianto": 46205, "points": [{"type": "Feature", "properties": {}, "geometry": {"type": "Point", "coordinates": [9.6187824010849, 45.6491558861246]}}], "price": 2.069, "ultima_rilevazione": "19/05/2022 07:21:01"}, {"Gestore": "INVERNIZZI ROBERTO E C. S.N.C.", "Bandiera": "Agip Eni", "Tipo impianto": "Altro", "Indirizzo": "V.le A. Locatelli 22 24044", "Nome impianto": "eni", "Comune": "DALMINE", "idImpianto": 16536, "points": [{"type": "Feature", "properties": {}, "geometry": {"type": "Point", "coordinates": [9.605836269944804, 45.64660578650458]}}], "price": 1.949, "ultima_rilevazione": "18/05/2022 07:51:36"}, {"Gestore": "MORA RENATO GAETANO", "Bandiera": "Agip Eni", "Tipo impianto": "Altro", "Indirizzo": "via provinciale 39 24044", "Nome impianto": "mora renato gaetano", "Comune": "DALMINE", "idImpianto": 12959, "points": [{"type": "Feature", "properties": {}, "geometry": {"type": "Point", "coordinates": [9.616631269454956, 45.64649670011112]}}], "price": 1.949, "ultima_rilevazione": "18/05/2022 12:44:06"}, {"Gestore": "RAVASIO ORESTE", "Bandiera": "Agip Eni", "Tipo impianto": "Altro", "Indirizzo": "VIA PAPA GIOVANNI XXIII 13 24040", "Nome impianto": "ENI RAVASIO ORESTE", "Comune": "OSIO SOPRA", "idImpianto": 46736, "points": [{"type": "Feature", "properties": {}, "geometry": {"type": "Point", "coordinates": [9.588019597553284, 45.63083460728634]}}], "price": 1.949, "ultima_rilevazione": "18/05/2022 17:34:27"}, {"Gestore": "PIROVA SAS DI ROTA VALENTINO & C.", "Bandiera": "Agip Eni", "Tipo impianto": "Altro", "Indirizzo": "via provinciale  51 24044", "Nome impianto": "Pirova sas di Rota Valentino & C.", "Comune": "DALMINE", "idImpianto": 46205, "points": [{"type": "Feature", "properties": {}, "geometry": {"type": "Point", "coordinates": [9.6187824010849, 45.6491558861246]}}], "price": 1.949, "ultima_rilevazione": "19/05/2022 07:21:01"}], "3": [{"Gestore": "ARIOLI ALDO", "Bandiera": "Agip Eni", "Tipo impianto": "Altro", "Indirizzo": "VIA MATTEOTTI 16 24046", "Nome impianto": "ENI ARIOLI ALDO", "Comune": "OSIO SOTTO", "idImpianto": 11991, "points": [{"type": "Feature", "properties": {}, "geometry": {"type": "Point", "coordinates": [9.593163122672308, 45.61735283788998]}}], "price": 1.929, "ultima_rilevazione": "17/05/2022 18:16:57"}, {"Gestore": "COSMA FABRIZIO", "Bandiera": "Agip Eni", "Tipo impianto": "Altro", "Indirizzo": "VIA ARRIGO BOITO 12 24040", "Nome impianto": "Cosma Fabrizio - Stezzano", "Comune": "STEZZANO", "idImpianto": 12534, "points": [{"type": "Feature", "properties": {}, "geometry": {"type": "Point", "coordinates": [9.63703751564026, 45.671871760248166]}}], "price": 1.944, "ultima_rilevazione": "18/05/2022 07:51:01"}, {"Gestore": "MA.PI. S.N.C. DEI F.LLI CORNAGO", "Bandiera": "Agip Eni", "Tipo impianto": "Strada Statale", "Indirizzo": "Statale 671 della Val Seriana, Km. 0,982, dir. bergamo 24035", "Nome impianto": "eni", "Comune": "CURNO", "idImpianto": 4981, "points": [{"type": "Feature", "properties": {}, "geometry": {"type": "Point", "coordinates": [9.613474309444427, 45.67956670215767]}}], "price": 1.949, "ultima_rilevazione": "18/05/2022 08:25:28"}, {"Gestore": "F.LLI ERBA DI ERBA MARCO E PAOLO SNC", "Bandiera": "Agip Eni", "Tipo impianto": "Altro", "Indirizzo": "via roma 50 24049", "Nome impianto": "Eni cafe F.lli Erba", "Comune": "VERDELLO", "idImpianto": 44246, "points": [{"type": "Feature", "properties": {}, "geometry": {"type": "Point", "coordinates": [9.632345417687134, 45.615282861409455]}}], "price": 1.944, "ultima_rilevazione": "18/05/2022 13:42:44"}], "5": [{"Gestore": "ALESSIO CRISTIANO", "Bandiera": "Agip Eni", "Tipo impianto": "Altro", "Indirizzo": "Via Vittorio Veneto 483 24030", "Nome impianto": "Agip", "Comune": "PRESEZZO", "idImpianto": 13871, "points": [{"type": "Feature", "properties": {}, "geometry": {"type": "Point", "coordinates": [9.57359640244681, 45.692711103106575]}}], "price": 1.617, "ultima_rilevazione": "14/05/2022 12:09:11"}, {"Gestore": "D'APOTE VINCENZO", "Bandiera": "Agip Eni", "Tipo impianto": "Altro", "Indirizzo": "Corso Europa  24040", "Nome impianto": "ENI CAFFE' & SHOP di D'APOTE VINCENZO", "Comune": "BOLTIERE", "idImpianto": 45316, "points": [{"type": "Feature", "properties": {}, "geometry": {"type": "Point", "coordinates": [9.592943000123, 45.602243000123]}}], "price": 2.069, "ultima_rilevazione": "18/05/2022 08:20:28"}, {"Gestore": "TIRONI VITTORIO DI TIRONI ERNESTO & C.SNC", "Bandiera": "Agip Eni", "Tipo impianto": "Altro", "Indirizzo": "via provinciale dalmine alme 3 24030", "Nome impianto": "ENI", "Comune": "MOZZO", "idImpianto": 28870, "points": [{"type": "Feature", "properties": {}, "geometry": {"type": "Point", "coordinates": [9.604947566986084, 45.70374271843002]}}], "price": 2.049, "ultima_rilevazione": "19/05/2022 05:12:07"}, {"Gestore": "PIAZZOLLA FAUSTA", "Bandiera": "Agip Eni", "Tipo impianto": "Altro", "Indirizzo": "Via Broseta 61/63 24128", "Nome impianto": "ENI Piazzolla Fausta", "Comune": "BERGAMO", "idImpianto": 46889, "points": [{"type": "Feature", "properties": {}, "geometry": {"type": "Point", "coordinates": [9.655722271163995, 45.69338727669847]}}], "price": 2.089, "ultima_rilevazione": "18/05/2022 14:12:17"}, {"Gestore": "ALESSIO CRISTIANO", "Bandiera": "Agip Eni", "Tipo impianto": "Altro", "Indirizzo": "Via Vittorio Veneto 483 24030", "Nome impianto": "Agip", "Comune": "PRESEZZO", "idImpianto": 13871, "points": [{"type": "Feature", "properties": {}, "geometry": {"type": "Point", "coordinates": [9.57359640244681, 45.692711103106575]}}], "price": 1.984, "ultima_rilevazione": "14/05/2022 12:09:11"}, {"Gestore": "AUTOSERVIZI GHILL S.N.C. DI KHABRA K. G. E SINGH J. & C.", "Bandiera": "Agip Eni", "Tipo impianto": "Altro", "Indirizzo": "VIA SAN BERNARDINO 127 24126", "Nome impianto": "stazione di servizio AGIP ", "Comune": "BERGAMO", "idImpianto": 42258, "points": [{"type": "Feature", "properties": {}, "geometry": {"type": "Point", "coordinates": [9.661690918433123, 45.68061701840012]}}], "price": 1.984, "ultima_rilevazione": "18/05/2022 07:31:45"}, {"Gestore": "COSMA FABRIZIO", "Bandiera": "Agip Eni", "Tipo impianto": "Altro", "Indirizzo": "VIA ROMA 43 24050", "Nome impianto": "Cosma Fabrizio - Zanica", "Comune": "ZANICA", "idImpianto": 12537, "points": [{"type": "Feature", "properties": {}, "geometry": {"type": "Point", "coordinates": [9.683144688606262, 45.64830313021452]}}], "price": 1.924, "ultima_rilevazione": "18/05/2022 07:51:30"}, {"Gestore": "GARGANTINI MASSIMO", "Bandiera": "Agip Eni", "Tipo impianto": "Altro", "Indirizzo": "VIA CARDUCCI 236 24127", "Nome impianto": "STAZIONE DI SERVIZIO GARGANTINI MASSIMO", "Comune": "BERGAMO", "idImpianto": 47921, "points": [{"type": "Feature", "properties": {}, "geometry": {"type": "Point", "coordinates": [9.651470482349396, 45.68944822678624]}}], "price": 1.944, "ultima_rilevazione": "18/05/2022 08:17:55"}, {"Gestore": "D'APOTE VINCENZO", "Bandiera": "Agip Eni", "Tipo impianto": "Altro", "Indirizzo": "Corso Europa  24040", "Nome impianto": "ENI CAFFE' & SHOP di D'APOTE VINCENZO", "Comune": "BOLTIERE", "idImpianto": 45316, "points": [{"type": "Feature", "properties": {}, "geometry": {"type": "Point", "coordinates": [9.592943000123, 45.602243000123]}}], "price": 1.949, "ultima_rilevazione": "18/05/2022 08:20:28"}, {"Gestore": "TIRONI VITTORIO DI TIRONI ERNESTO & C.SNC", "Bandiera": "Agip Eni", "Tipo impianto": "Altro", "Indirizzo": "via provinciale dalmine alme 3 24030", "Nome impianto": "ENI", "Comune": "MOZZO", "idImpianto": 28870, "points": [{"type": "Feature", "properties": {}, "geometry": {"type": "Point", "coordinates": [9.604947566986084, 45.70374271843002]}}], "price": 1.949, "ultima_rilevazione": "19/05/2022 05:12:07"}]}, "Diesel High Quality": {"1": [{"Gestore": "NUOVA SIDAP  S.R.L.", "Bandiera": "Q8", "Tipo impianto": "Autostradale", "Indirizzo": "Autostrada A4 MILANO-BRESCIA, Km. 166, dir. EST 24040", "Nome impianto": "BREMBO SUD", "Comune": "OSIO SOPRA", "idImpianto": 25613, "points": [{"type": "Feature", "properties": {}, "geometry": {"type": "Point", "coordinates": [9.600096659217913, 45.63188736814508]}}], "price": 2.189, "ultima_rilevazione": "18/05/2022 14:30:11"}, {"Gestore": "TRUSSARDI PETROLI SPA", "Bandiera": "Esso", "Tipo impianto": "Altro", "Indirizzo": "VIA FRATELLI KENNEDY 23 24040", "Nome impianto": "PV Levate", "Comune": "LEVATE", "idImpianto": 31413, "points": [{"type": "Feature", "properties": {}, "geometry": {"type": "Point", "coordinates": [9.620638683991956, 45.62810490189467]}}], "price": 2.13, "ultima_rilevazione": "18/05/2022 10:36:40"}], "3": [{"Gestore": "SERVIZI & GESTIONI ITALIA S.R.L.", "Bandiera": "Q8", "Tipo impianto": "Altro", "Indirizzo": "VIA STEZZANO - SS.42 KM.17+004 99 24126", "Nome impianto": "BERGAMO-VIA STEZZANO N. 99 SS.42 KM.17+004", "Comune": "BERGAMO", "idImpianto": 11488, "points": [{"type": "Feature", "properties": {}, "geometry": {"type": "Point", "coordinates": [9.6569712539673, 45.66011751627286]}}], "price": 2.139, "ultima_rilevazione": "17/05/2022 15:41:49"}, {"Gestore": "CAFFE' SCUDELETTI S.R.L.", "Bandiera": "Q8", "Tipo impianto": "Altro", "Indirizzo": "VIA PROVINCIALE 4 24040", "Nome impianto": "0956", "Comune": "LALLIO", "idImpianto": 49364, "points": [{"type": "Feature", "properties": {}, "geometry": {"type": "Point", "coordinates": [9.633973697424487, 45.66537756829584]}}], "price": 2.154, "ultima_rilevazione": "17/05/2022 07:49:36"}, {"Gestore": "SERVIZI & GESTIONI ITALIA S.R.L.", "Bandiera": "Q8", "Tipo impianto": "Altro", "Indirizzo": "VIA DELLE INDUSTRIE 22 24040", "Nome impianto": " FILAGO - VIA DELLE INDUSTRIE 22", "Comune": "FILAGO", "idImpianto": 11495, "points": [{"type": "Feature", "properties": {}, "geometry": {"type": "Point", "coordinates": [9.548567813491786, 45.6212924962764]}}], "price": 2.139, "ultima_rilevazione": "18/05/2022 07:08:05"}, {"Gestore": "SERVIZI & GESTIONI ITALIA S.R.L.", "Bandiera": "Q8", "Tipo impianto": "Altro", "Indirizzo": "VIALE EUROPA S/N 24048", "Nome impianto": "TREVIOLO-VIALE EUROPA", "Comune": "TREVIOLO", "idImpianto": 11493, "points": [{"type": "Feature", "properties": {}, "geometry": {"type": "Point", "coordinates": [9.631402682209, 45.67589183113847]}}], "price": 2.139, "ultima_rilevazione": "19/05/2022 06:36:32"}, {"Gestore": "CAFFE' SCUDELETTI S.R.L.", "Bandiera": "Q8", "Tipo impianto": "Altro", "Indirizzo": "VIA PROVINCIALE 4 24040", "Nome impianto": "0956", "Comune": "LALLIO", "idImpianto": 49364, "points": [{"type": "Feature", "properties": {}, "geometry": {"type": "Point", "coordinates": [9.633973697424487, 45.66537756829584]}}], "price": 2.099, "ultima_rilevazione": "17/05/2022 07:49:36"}, {"Gestore": "SERVIZI & GESTIONI ITALIA S.R.L.", "Bandiera": "Q8", "Tipo impianto": "Altro", "Indirizzo": "VIA STEZZANO - SS.42 KM.17+004 99 24126", "Nome impianto": "BERGAMO-VIA STEZZANO N. 99 SS.42 KM.17+004", "Comune": "BERGAMO", "idImpianto": 11488, "points": [{"type": "Feature", "properties": {}, "geometry": {"type": "Point", "coordinates": [9.6569712539673, 45.66011751627286]}}], "price": 2.199, "ultima_rilevazione": "17/05/2022 15:41:49"}, {"Gestore": "SERVIZI & GESTIONI ITALIA S.R.L.", "Bandiera": "Q8", "Tipo impianto": "Altro", "Indirizzo": "VIA DELLE INDUSTRIE 22 24040", "Nome impianto": " FILAGO - VIA DELLE INDUSTRIE 22", "Comune": "FILAGO", "idImpianto": 11495, "points": [{"type": "Feature", "properties": {}, "geometry": {"type": "Point", "coordinates": [9.548567813491786, 45.6212924962764]}}], "price": 2.169, "ultima_rilevazione": "18/05/2022 07:08:05"}, {"Gestore": "SERVIZI & GESTIONI ITALIA S.R.L.", "Bandiera": "Q8", "Tipo impianto": "Altro", "Indirizzo": "VIALE EUROPA S/N 24048", "Nome impianto": "TREVIOLO-VIALE EUROPA", "Comune": "TREVIOLO", "idImpianto": 11493, "points": [{"type": "Feature", "properties": {}, "geometry": {"type": "Point", "coordinates": [9.631402682209, 45.67589183113847]}}], "price": 2.199, "ultima_rilevazione": "19/05/2022 06:36:32"}, {"Gestore": "SG69.SOCIETA' A RESPONSABILITA' LIMITATA SEMPLIFICATA", "Bandiera": "Esso", "Tipo impianto": "Altro", "Indirizzo": "VIA GRUMELLO 40 24100", "Nome impianto": "Esso", "Comune": "BERGAMO", "idImpianto": 47125, "points": [{"type": "Feature", "properties": {}, "geometry": {"type": "Point", "coordinates": [9.640194017048753, 45.67048560607016]}}], "price": 1.899, "ultima_rilevazione": "13/05/2022 15:28:47"}, {"Gestore": "ILHAMI HAMZA", "Bandiera": "Esso", "Tipo impianto": "Altro", "Indirizzo": "Via dalmine 23 24035", "Nome impianto": "Esso di Ilhami Hamza", "Comune": "CURNO", "idImpianto": 44677, "points": [{"type": "Feature", "properties": {}, "geometry": {"type": "Point", "coordinates": [9.602728246486322, 45.685638241888576]}}], "price": 1.949, "ultima_rilevazione": "13/05/2022 18:21:52"}, {"Gestore": "DORELEI CARBURANTI DI GUALCO DAVIDE & C. S.A.S.", "Bandiera": "Esso", "Tipo impianto": "Strada Statale", "Indirizzo": "Statale 470 della Val Brembana, Km. 1,4, dir. DALMINE 24035", "Nome impianto": "DORELEI CARBURANTI SAS ", "Comune": "CURNO", "idImpianto": 14558, "points": [{"type": "Feature", "properties": {}, "geometry": {"type": "Point", "coordinates": [9.602007865905762, 45.68602346571805]}}], "price": 1.966, "ultima_rilevazione": "14/05/2022 11:25:06"}, {"Gestore": "EGI-2GO S.R.L.", "Bandiera": "Esso", "Tipo impianto": "Strada Statale", "Indirizzo": "671 della Val Seriana, Km. 0+750, LECCO 24035", "Nome impianto": "EGI-2GO CURNO", "Comune": "CURNO", "idImpianto": 50728, "points": [{"type": "Feature", "properties": {}, "geometry": {"type": "Point", "coordinates": [9.611357382954363, 45.67949785174545]}}], "price": 1.989, "ultima_rilevazione": "18/05/2022 07:06:12"}, {"Gestore": "ESSEGI DI SCARPELLINI GIUSEPPE & C. SAS", "Bandiera": "Api-Ip", "Tipo impianto": "Strada Statale", "Indirizzo": "525 del Brembo, Km. 1/9, Milano 24046", "Nome impianto": "IP Via Gorizia (Osio Sotto)", "Comune": "OSIO SOTTO", "idImpianto": 45664, "points": [{"type": "Feature", "properties": {}, "geometry": {"type": "Point", "coordinates": [9.59592176930846, 45.61703243456996]}}], "price": 1.868, "ultima_rilevazione": "17/05/2022 20:00:04"}], "5": [{"Gestore": "SERVIZI & GESTIONI ITALIA srl", "Bandiera": "Q8", "Tipo impianto": "Altro", "Indirizzo": "VIA SAN BERNARDINO DISTR.Q8 SNC 24100", "Nome impianto": "BERGAMO VIA SAN BERNARDINO DISTR.Q8", "Comune": "BERGAMO", "idImpianto": 6425, "points": [{"type": "Feature", "properties": {}, "geometry": {"type": "Point", "coordinates": [9.660737890213, 45.67485736569532]}}], "price": 1.728, "ultima_rilevazione": "17/05/2022 01:38:39"}, {"Gestore": "SERVIZI & GESTIONI ITALIA S.R.L.", "Bandiera": "Q8", "Tipo impianto": "Altro", "Indirizzo": "C.SO EUROPA  24046", "Nome impianto": "C.SO EUROPA -  OSIO SOTTO", "Comune": "OSIO SOTTO", "idImpianto": 29720, "points": [{"type": "Feature", "properties": {}, "geometry": {"type": "Point", "coordinates": [9.58543326812287, 45.60547838158743]}}], "price": 1.619, "ultima_rilevazione": "18/05/2022 02:36:06"}, {"Gestore": "CO.RINA. S.N.C. DI CORNA, RINALDI & C.", "Bandiera": "Q8", "Tipo impianto": "Altro", "Indirizzo": "VIA BRIANTEA, KM 4  24129", "Nome impianto": "co.rina ", "Comune": "BERGAMO", "idImpianto": 8053, "points": [{"type": "Feature", "properties": {}, "geometry": {"type": "Point", "coordinates": [9.626941680908203, 45.69124802532839]}}], "price": 2.129, "ultima_rilevazione": "17/05/2022 07:34:18"}, {"Gestore": "SERVIZI & GESTIONI ITALIA S.R.L.", "Bandiera": "Q8", "Tipo impianto": "Altro", "Indirizzo": "SS.BRIANTEA 342 VIA BERGAMO 21 24035", "Nome impianto": "CURNO-SS.BRIANTEA 342 VIA BERGAMO 21", "Comune": "CURNO", "idImpianto": 11492, "points": [{"type": "Feature", "properties": {}, "geometry": {"type": "Point", "coordinates": [9.62216897916801, 45.69200117253395]}}], "price": 2.119, "ultima_rilevazione": "18/05/2022 07:08:04"}, {"Gestore": "SERVIZI & GESTIONI ITALIA S.R.L.", "Bandiera": "Q8", "Tipo impianto": "Altro", "Indirizzo": "S.P. 184 KM 1+400  24046", "Nome impianto": "OSIO SOTTO - S.P. 184 KM 1+400", "Comune": "OSIO SOTTO", "idImpianto": 31854, "points": [{"type": "Feature", "properties": {}, "geometry": {"type": "Point", "coordinates": [9.566535276126842, 45.60995496857018]}}], "price": 2.159, "ultima_rilevazione": "18/05/2022 07:08:40"}, {"Gestore": "SERVIZI & GESTIONI ITALIA S.R.L.", "Bandiera": "Q8", "Tipo impianto": "Altro", "Indirizzo": "VIA CREMASCA 28 24052", "Nome impianto": "AZZANO SAN PAOLO - VIA CREMASCA 28", "Comune": "AZZANO SAN PAOLO", "idImpianto": 31849, "points": [{"type": "Feature", "properties": {}, "geometry": {"type": "Point", "coordinates": [9.679619736176278, 45.6611061254016]}}], "price": 2.079, "ultima_rilevazione": "19/05/2022 06:36:25"}, {"Gestore": "SERVIZI & GESTIONI ITALIA S.R.L.", "Bandiera": "Q8", "Tipo impianto": "Altro", "Indirizzo": "SS.BRIANTEA 342 VIA BERGAMO 21 24035", "Nome impianto": "CURNO-SS.BRIANTEA 342 VIA BERGAMO 21", "Comune": "CURNO", "idImpianto": 11492, "points": [{"type": "Feature", "properties": {}, "geometry": {"type": "Point", "coordinates": [9.62216897916801, 45.69200117253395]}}], "price": 2.169, "ultima_rilevazione": "18/05/2022 07:08:04"}, {"Gestore": "SERVIZI & GESTIONI ITALIA S.R.L.", "Bandiera": "Q8", "Tipo impianto": "Altro", "Indirizzo": "VIA CREMASCA 28 24052", "Nome impianto": "AZZANO SAN PAOLO - VIA CREMASCA 28", "Comune": "AZZANO SAN PAOLO", "idImpianto": 31849, "points": [{"type": "Feature", "properties": {}, "geometry": {"type": "Point", "coordinates": [9.679619736176278, 45.6611061254016]}}], "price": 2.154, "ultima_rilevazione": "19/05/2022 06:36:25"}, {"Gestore": "CHOUDRY DI RAZA REHMAN", "Bandiera": "Esso", "Tipo impianto": "Altro", "Indirizzo": "VIA DEI MILLE 2 20056", "Nome impianto": "CHOUDRY DI RAZA REHMAN TREZZO", "Comune": "TREZZO SULL'ADDA", "idImpianto": 50509, "points": [{"type": "Feature", "properties": {}, "geometry": {"type": "Point", "coordinates": [9.521316858673885, 45.60669098285288]}}], "price": 1.979, "ultima_rilevazione": "17/05/2022 08:42:20"}, {"Gestore": "R.C. S.N.C. DI ROSSETTI STEFANO E COFFETTI LUCA", "Bandiera": "Esso", "Tipo impianto": "Altro", "Indirizzo": "via autostrada 14 24126", "Nome impianto": "via autostrada (108947)", "Comune": "BERGAMO", "idImpianto": 48572, "points": [{"type": "Feature", "properties": {}, "geometry": {"type": "Point", "coordinates": [9.66834582824174, 45.68642489259134]}}], "price": 1.917, "ultima_rilevazione": "18/05/2022 07:55:26"}, {"Gestore": "R.C. S.N.C. DI ROSSETTI STEFANO E COFFETTI LUCA", "Bandiera": "Esso", "Tipo impianto": "Altro", "Indirizzo": "Via industria  6 24040", "Nome impianto": "Esso Bottanuco ", "Comune": "BOTTANUCO", "idImpianto": 50176, "points": [{"type": "Feature", "properties": {}, "geometry": {"type": "Point", "coordinates": [9.509343504476874, 45.64542076938716]}}], "price": 1.929, "ultima_rilevazione": "18/05/2022 07:56:09"}, {"Gestore": "NUOVA SIDAP  S.R.L.", "Bandiera": "Esso", "Tipo impianto": "Altro", "Indirizzo": "VIA PAPA GIOVANNI XXIII 8 24042", "Nome impianto": "Capriate", "Comune": "CAPRIATE SAN GERVASIO", "idImpianto": 4644, "points": [{"type": "Feature", "properties": {}, "geometry": {"type": "Point", "coordinates": [9.530127346515656, 45.62114690872448]}}], "price": 1.982, "ultima_rilevazione": "18/05/2022 08:46:42"}]}, "Gasolio High Quality": {"1": [{"Gestore": "NUOVA SIDAP  S.R.L.", "Bandiera": "Esso", "Tipo impianto": "Autostradale", "Indirizzo": "Autostrada A4 MILANO-BRESCIA, Km. 349, dir. Nord 24040", "Nome impianto": "BREMBO NORD", "Comune": "OSIO SOPRA", "idImpianto": 4645, "points": [{"type": "Feature", "properties": {}, "geometry": {"type": "Point", "coordinates": [9.598032832145693, 45.63229936377726]}}], "price": 2.002, "ultima_rilevazione": "18/05/2022 16:00:11"}], "3": [{"Gestore": "DORELEI CARBURANTI DI GUALCO DAVIDE & C. S.A.S.", "Bandiera": "Esso", "Tipo impianto": "Strada Statale", "Indirizzo": "Statale 470 della Val Brembana, Km. 1,4, dir. DALMINE 24035", "Nome impianto": "DORELEI CARBURANTI SAS ", "Comune": "CURNO", "idImpianto": 14558, "points": [{"type": "Feature", "properties": {}, "geometry": {"type": "Point", "coordinates": [9.602007865905762, 45.68602346571805]}}], "price": 1.966, "ultima_rilevazione": "14/05/2022 11:25:06"}, {"Gestore": "MAZZOLA ROBERTO", "Bandiera": "Pompe Bianche", "Tipo impianto": "Altro", "Indirizzo": "VIA PAPA GIOVANNI XXIII 31 24040", "Nome impianto": "MAZZOLA", "Comune": "MADONE", "idImpianto": 33398, "points": [{"type": "Feature", "properties": {}, "geometry": {"type": "Point", "coordinates": [9.550803765606702, 45.65032548035179]}}], "price": 1.798, "ultima_rilevazione": "17/05/2022 00:15:36"}], "5": []}, "null": {}}