{"area_comune": "[{\"type\": \"Feature\", \"properties\": {}, \"geometry\": {\"type\": \"Polygon\", \"coordinates\": [[[7.561319728852997, 45.18858890884582], [7.564517385142783, 45.18821957922544], [7.566272548958977, 45.18786805763113], [7.573286075509007, 45.18583153917399], [7.579227729380775, 45.181762654313225], [7.58105846210677, 45.1802393842987], [7.582343886476693, 45.17872057775871], [7.585236267401285, 45.176501560030864], [7.587401351659791, 45.17578123916846], [7.586491013588458, 45.1754909187948], [7.583600681309841, 45.17371780033851], [7.583223695182218, 45.17227286781631], [7.584454550611762, 45.162737418181045], [7.5900279237563515, 45.152603033547976], [7.594408418701758, 45.14633340420946], [7.595128628982226, 45.14568963743553], [7.596514987985139, 45.14498206543747], [7.5996738454526085, 45.14439972431726], [7.603015959676868, 45.138054004521564], [7.603800258896472, 45.13573666528105], [7.6046817377370886, 45.129122219333595], [7.6029079089976355, 45.12613899323901], [7.607037458087529, 45.120257330295544], [7.6010814429172, 45.1229930430166], [7.591136616076448, 45.11787934222484], [7.581147513259129, 45.11382191660991], [7.5646168796892646, 45.12746889205634], [7.559957833751674, 45.13003421398874], [7.553825693417612, 45.130064727746394], [7.551476029862542, 45.13123667283458], [7.5488300793418555, 45.132805370245606], [7.54793347438697, 45.14072892867823], [7.549910338939871, 45.14354006091983], [7.5502194328129955, 45.14462868636822], [7.548241651532621, 45.14942843843965], [7.547372581301046, 45.14991696396189], [7.545316183081272, 45.15036787302707], [7.542233040892355, 45.15168780892121], [7.541216800741758, 45.15267400712015], [7.5388917009864, 45.155560802836696], [7.537877781016695, 45.15715011274118], [7.537064347962281, 45.15896702061193], [7.535034595142715, 45.158549431350515], [7.534121772076627, 45.16105817418983], [7.533661671142797, 45.16281208216391], [7.535782505942634, 45.17353770219703], [7.539639004536918, 45.17459525948382], [7.540534400718776, 45.176627563606395], [7.540194012003118, 45.18320787900915], [7.539922565757342, 45.18402355953799], [7.546716054366748, 45.185415459553276], [7.550613665936437, 45.186756718934646], [7.5523666155339715, 45.18773312838491], [7.555159320295089, 45.18879467860053], [7.556280366451466, 45.18906090395643], [7.558105815876021, 45.188984953915465], [7.561319728852997, 45.18858890884582]]]}}]", "comune": "druento", "buffer_1": "[{\"type\": \"Feature\", \"properties\": {}, \"geometry\": {\"type\": \"Polygon\", \"coordinates\": [[[7.557644304963805, 45.19720574128894], [7.558878910552361, 45.19742209223342], [7.560137897620796, 45.19755023741494], [7.5614086904334314, 45.19758889673911], [7.56267859514166, 45.19753768396789], [7.5639349267595755, 45.19739711058591], [7.565165136051287, 45.19716858068718], [7.566356935053583, 45.19685437693339], [7.567498419971571, 45.196457637724656], [7.568578190211937, 45.19598232581264], [7.5946616432725005, 45.1831730354873], [7.595688297474982, 45.18261163551642], [7.596628749678725, 45.18197920435816], [7.597473220224756, 45.181282320524076], [7.598212928806293, 45.18052823272482], [7.598840185734142, 45.1797247844032], [7.5993484718091855, 45.1788803320873], [7.599732505975106, 45.17800365841559], [7.599988300053567, 45.177103880742784], [7.600113200000135, 45.17619035627875], [7.600105913260899, 45.17527258474967], [7.599966521955308, 45.17436010959506], [7.597669242267056, 45.16420175992101], [7.615143426659712, 45.139805137288235], [7.615694049079713, 45.138921312497615], [7.616107659264377, 45.138000812578554], [7.6163794993334575, 45.137054241131736], [7.619613387255628, 45.12157451298405], [7.619735348981611, 45.12069172020845], [7.6197339805696185, 45.119804715094716], [7.619609301025801, 45.11892211264558], [7.619362526907246, 45.11805248470956], [7.618996060288496, 45.117204276740885], [7.618513465226052, 45.1163857258013], [7.617919432957339, 45.11560478059996], [7.617219736179376, 45.114869024345666], [7.616421172857288, 45.114185601159285], [7.615531500113259, 45.113561146758094], [7.614559358841352, 45.1130017240828], [7.613514189782105, 45.11251276448958], [7.612406141872062, 45.11209901507507], [7.611245973756776, 45.11176449264302], [7.585359349640647, 45.105330065448996], [7.584103378594901, 45.105068308866265], [7.582816055053043, 45.10489943109839], [7.5815110339075105, 45.10482522336421], [7.5802021574843295, 45.10484647270397], [7.578903308921299, 45.104962953646144], [7.577628265117314, 45.10517343059907], [7.576390550801675, 45.10547567094217], [7.575203295260614, 45.10586646867861], [7.574079093230928, 45.106341678400064], [7.573029871427559, 45.10689625920575], [7.540713771549521, 45.12587745299752], [7.539823658712564, 45.126452475622585], [7.539014428265904, 45.12708456601516], [7.538293350346041, 45.12776804756608], [7.537666904119025, 45.12849678194066], [7.5371407195263185, 45.12926422416039], [7.536719526627431, 45.1300634813421], [7.536407112997253, 45.13088737456851], [7.536206289564773, 45.13172850333643], [7.536118865204919, 45.13257931200523], [7.535640980428778, 45.145996351288716], [7.524473720586592, 45.155192403804946], [7.523705082935587, 45.15589215720025], [7.523037420100299, 45.15664200097637], [7.522477208244481, 45.157434666334815], [7.52202988263717, 45.158262469079105], [7.521699784822042, 45.159117384058355], [7.5214901203591715, 45.15999112292706], [7.52140292755512, 45.16087521446874], [7.521439057491903, 45.16176108670619], [7.521598165556413, 45.16264015000346], [7.5273940513873, 45.18560610316788], [7.527680215672259, 45.18648336086772], [7.528088895215478, 45.1873360107521], [7.52861600549723, 45.188155519782164], [7.529256276146945, 45.18893368621795], [7.5300033035190115, 45.18966272174822], [7.530849614646911, 45.190335329493564], [7.531786741940643, 45.19094477709951], [7.532805307883195, 45.19148496418508], [7.533895118879811, 45.19195048346857], [7.535045267320432, 45.192336674955534], [7.536244240831494, 45.19263967264361], [7.557644304963805, 45.19720574128894]]]}}]", "buffer_3": "[{\"type\": \"Feature\", \"properties\": {}, \"geometry\": {\"type\": \"Polygon\", \"coordinates\": [[[7.550290037947792, 45.21443897148662], [7.553994908047735, 45.21508823421853], [7.557773016942651, 45.21547280291566], [7.561586591654117, 45.21558883198154], [7.565397502924672, 45.215435160663674], [7.569167648050351, 45.21501332473416], [7.572859333449678, 45.21432754109695], [7.57643565306358, 45.21338466547763], [7.579860858725873, 45.21219412362641], [7.58310071873073, 45.21076781673538], [7.609187830624585, 45.197955283163786], [7.612268121898695, 45.19627067150382], [7.615089560884717, 45.19437295005257], [7.617622805226535, 45.19228187211814], [7.619841520994291, 45.19001920153754], [7.621722656185873, 45.18760848554024], [7.623246679631089, 45.185074809105295], [7.624397782848, 45.182444533398915], [7.625164042804252, 45.17974502104236], [7.625537543958747, 45.17700435109215], [7.62551445839543, 45.17425102671688], [7.625095083306483, 45.17151367862449], [7.62410076435452, 45.16712587816584], [7.63783466373856, 45.147938749409256], [7.639485678690588, 45.14528693179459], [7.640725471020177, 45.142525159132944], [7.641539814836017, 45.13968525475319], [7.644767078076827, 45.12420474240874], [7.645131808545848, 45.12155627020794], [7.6451265225124745, 45.11889524183894], [7.644751322757609, 45.11624750279978], [7.644009903936914, 45.11363876597473], [7.6429095147383475, 45.11109436201808], [7.641460885632465, 45.10863899358273], [7.6396781229885775, 45.106296495771105], [7.637578570649369, 45.104089605120144], [7.635182640363044, 45.102039739345486], [7.632513612762831, 45.10016678996213], [7.629597410856385, 45.098488929770674], [7.626462348240218, 45.09702243705297], [7.623138854484736, 45.09578153815752], [7.619659180342222, 45.09477826997703], [7.593779194484842, 45.08834581419038], [7.590012305879564, 45.087560791295815], [7.586151478337732, 45.08705432698565], [7.582237628195717, 45.08683178777417], [7.578312231125657, 45.08689553123202], [7.5744168844364905, 45.08724488113629], [7.570592868122032, 45.08787613463769], [7.566880709209996, 45.088782601368486], [7.563319753933636, 45.089954674084616], [7.559947752171658, 45.09137993010691], [7.556800458482824, 45.093043262506306], [7.5244870311108025, 45.11201993880478], [7.521816816888934, 45.11374461157249], [7.519389034857577, 45.11564048511695], [7.517225498640018, 45.11769054385471], [7.51534565653417, 45.11987638660939], [7.513766416366537, 45.1221783913619], [7.512501992878443, 45.124575891004554], [7.511563779041142, 45.12704735853888], [7.510960242490905, 45.12957060006993], [7.510696848057814, 45.132122953877655], [7.510444267850752, 45.13912805774025], [7.505183573953401, 45.1434584767246], [7.502877390492114, 45.14555733193243], [7.500873911537799, 45.14780648317694], [7.499192584504668, 45.150184138763194], [7.497849741900578, 45.15266725927517], [7.496858441806625, 45.1552317803974], [7.496228339812286, 45.15785284576239], [7.495965593703693, 45.16050504758486], [7.496072801894226, 45.16316267276456], [7.4965489762662845, 45.165799952080924], [7.502335042762609, 45.18876703779448], [7.503192444707741, 45.19139898133089], [7.504417514900565, 45.193957174666316], [7.5059980384927405, 45.19641600896245], [7.507918236655504, 45.19875086673637], [7.510158923013393, 45.200938368739074], [7.512697694521027, 45.20295660853642], [7.515509154917629, 45.20478537241965], [7.518565168552361, 45.20640634241662], [7.521835142052811, 45.20780328034253], [7.525286331013019, 45.20896219101786], [7.528884168609945, 45.20987146299122], [7.550290037947792, 45.21443897148662]]]}}]", "buffer_5": "[{\"type\": \"Feature\", \"properties\": {}, \"geometry\": {\"type\": \"Polygon\", \"coordinates\": [[[7.485251603696451, 45.13231257566498], [7.482057277452872, 45.13521878837926], [7.4787173302837235, 45.13896674021131], [7.475913967944429, 45.14292893173492], [7.473674455624486, 45.14706698589106], [7.472020612398772, 45.151340814076484], [7.470968595648485, 45.1557090035013], [7.470528739714933, 45.16012921768175], [7.470705450530393, 45.16455860622678], [7.471497157446615, 45.16895421997276], [7.477273399769139, 45.19192243412227], [7.478700583661855, 45.19630929001037], [7.480740751702763, 45.20057335112326], [7.483373610468169, 45.204671919896356], [7.486572915876063, 45.208563946772514], [7.490306731738465, 45.21221044247971], [7.4945377462315586, 45.21557486995196], [7.499223643242464, 45.218623511900475], [7.504317524958878, 45.22132581027802], [7.509768381508121, 45.22365467415637], [7.5155216029329255, 45.225586752851335], [7.521519528319474, 45.227102671480154], [7.542931207041512, 45.23167162139353], [7.549107747490233, 45.23275407616402], [7.555406510170303, 45.233395246156725], [7.561764463679576, 45.23358871316413], [7.568117979569291, 45.233332539193704], [7.5744034735893395, 45.23262928607228], [7.580558046496459, 45.23148598970246], [7.586520117787586, 45.229914089234995], [7.592230045800817, 45.22792931188756], [7.597630727781412, 45.225551514599154], [7.623721496269477, 45.21273573518038], [7.628855862101133, 45.2099273623481], [7.633558396465287, 45.20676377960737], [7.637780189918314, 45.203277938807176], [7.641477364378964, 45.19950614254902], [7.644611528458994, 45.195487664397284], [7.647150174431845, 45.19126433830344], [7.649067012806842, 45.186880121604744], [7.6503422411755375, 45.18238063622426], [7.650962744724526, 45.177812692913555], [7.650922226555623, 45.17322380354137], [7.650451573488279, 45.170160686910485], [7.660532435261346, 45.15606791579159], [7.663282704417754, 45.15164764813447], [7.665347292972562, 45.14704423950719], [7.666702570855892, 45.14231074962288], [7.669923206562389, 45.12682945591963], [7.670529165611306, 45.12241517996677], [7.670518387547369, 45.11798011184037], [7.669891119943717, 45.11356732812841], [7.668653595487846, 45.10921967914606], [7.666817966011449, 45.104979373087716], [7.664402179343386, 45.10088756678322], [7.661429800379397, 45.09698396700502], [7.657929778283723, 45.093306446158245], [7.653936162234225, 45.08989067603384], [7.64948776858956, 45.08676978312073], [7.644627802792024, 45.08397402875602], [7.6394034397191, 45.08153051714704], [7.633865366559039, 45.07946293402664], [7.628067292608439, 45.07779131840675], [7.602193940790304, 45.071360831927684], [7.595917499424386, 45.070052871411086], [7.589484690361313, 45.0692090455708], [7.5829636270814555, 45.06883828672706], [7.576423350372023, 45.06894451826277], [7.569933102422818, 45.06952661345532], [7.56356159888925, 45.07057840740871], [7.557376306359818, 45.072088761960174], [7.551442732615384, 45.07404168289402], [7.545823736951132, 45.07641648826007], [7.540578867649266, 45.079188026069254], [7.508268118675639, 45.09816018780076], [7.503817969843163, 45.10103398426415], [7.499771516720042, 45.104193111006374], [7.496165120587881, 45.107609232432814], [7.493031213142873, 45.111251702946234], [7.490398003957003, 45.11508784070637], [7.488289225063803, 45.11908321978236], [7.486723915033261, 45.12320197812453], [7.485716244572006, 45.12740713863598], [7.485275385335031, 45.13166094049884], [7.485251603696451, 45.13231257566498]]]}}]", "centroid": "[{\"type\": \"Feature\", \"properties\": {}, \"geometry\": {\"type\": \"Point\", \"coordinates\": [7.570540756421031, 45.15103287245399]}}]", "Benzina": {"1": [{"Gestore": "SERVIZI & GESTIONI ITALIA S.R.L.", "Bandiera": "Q8", "Tipo impianto": "Altro", "Indirizzo": "S.P. TO/DRUENTO KM 10+400  10040", "Nome impianto": "DRUENTO S.P. TO/DRUENTO KM 10+400", "Comune": "DRUENTO", "idImpianto": 22253, "points": [{"type": "Feature", "properties": {}, "geometry": {"type": "Point", "coordinates": [7.598684669380987, 45.12217330018168]}}], "price": 1.849, "ultima_rilevazione": "18/05/2022 02:35:37"}, {"Gestore": "ECONOMY S.R.L.", "Bandiera": "Api-Ip", "Tipo impianto": "Altro", "Indirizzo": "CORSO MACHIAVELLI 230  ANG. DON SAPINO  10078", "Nome impianto": "Economy S.r.l - Venaria ", "Comune": "VENARIA REALE", "idImpianto": 25023, "points": [{"type": "Feature", "properties": {}, "geometry": {"type": "Point", "coordinates": [7.618852257728577, 45.12220737086037]}}], "price": 1.949, "ultima_rilevazione": "18/05/2022 11:08:32"}, {"Gestore": "BIONDI ANTONIO", "Bandiera": "Agip Eni", "Tipo impianto": "Altro", "Indirizzo": "STRADA PROV.LE VENARIA LANZO KM16 960  10070", "Nome impianto": "Biondi Antonio", "Comune": "ROBASSOMERO", "idImpianto": 9882, "points": [{"type": "Feature", "properties": {}, "geometry": {"type": "Point", "coordinates": [7.5692018866539, 45.18770751684281]}}], "price": 1.919, "ultima_rilevazione": "18/05/2022 11:29:47"}, {"Gestore": "PETROLTERMICA COMAC - OLCEA S.P.A.", "Bandiera": "Pompe Bianche", "Tipo impianto": "Altro", "Indirizzo": "CORSO FLEMING 35 10040", "Nome impianto": "Petroltermica Druento", "Comune": "DRUENTO", "idImpianto": 21492, "points": [{"type": "Feature", "properties": {}, "geometry": {"type": "Point", "coordinates": [7.586854845285416, 45.13065020682192]}}], "price": 1.869, "ultima_rilevazione": "19/05/2022 09:04:19"}, {"Gestore": "SERVIZI & GESTIONI ITALIA S.R.L.", "Bandiera": "Q8", "Tipo impianto": "Altro", "Indirizzo": "VIA LANZO 16 10070", "Nome impianto": "ROBASSOMERO-VIA LANZO 16", "Comune": "ROBASSOMERO", "idImpianto": 11854, "points": [{"type": "Feature", "properties": {}, "geometry": {"type": "Point", "coordinates": [7.563201923942529, 45.19373402332862]}}], "price": 2.119, "ultima_rilevazione": "20/05/2022 09:06:17"}, {"Gestore": "T.D.M. S.R.L.", "Bandiera": "Tamoil", "Tipo impianto": "Altro", "Indirizzo": "SP.176 DA KM. 0+600 A KM. 0+660 LATO SX 12 10040", "Nome impianto": "7767", "Comune": "DRUENTO", "idImpianto": 47138, "points": [{"type": "Feature", "properties": {}, "geometry": {"type": "Point", "coordinates": [7.590820481852423, 45.11816769770197]}}], "price": 1.829, "ultima_rilevazione": "20/05/2022 11:54:12"}], "3": [{"Gestore": "TOFFEE DI LAURICELLA MARCO & C. S.N.C.", "Bandiera": "Api-Ip", "Tipo impianto": "Altro", "Indirizzo": "Via San Gillio 50 10040", "Nome impianto": "Italiana Petroli", "Comune": "GIVOLETTO", "idImpianto": 49396, "points": [{"type": "Feature", "properties": {}, "geometry": {"type": "Point", "coordinates": [7.5033806153961535, 45.1559432314448]}}], "price": 1.849, "ultima_rilevazione": "17/05/2022 14:47:30"}, {"Gestore": "FAMIREL S.N.C. DI FAMMILUME GENNARO E RELLA ANNARITA", "Bandiera": "Agip Eni", "Tipo impianto": "Altro", "Indirizzo": "VIA PIAVE 35 10044", "Nome impianto": "eni", "Comune": "PIANEZZA", "idImpianto": 38465, "points": [{"type": "Feature", "properties": {}, "geometry": {"type": "Point", "coordinates": [7.556098832016005, 45.09815772951559]}}], "price": 1.879, "ultima_rilevazione": "17/05/2022 18:30:04"}, {"Gestore": "SERVIZI & GESTIONI ITALIA S.R.L.", "Bandiera": "Q8", "Tipo impianto": "Altro", "Indirizzo": "VIA PIANEZZA 385 10151", "Nome impianto": "TORINO VIA PIANEZZA 385", "Comune": "TORINO", "idImpianto": 48815, "points": [{"type": "Feature", "properties": {}, "geometry": {"type": "Point", "coordinates": [7.620992475463093, 45.09912497394853]}}], "price": 1.869, "ultima_rilevazione": "18/05/2022 07:07:27"}, {"Gestore": "BIONDI ANTONIO", "Bandiera": "Agip Eni", "Tipo impianto": "Altro", "Indirizzo": "STRADA PROV.LE TORINO-LANZO KM20 049 10070", "Nome impianto": "Biondi Antonio 2", "Comune": "ROBASSOMERO", "idImpianto": 29131, "points": [{"type": "Feature", "properties": {}, "geometry": {"type": "Point", "coordinates": [7.547006607055664, 45.21033318936504]}}], "price": 1.919, "ultima_rilevazione": "18/05/2022 11:30:43"}, {"Gestore": "BIONDI ANTONIO", "Bandiera": "Agip Eni", "Tipo impianto": "Altro", "Indirizzo": "CORSO GARIBALDI 56 10078", "Nome impianto": "Eni di Biondi Antonio ", "Comune": "VENARIA REALE", "idImpianto": 36798, "points": [{"type": "Feature", "properties": {}, "geometry": {"type": "Point", "coordinates": [7.637437283992767, 45.12662925718583]}}], "price": 1.919, "ultima_rilevazione": "18/05/2022 11:32:37"}, {"Gestore": "SERVIZI & GESTIONI ITALIA srl", "Bandiera": "Q8", "Tipo impianto": "Altro", "Indirizzo": "SP 24 LOC. STAZIONETTA SNC 10093", "Nome impianto": "COLLEGNO SP 24 LOC. STAZIONETTA", "Comune": "COLLEGNO", "idImpianto": 6393, "points": [{"type": "Feature", "properties": {}, "geometry": {"type": "Point", "coordinates": [7.577296793460846, 45.09582544231724]}}], "price": 1.864, "ultima_rilevazione": "19/05/2022 01:41:08"}, {"Gestore": "ALOISIO MARCO", "Bandiera": "Q8", "Tipo impianto": "Altro", "Indirizzo": "VIA CAVALLO 76 10078", "Nome impianto": "Q8 Aloisio ", "Comune": "VENARIA REALE", "idImpianto": 32526, "points": [{"type": "Feature", "properties": {}, "geometry": {"type": "Point", "coordinates": [7.626418769359589, 45.13998102537151]}}], "price": 1.879, "ultima_rilevazione": "19/05/2022 08:55:45"}, {"Gestore": "SABINO ALESSANDRO", "Bandiera": "Esso", "Tipo impianto": "Altro", "Indirizzo": "STRADA TORINO PIANEZZA 90 10093", "Nome impianto": "ESSO STAZIONE", "Comune": "COLLEGNO", "idImpianto": 50690, "points": [{"type": "Feature", "properties": {}, "geometry": {"type": "Point", "coordinates": [7.592963317790918, 45.09679353299372]}}], "price": 1.879, "ultima_rilevazione": "20/05/2022 07:56:24"}, {"Gestore": "D'ELIA GIOVANNI", "Bandiera": "Agip Eni", "Tipo impianto": "Altro", "Indirizzo": "CORSO SACCO E VANZETTI 9 10093", "Nome impianto": "eni 978", "Comune": "COLLEGNO", "idImpianto": 5581, "points": [{"type": "Feature", "properties": {}, "geometry": {"type": "Point", "coordinates": [7.618653774261475, 45.094546413684775]}}], "price": 1.894, "ultima_rilevazione": "20/05/2022 11:33:28"}, {"Gestore": "IP SERVICES S.R.L.", "Bandiera": "Api-Ip", "Tipo impianto": "Altro", "Indirizzo": "SP 24 KM 2+265  10044", "Nome impianto": "Pianezza", "Comune": "PIANEZZA", "idImpianto": 38966, "points": [{"type": "Feature", "properties": {}, "geometry": {"type": "Point", "coordinates": [7.56183385848999, 45.11204418338163]}}], "price": 1.859, "ultima_rilevazione": "20/05/2022 12:05:16"}, {"Gestore": "ROCCATI GIULIANA", "Bandiera": "Esso", "Tipo impianto": "Strada Statale", "Indirizzo": "Statale 24 del Monginevro, Km. 12+538, dir. Susa Monginevro 10044", "Nome impianto": "Esso", "Comune": "PIANEZZA", "idImpianto": 8359, "points": [{"type": "Feature", "properties": {}, "geometry": {"type": "Point", "coordinates": [7.553480789065361, 45.10047137246544]}}], "price": 1.889, "ultima_rilevazione": "20/05/2022 17:59:29"}, {"Gestore": "GIODA AGOSTINO S.R.L.", "Bandiera": "Pompe Bianche", "Tipo impianto": "Altro", "Indirizzo": "CORSO GARIBALDI 164 10078", "Nome impianto": "GIODA AGOSTINO SRL - DISTRIBUTORE", "Comune": "VENARIA REALE", "idImpianto": 24038, "points": [{"type": "Feature", "properties": {}, "geometry": {"type": "Point", "coordinates": [7.643681466579437, 45.11874065836433]}}], "price": 1.819, "ultima_rilevazione": "20/05/2022 18:28:23"}, {"Gestore": "GIODA AGOSTINO S.R.L.", "Bandiera": "Pompe Bianche", "Tipo impianto": "Altro", "Indirizzo": "CORSO GARIBALDI  153 10078", "Nome impianto": "GIODA AGOSTINO SRL -G.P.L.", "Comune": "VENARIA REALE", "idImpianto": 31773, "points": [{"type": "Feature", "properties": {}, "geometry": {"type": "Point", "coordinates": [7.643968462944031, 45.12084187352116]}}], "price": 1.819, "ultima_rilevazione": "20/05/2022 18:28:41"}, {"Gestore": "IP SERVICES S.R.L.", "Bandiera": "Api-Ip", "Tipo impianto": "Altro", "Indirizzo": "VIA TORINO  10044", "Nome impianto": "PIANEZZA VIA TORINO", "Comune": "PIANEZZA", "idImpianto": 21859, "points": [{"type": "Feature", "properties": {}, "geometry": {"type": "Point", "coordinates": [7.574412077665329, 45.104513747653854]}}], "price": 1.818, "ultima_rilevazione": "20/05/2022 23:02:36"}, {"Gestore": "IP SERVICES S.R.L.", "Bandiera": "Api-Ip", "Tipo impianto": "Altro", "Indirizzo": "VIA TORINO -  OVEST  10044", "Nome impianto": "PIANEZZA VIA TORINO -  OVEST", "Comune": "PIANEZZA", "idImpianto": 21862, "points": [{"type": "Feature", "properties": {}, "geometry": {"type": "Point", "coordinates": [7.573900446295738, 45.10443063852144]}}], "price": 1.818, "ultima_rilevazione": "20/05/2022 23:02:36"}], "5": [{"Gestore": "TOP GAS SAS DI LOCURATOLO LUIGI & C.", "Bandiera": "Agip Eni", "Tipo impianto": "Altro", "Indirizzo": "STRADA TORINO KM. 11,500 SNC 10072", "Nome impianto": "top-gas", "Comune": "CASELLE TORINESE", "idImpianto": 39764, "points": [{"type": "Feature", "properties": {}, "geometry": {"type": "Point", "coordinates": [7.655032575130463, 45.1624579133943]}}], "price": 2.209, "ultima_rilevazione": "21/05/2022 06:56:09"}, {"Gestore": "NUOVE DIREZIONI DI CARLO FERNANDO COSTANZO", "Bandiera": "Agip Eni", "Tipo impianto": "Altro", "Indirizzo": "strada san maurizio  12 10072", "Nome impianto": "eni aereoporto caselle", "Comune": "CASELLE TORINESE", "idImpianto": 40089, "points": [{"type": "Feature", "properties": {}, "geometry": {"type": "Point", "coordinates": [7.642328962683678, 45.18971374654478]}}], "price": 1.834, "ultima_rilevazione": "05/05/2022 07:56:21"}, {"Gestore": "MAGEA S.N.C. DI ANTONICELLI EROS & GUGLIOTTA MARIA ANTONIA", "Bandiera": "Agip Eni", "Tipo impianto": "Strada Statale", "Indirizzo": "24 del Monginevro, Km. 16+760, CASELETTE 10091", "Nome impianto": "STAZIONE ENI MAGEA", "Comune": "ALPIGNANO", "idImpianto": 43114, "points": [{"type": "Feature", "properties": {}, "geometry": {"type": "Point", "coordinates": [7.504751417272701, 45.10476516983302]}}], "price": 1.849, "ultima_rilevazione": "16/05/2022 12:40:51"}, {"Gestore": "GA.VER. S.A.S. DI GAETA MARIO & C.", "Bandiera": "Api-Ip", "Tipo impianto": "Altro", "Indirizzo": "VIA PIETRO COSSA 80/A, 10146", "Nome impianto": "stazione di servizio totalerg", "Comune": "TORINO", "idImpianto": 9122, "points": [{"type": "Feature", "properties": {}, "geometry": {"type": "Point", "coordinates": [7.623943090438843, 45.081012662519285]}}], "price": 1.869, "ultima_rilevazione": "17/05/2022 12:27:19"}, {"Gestore": "SERVIZI & GESTIONI ITALIA S.R.L.", "Bandiera": "Q8", "Tipo impianto": "Altro", "Indirizzo": "SP TORINO/CASELLE KM 16  10077", "Nome impianto": "SAN MAURIZIO CANAVESE SP TORINO/CASELLE KM 16", "Comune": "SAN MAURIZIO CANAVESE", "idImpianto": 21106, "points": [{"type": "Feature", "properties": {}, "geometry": {"type": "Point", "coordinates": [7.626498770569583, 45.194391429784815]}}], "price": 1.834, "ultima_rilevazione": "18/05/2022 02:35:37"}, {"Gestore": "SERVIZI & GESTIONI ITALIA S.R.L.", "Bandiera": "Q8", "Tipo impianto": "Altro", "Indirizzo": "VIA P.COSSA 195/a 10145", "Nome impianto": "TORINO VIA P.COSSA 195/A", "Comune": "TORINO", "idImpianto": 32482, "points": [{"type": "Feature", "properties": {}, "geometry": {"type": "Point", "coordinates": [7.626372706745883, 45.087588804279456]}}], "price": 1.849, "ultima_rilevazione": "18/05/2022 02:35:39"}, {"Gestore": "SERVIZI & GESTIONI ITALIA S.R.L.", "Bandiera": "Q8", "Tipo impianto": "Altro", "Indirizzo": "VIA LANZO 18 10071", "Nome impianto": "BORGARO TORINESE VIA LANZO 18", "Comune": "BORGARO TORINESE", "idImpianto": 24891, "points": [{"type": "Feature", "properties": {}, "geometry": {"type": "Point", "coordinates": [7.65623984603269, 45.13680709766655]}}], "price": 1.879, "ultima_rilevazione": "18/05/2022 02:35:40"}, {"Gestore": "SERVIZI & GESTIONI ITALIA S.R.L.", "Bandiera": "Q8", "Tipo impianto": "Altro", "Indirizzo": "STRAD PROV. TORINO-LANZO S/N 10071", "Nome impianto": "BORGARO TORINESE-STRAD PROV. TORINO-LANZO", "Comune": "BORGARO TORINESE", "idImpianto": 11873, "points": [{"type": "Feature", "properties": {}, "geometry": {"type": "Point", "coordinates": [7.655451720237693, 45.14140756768663]}}], "price": 1.889, "ultima_rilevazione": "18/05/2022 07:07:28"}, {"Gestore": "SERVIZI & GESTIONI ITALIA S.R.L.", "Bandiera": "Q8", "Tipo impianto": "Altro", "Indirizzo": "VIA PAOLO VERONESE ANGOLO STRADA LANZO S/N 10148", "Nome impianto": "TORINO-VIA PAOLO VERONESE ANGOLO STRADA LA", "Comune": "TORINO", "idImpianto": 11864, "points": [{"type": "Feature", "properties": {}, "geometry": {"type": "Point", "coordinates": [7.660827987766197, 45.11157414810119]}}], "price": 1.889, "ultima_rilevazione": "18/05/2022 07:07:38"}, {"Gestore": "SAMA SNC DI POMO MAURO E LUCCO BOSSU' SARA", "Bandiera": "Agip Eni", "Tipo impianto": "Altro", "Indirizzo": "Corso Francia  401 10142", "Nome impianto": "Stazione di servizio Eni", "Comune": "TORINO", "idImpianto": 40126, "points": [{"type": "Feature", "properties": {}, "geometry": {"type": "Point", "coordinates": [7.60634026636194, 45.07366980061131]}}], "price": 1.894, "ultima_rilevazione": "18/05/2022 08:50:27"}, {"Gestore": "CIRILLO AUTORIPARAZIONI 2 S.A.S. DI CIRILLO PIETRO & C.", "Bandiera": "Esso", "Tipo impianto": "Altro", "Indirizzo": "CORSO FRANCIA 462 10143", "Nome impianto": "ESSO", "Comune": "TORINO", "idImpianto": 40065, "points": [{"type": "Feature", "properties": {}, "geometry": {"type": "Point", "coordinates": [7.606014273610754, 45.07428687878568]}}], "price": 1.879, "ultima_rilevazione": "18/05/2022 09:26:28"}, {"Gestore": "CIRILLO AUTORIPARAZIONI S.A.S. DI CIRILLO PIETRO & C.", "Bandiera": "Esso", "Tipo impianto": "Altro", "Indirizzo": "VIA PIETRO COSSA 175/A 10146", "Nome impianto": "ESSO ", "Comune": "TORINO", "idImpianto": 40049, "points": [{"type": "Feature", "properties": {}, "geometry": {"type": "Point", "coordinates": [7.625419901188707, 45.08620538125764]}}], "price": 1.869, "ultima_rilevazione": "18/05/2022 09:28:00"}, {"Gestore": "SED S.N.C. DI DAVIDE E STEFANO MONTAGONO", "Bandiera": "Api-Ip", "Tipo impianto": "Altro", "Indirizzo": "VIA VENARIA 8 10091", "Nome impianto": "IP Italiana Petroli", "Comune": "ALPIGNANO", "idImpianto": 43361, "points": [{"type": "Feature", "properties": {}, "geometry": {"type": "Point", "coordinates": [7.534227084655754, 45.10202250519849]}}], "price": 1.849, "ultima_rilevazione": "18/05/2022 09:38:16"}, {"Gestore": "ECONOMY S.R.L.", "Bandiera": "Economysrl", "Tipo impianto": "Altro", "Indirizzo": "VIA XXX APRILE 25 10093", "Nome impianto": "Economy - Collegno", "Comune": "COLLEGNO", "idImpianto": 47153, "points": [{"type": "Feature", "properties": {}, "geometry": {"type": "Point", "coordinates": [7.574864000123, 45.082282000123]}}], "price": 1.899, "ultima_rilevazione": "18/05/2022 18:14:16"}, {"Gestore": "GALDA - S.N.C. DI CANTELLA DANIELE E COTTINI ALBERTA SIGLABILE COMMERCIALMENTE GALDA - S.N.C.", "Bandiera": "Repsol", "Tipo impianto": "Altro", "Indirizzo": "strada provinciale  to-lanzo km18+770  10073", "Nome impianto": "galda ", "Comune": "CIRIE'", "idImpianto": 6338, "points": [{"type": "Feature", "properties": {}, "geometry": {"type": "Point", "coordinates": [7.6113393902778625, 45.216669909432255]}}], "price": 1.844, "ultima_rilevazione": "18/05/2022 18:28:43"}, {"Gestore": "SERVIZI & GESTIONI ITALIA srl", "Bandiera": "Q8", "Tipo impianto": "Altro", "Indirizzo": "VIA SANSOVINO 153 10151", "Nome impianto": "TORINO SANSOVINO 153", "Comune": "TORINO", "idImpianto": 6394, "points": [{"type": "Feature", "properties": {}, "geometry": {"type": "Point", "coordinates": [7.6470275484794, 45.105801503882]}}], "price": 1.879, "ultima_rilevazione": "19/05/2022 01:41:09"}, {"Gestore": "SERVIZI & GESTIONI ITALIA S.R.L.", "Bandiera": "Q8", "Tipo impianto": "Altro", "Indirizzo": "CORSO GROSSETO ANGOLO VIA SANSOVINO 338 10151", "Nome impianto": "TORINO-CORSO GROSSETO 338 ANGOLO VIA SANSO", "Comune": "TORINO", "idImpianto": 11857, "points": [{"type": "Feature", "properties": {}, "geometry": {"type": "Point", "coordinates": [7.649496152114807, 45.10650445294046]}}], "price": 1.879, "ultima_rilevazione": "19/05/2022 01:41:11"}, {"Gestore": "SERVIZI & GESTIONI ITALIA S.R.L.", "Bandiera": "Q8", "Tipo impianto": "Altro", "Indirizzo": "VIA SANSOVINO/VIA MOLISE S/N 10151", "Nome impianto": "TORINO-VIA SANSOVINO/VIA MOLISE", "Comune": "TORINO", "idImpianto": 11863, "points": [{"type": "Feature", "properties": {}, "geometry": {"type": "Point", "coordinates": [7.63872682209012, 45.100830292288975]}}], "price": 1.889, "ultima_rilevazione": "19/05/2022 06:36:19"}, {"Gestore": "ZULLO MICHELE", "Bandiera": "Europam", "Tipo impianto": "Altro", "Indirizzo": "VIA PIETRO COSSA 102 B 10146", "Nome impianto": "EUROPAM P.COSSA", "Comune": "TORINO", "idImpianto": 42646, "points": [{"type": "Feature", "properties": {}, "geometry": {"type": "Point", "coordinates": [7.624495668122904, 45.08235991224021]}}], "price": 1.817, "ultima_rilevazione": "19/05/2022 08:30:35"}, {"Gestore": "ARC S.N.C. DI ARROCCESE GIULIAN & C.", "Bandiera": "Esso", "Tipo impianto": "Altro", "Indirizzo": "STRADA COMUNALE DI ALTESSANO 138/A 10151", "Nome impianto": "STAZIONE ESSO ARC.SNC", "Comune": "TORINO", "idImpianto": 37645, "points": [{"type": "Feature", "properties": {}, "geometry": {"type": "Point", "coordinates": [7.645719944249777, 45.10944612290978]}}], "price": 1.869, "ultima_rilevazione": "19/05/2022 09:05:31"}, {"Gestore": "NECCHIO ADRIANO", "Bandiera": "Esso", "Tipo impianto": "Altro", "Indirizzo": "VIA VAL DELLA TORRE 210 10091", "Nome impianto": "DISTRIBUTORE ESSO", "Comune": "ALPIGNANO", "idImpianto": 7872, "points": [{"type": "Feature", "properties": {}, "geometry": {"type": "Point", "coordinates": [7.505966126918793, 45.11918184652125]}}], "price": 1.944, "ultima_rilevazione": "19/05/2022 09:29:31"}, {"Gestore": "ROSELLI DAVIDE", "Bandiera": "Esso", "Tipo impianto": "Altro", "Indirizzo": "via lanzo  76 10071", "Nome impianto": "ESSO ", "Comune": "BORGARO TORINESE", "idImpianto": 48545, "points": [{"type": "Feature", "properties": {}, "geometry": {"type": "Point", "coordinates": [7.655568728836055, 45.14578362121748]}}], "price": 1.879, "ultima_rilevazione": "19/05/2022 13:00:16"}, {"Gestore": "AN. DE. GI. S.N.C. DI FURLAN ELENA E MANISCALCO GIUSEPPE", "Bandiera": "Costantin", "Tipo impianto": "Altro", "Indirizzo": "VIA LANZO 61 10070", "Nome impianto": "tamoil robassomero", "Comune": "ROBASSOMERO", "idImpianto": 24528, "points": [{"type": "Feature", "properties": {}, "geometry": {"type": "Point", "coordinates": [7.543290901245655, 45.2140289446472]}}], "price": 1.919, "ultima_rilevazione": "19/05/2022 14:43:57"}, {"Gestore": "MASSARO ANTONIO", "Bandiera": "Api-Ip", "Tipo impianto": "Altro", "Indirizzo": "VIA VEROLENGO 170/A 10149", "Nome impianto": "stazione di servizio totalerg 2", "Comune": "TORINO", "idImpianto": 40412, "points": [{"type": "Feature", "properties": {}, "geometry": {"type": "Point", "coordinates": [7.653329372406006, 45.09513774310146]}}], "price": 1.879, "ultima_rilevazione": "19/05/2022 16:14:10"}, {"Gestore": "MASSARO ANTONIO", "Bandiera": "Api-Ip", "Tipo impianto": "Altro", "Indirizzo": "CORSO POTENZA ANG. V. VEROLENGO SN 10149", "Nome impianto": "Stazione di servizio Totalerg", "Comune": "TORINO", "idImpianto": 40413, "points": [{"type": "Feature", "properties": {}, "geometry": {"type": "Point", "coordinates": [7.6574720442295074, 45.095448837219045]}}], "price": 1.879, "ultima_rilevazione": "19/05/2022 16:14:39"}, {"Gestore": "SERVIZI & GESTIONI ITALIA S.R.L.", "Bandiera": "Q8", "Tipo impianto": "Altro", "Indirizzo": "CORSO TOSCANA 43/A 10149", "Nome impianto": "TORINO CORSO TOSCANA 43/A", "Comune": "TORINO", "idImpianto": 24636, "points": [{"type": "Feature", "properties": {}, "geometry": {"type": "Point", "coordinates": [7.656544368122923, 45.09699542168028]}}], "price": 1.899, "ultima_rilevazione": "20/05/2022 06:32:45"}, {"Gestore": "TESORO MICHELE E DAVIDE SNC", "Bandiera": "Esso", "Tipo impianto": "Altro", "Indirizzo": "VIA STAMPINI 34/A 10148", "Nome impianto": "STAZIONE DI SERVIZIO ESSO DI TESORO M.E D.SNC", "Comune": "TORINO", "idImpianto": 44165, "points": [{"type": "Feature", "properties": {}, "geometry": {"type": "Point", "coordinates": [7.663632247885062, 45.10890661626722]}}], "price": 1.879, "ultima_rilevazione": "20/05/2022 07:08:53"}, {"Gestore": "CAPPUCCI ALESSIO CARBURANTI & C. S.N.C.", "Bandiera": "Esso", "Tipo impianto": "Altro", "Indirizzo": "VIA MICHELE LESSONA 84/A 10145", "Nome impianto": "CAPPUCCI CARBURANTI VIA LESSONA", "Comune": "TORINO", "idImpianto": 24311, "points": [{"type": "Feature", "properties": {}, "geometry": {"type": "Point", "coordinates": [7.640396490178318, 45.08350879449111]}}], "price": 1.866, "ultima_rilevazione": "20/05/2022 08:14:44"}, {"Gestore": "EUROPACAR SOCIETA' COOPERATIVA", "Bandiera": "Tamoil", "Tipo impianto": "Altro", "Indirizzo": "via reiss romoli 314/a 10148", "Nome impianto": "TAMOIL", "Comune": "TORINO", "idImpianto": 34708, "points": [{"type": "Feature", "properties": {}, "geometry": {"type": "Point", "coordinates": [7.666633464396, 45.11127310711178]}}], "price": 1.879, "ultima_rilevazione": "20/05/2022 15:08:16"}, {"Gestore": "M.A. SERVICE S.N.C. DI DI GENNARO MARCO & GESUALDO ALESSANDRO", "Bandiera": "Api-Ip", "Tipo impianto": "Altro", "Indirizzo": "CORSO TOGLIATTI 12 10093", "Nome impianto": "totalerg", "Comune": "COLLEGNO", "idImpianto": 40157, "points": [{"type": "Feature", "properties": {}, "geometry": {"type": "Point", "coordinates": [7.564465139881122, 45.073229163995215]}}], "price": 1.979, "ultima_rilevazione": "20/05/2022 09:03:39"}, {"Gestore": "STAZIONE DI SERVIZIO S.N.C. DI SALOMONI ADRIANO E C.", "Bandiera": "Tamoil", "Tipo impianto": "Altro", "Indirizzo": "CORSO BERNARDINO TELESIO 71/A 10146", "Nome impianto": "STAZIONE DI SERVIZIO TAMOIL DI SALOMONI A. ", "Comune": "TORINO", "idImpianto": 21320, "points": [{"type": "Feature", "properties": {}, "geometry": {"type": "Point", "coordinates": [7.6273500490738115, 45.08073269066767]}}], "price": 1.899, "ultima_rilevazione": "20/05/2022 09:44:03"}, {"Gestore": "CAPPUCCI ALESSIO CARBURANTI & C. S.N.C.", "Bandiera": "Esso", "Tipo impianto": "Altro", "Indirizzo": "Via Sansovino 88/A 10151", "Nome impianto": "CAPPUCCI ALESSIO CARBURANTI & C. SNC", "Comune": "TORINO", "idImpianto": 45129, "points": [{"type": "Feature", "properties": {}, "geometry": {"type": "Point", "coordinates": [7.641423000123, 45.101915000123]}}], "price": 1.859, "ultima_rilevazione": "20/05/2022 09:55:30"}, {"Gestore": "ROSELLI MICHELE", "Bandiera": "Esso", "Tipo impianto": "Altro", "Indirizzo": "VIA SERVAIS 210/7 10146", "Nome impianto": "STAZIONE DI SERVIZIO ESSO EXPRESS", "Comune": "TORINO", "idImpianto": 37535, "points": [{"type": "Feature", "properties": {}, "geometry": {"type": "Point", "coordinates": [7.614164119643419, 45.08702061254925]}}], "price": 1.839, "ultima_rilevazione": "20/05/2022 10:22:42"}, {"Gestore": "T.D.M. S.R.L.", "Bandiera": "Tamoil", "Tipo impianto": "Altro", "Indirizzo": "CORSO SUSA 4 10040", "Nome impianto": "8013", "Comune": "CASELETTE", "idImpianto": 44380, "points": [{"type": "Feature", "properties": {}, "geometry": {"type": "Point", "coordinates": [7.498976959940592, 45.10741854063976]}}], "price": 1.879, "ultima_rilevazione": "20/05/2022 11:32:10"}, {"Gestore": "IP SERVICES S.R.L.", "Bandiera": "Api-Ip", "Tipo impianto": "Altro", "Indirizzo": "TORINO - AEROPORTO S.P. 325/A Km 8  10156", "Nome impianto": "TORINO - AEROPORTO S.P. 325/A Km 8", "Comune": "TORINO", "idImpianto": 22300, "points": [{"type": "Feature", "properties": {}, "geometry": {"type": "Point", "coordinates": [7.656681224536896, 45.13215865911113]}}], "price": 1.859, "ultima_rilevazione": "20/05/2022 12:01:24"}, {"Gestore": "IPERSTAROIL S.R.L.", "Bandiera": "Auchan", "Tipo impianto": "Altro", "Indirizzo": "CORSO GARIBALDI 235 10078", "Nome impianto": "Venaria Reale", "Comune": "VENARIA REALE", "idImpianto": 50302, "points": [{"type": "Feature", "properties": {}, "geometry": {"type": "Point", "coordinates": [7.647516714462441, 45.11478182586455]}}], "price": 1.819, "ultima_rilevazione": "20/05/2022 12:04:09"}, {"Gestore": "IP SERVICES S.R.L.", "Bandiera": "Api-Ip", "Tipo impianto": "Altro", "Indirizzo": "Corso Pastrengo  10093", "Nome impianto": "Collegno", "Comune": "COLLEGNO", "idImpianto": 39188, "points": [{"type": "Feature", "properties": {}, "geometry": {"type": "Point", "coordinates": [7.581583145368995, 45.08086836392947]}}], "price": 1.839, "ultima_rilevazione": "20/05/2022 12:04:45"}, {"Gestore": "IP SERVICES S.R.L.", "Bandiera": "Api-Ip", "Tipo impianto": "Altro", "Indirizzo": "VIA ALPIGNANO 130 10040", "Nome impianto": "Val della Torre Torino", "Comune": "VAL DELLA TORRE", "idImpianto": 40045, "points": [{"type": "Feature", "properties": {}, "geometry": {"type": "Point", "coordinates": [7.488698735833168, 45.13203174257948]}}], "price": 1.869, "ultima_rilevazione": "20/05/2022 12:04:45"}, {"Gestore": "IP SERVICES S.R.L.", "Bandiera": "Api-Ip", "Tipo impianto": "Altro", "Indirizzo": "Strada Altessano 106/A 10151", "Nome impianto": "Altessano Torino", "Comune": "TORINO", "idImpianto": 36452, "points": [{"type": "Feature", "properties": {}, "geometry": {"type": "Point", "coordinates": [7.645593881607056, 45.10782476295114]}}], "price": 1.849, "ultima_rilevazione": "20/05/2022 12:05:54"}, {"Gestore": "IP SERVICES S.R.L.", "Bandiera": "Api-Ip", "Tipo impianto": "Altro", "Indirizzo": "SP Torino Caselle km 11+325  10071", "Nome impianto": "BORGARO TORINESE", "Comune": "BORGARO TORINESE", "idImpianto": 32694, "points": [{"type": "Feature", "properties": {}, "geometry": {"type": "Point", "coordinates": [7.654906511306763, 45.15676107613564]}}], "price": 1.879, "ultima_rilevazione": "20/05/2022 16:04:35"}, {"Gestore": "T.D.M. S.R.L.", "Bandiera": "Tamoil", "Tipo impianto": "Altro", "Indirizzo": "Corso Marche  10146", "Nome impianto": "8257", "Comune": "TORINO", "idImpianto": 35461, "points": [{"type": "Feature", "properties": {}, "geometry": {"type": "Point", "coordinates": [7.614338099956512, 45.07532942847123]}}], "price": 1.839, "ultima_rilevazione": "20/05/2022 12:16:04"}, {"Gestore": "EUROPACAR SOCIETA' COOPERATIVA", "Bandiera": "Tamoil", "Tipo impianto": "Altro", "Indirizzo": "Via Sansovino 44/A 10151", "Nome impianto": "TAMOIL", "Comune": "TORINO", "idImpianto": 33529, "points": [{"type": "Feature", "properties": {}, "geometry": {"type": "Point", "coordinates": [7.637332072352592, 45.099368380781925]}}], "price": 1.829, "ultima_rilevazione": "20/05/2022 15:06:10"}, {"Gestore": "ECONOMY S.R.L.", "Bandiera": "Agip Eni", "Tipo impianto": "Altro", "Indirizzo": "S. P. 13 km 16+450 S. N.  10077", "Nome impianto": "Economy, San Maurizio Canavese", "Comune": "SAN MAURIZIO CANAVESE", "idImpianto": 41401, "points": [{"type": "Feature", "properties": {}, "geometry": {"type": "Point", "coordinates": [7.636678218841553, 45.20378145461903]}}], "price": 1.854, "ultima_rilevazione": "20/05/2022 16:00:19"}, {"Gestore": "IP SERVICES S.R.L.", "Bandiera": "Api-Ip", "Tipo impianto": "Altro", "Indirizzo": "VIA COSSA 150  10146", "Nome impianto": "TORINO - COSSA 150", "Comune": "TORINO", "idImpianto": 22301, "points": [{"type": "Feature", "properties": {}, "geometry": {"type": "Point", "coordinates": [7.6236160932541, 45.08156590969744]}}], "price": 1.839, "ultima_rilevazione": "20/05/2022 16:01:06"}, {"Gestore": "IP SERVICES S.R.L.", "Bandiera": "Api-Ip", "Tipo impianto": "Altro", "Indirizzo": "VIA PIETRO COSSA 107 10146", "Nome impianto": "TORINO - VIA PIETRO COSSA ", "Comune": "TORINO", "idImpianto": 21851, "points": [{"type": "Feature", "properties": {}, "geometry": {"type": "Point", "coordinates": [7.625824898147584, 45.08557348717841]}}], "price": 1.839, "ultima_rilevazione": "20/05/2022 16:01:23"}, {"Gestore": "BOGINO MARIO", "Bandiera": "Tamoil", "Tipo impianto": "Altro", "Indirizzo": "VIA LANZO 92 10070", "Nome impianto": "Tamoil di Bogino Mario", "Comune": "FIANO", "idImpianto": 29882, "points": [{"type": "Feature", "properties": {}, "geometry": {"type": "Point", "coordinates": [7.530746127647376, 45.22559052709633]}}], "price": 1.899, "ultima_rilevazione": "20/05/2022 16:37:45"}, {"Gestore": "ARAMU GIANCARLO", "Bandiera": "Api-Ip", "Tipo impianto": "Altro", "Indirizzo": "STRADA AEROPORTO 6 10148", "Nome impianto": "TotalErg", "Comune": "TORINO", "idImpianto": 26728, "points": [{"type": "Feature", "properties": {}, "geometry": {"type": "Point", "coordinates": [7.663553563982418, 45.11208314758517]}}], "price": 1.899, "ultima_rilevazione": "20/05/2022 18:58:06"}, {"Gestore": "AUTOLAVAGGIO G.M. S.N.C. DI VAZZANA FABRIZIO & C.", "Bandiera": "Agip Eni", "Tipo impianto": "Altro", "Indirizzo": "VIA LANZO 3 10070", "Nome impianto": "autolavaggio g.m di vazzana fabrizio snc", "Comune": "FIANO", "idImpianto": 26306, "points": [{"type": "Feature", "properties": {}, "geometry": {"type": "Point", "coordinates": [7.537669837474823, 45.21897004575188]}}], "price": 1.859, "ultima_rilevazione": "20/05/2022 22:30:40"}, {"Gestore": "ECONOMY S.R.L.", "Bandiera": "Economysrl", "Tipo impianto": "Altro", "Indirizzo": "VIA TORINO SP N.2 KM 16+102 SNC 10077", "Nome impianto": "Economy - Ceretta", "Comune": "SAN MAURIZIO CANAVESE", "idImpianto": 45179, "points": [{"type": "Feature", "properties": {}, "geometry": {"type": "Point", "coordinates": [7.626894000123, 45.194659000123]}}], "price": 1.829, "ultima_rilevazione": "21/05/2022 06:55:28"}, {"Gestore": "MURDOCCO MASSIMO", "Bandiera": "Agip Eni", "Tipo impianto": "Altro", "Indirizzo": "VIA SERVAIS 32/A 10146", "Nome impianto": "ENI 52935", "Comune": "TORINO", "idImpianto": 45680, "points": [{"type": "Feature", "properties": {}, "geometry": {"type": "Point", "coordinates": [7.6361654454036625, 45.08368297157411]}}], "price": 1.914, "ultima_rilevazione": "21/05/2022 07:15:22"}, {"Gestore": "SGAMBELLONE MARIA ROSA", "Bandiera": "Tamoil", "Tipo impianto": "Altro", "Indirizzo": "ViaTorino  39 10077", "Nome impianto": "Stazione di Servizio TAMOIL", "Comune": "SAN MAURIZIO CANAVESE", "idImpianto": 7361, "points": [{"type": "Feature", "properties": {}, "geometry": {"type": "Point", "coordinates": [7.621298432350159, 45.20256664566724]}}], "price": 1.869, "ultima_rilevazione": "21/05/2022 07:34:09"}, {"Gestore": "SGAMBELLONE MARIA ROSA", "Bandiera": "Tamoil", "Tipo impianto": "Altro", "Indirizzo": "ViaTorino  39 10077", "Nome impianto": "Stazione di Servizio TAMOIL", "Comune": "SAN MAURIZIO CANAVESE", "idImpianto": 7361, "points": [{"type": "Feature", "properties": {}, "geometry": {"type": "Point", "coordinates": [7.621298432350159, 45.20256664566724]}}], "price": 2.019, "ultima_rilevazione": "21/05/2022 07:34:09"}, {"Gestore": "EUROPACAR SOCIETA' COOPERATIVA", "Bandiera": "Tamoil", "Tipo impianto": "Altro", "Indirizzo": "Via Sansovino 44/A 10151", "Nome impianto": "TAMOIL", "Comune": "TORINO", "idImpianto": 33529, "points": [{"type": "Feature", "properties": {}, "geometry": {"type": "Point", "coordinates": [7.637332072352592, 45.099368380781925]}}], "price": 1.719, "ultima_rilevazione": "20/05/2022 15:06:10"}]}, "Gasolio": {"1": [{"Gestore": "SERVIZI & GESTIONI ITALIA S.R.L.", "Bandiera": "Q8", "Tipo impianto": "Altro", "Indirizzo": "S.P. TO/DRUENTO KM 10+400  10040", "Nome impianto": "DRUENTO S.P. TO/DRUENTO KM 10+400", "Comune": "DRUENTO", "idImpianto": 22253, "points": [{"type": "Feature", "properties": {}, "geometry": {"type": "Point", "coordinates": [7.598684669380987, 45.12217330018168]}}], "price": 1.829, "ultima_rilevazione": "18/05/2022 02:35:37"}, {"Gestore": "ECONOMY S.R.L.", "Bandiera": "Api-Ip", "Tipo impianto": "Altro", "Indirizzo": "CORSO MACHIAVELLI 230  ANG. DON SAPINO  10078", "Nome impianto": "Economy S.r.l - Venaria ", "Comune": "VENARIA REALE", "idImpianto": 25023, "points": [{"type": "Feature", "properties": {}, "geometry": {"type": "Point", "coordinates": [7.618852257728577, 45.12220737086037]}}], "price": 1.799, "ultima_rilevazione": "18/05/2022 11:08:32"}, {"Gestore": "BIONDI ANTONIO", "Bandiera": "Agip Eni", "Tipo impianto": "Altro", "Indirizzo": "STRADA PROV.LE VENARIA LANZO KM16 960  10070", "Nome impianto": "Biondi Antonio", "Comune": "ROBASSOMERO", "idImpianto": 9882, "points": [{"type": "Feature", "properties": {}, "geometry": {"type": "Point", "coordinates": [7.5692018866539, 45.18770751684281]}}], "price": 1.889, "ultima_rilevazione": "18/05/2022 11:29:47"}, {"Gestore": "PETROLTERMICA COMAC - OLCEA S.P.A.", "Bandiera": "Pompe Bianche", "Tipo impianto": "Altro", "Indirizzo": "CORSO FLEMING 35 10040", "Nome impianto": "Petroltermica Druento", "Comune": "DRUENTO", "idImpianto": 21492, "points": [{"type": "Feature", "properties": {}, "geometry": {"type": "Point", "coordinates": [7.586854845285416, 45.13065020682192]}}], "price": 1.799, "ultima_rilevazione": "19/05/2022 09:04:19"}, {"Gestore": "SERVIZI & GESTIONI ITALIA S.R.L.", "Bandiera": "Q8", "Tipo impianto": "Altro", "Indirizzo": "VIA LANZO 16 10070", "Nome impianto": "ROBASSOMERO-VIA LANZO 16", "Comune": "ROBASSOMERO", "idImpianto": 11854, "points": [{"type": "Feature", "properties": {}, "geometry": {"type": "Point", "coordinates": [7.563201923942529, 45.19373402332862]}}], "price": 2.089, "ultima_rilevazione": "20/05/2022 09:06:17"}, {"Gestore": "T.D.M. S.R.L.", "Bandiera": "Tamoil", "Tipo impianto": "Altro", "Indirizzo": "SP.176 DA KM. 0+600 A KM. 0+660 LATO SX 12 10040", "Nome impianto": "7767", "Comune": "DRUENTO", "idImpianto": 47138, "points": [{"type": "Feature", "properties": {}, "geometry": {"type": "Point", "coordinates": [7.590820481852423, 45.11816769770197]}}], "price": 1.799, "ultima_rilevazione": "20/05/2022 11:54:12"}], "3": [{"Gestore": "TOFFEE DI LAURICELLA MARCO & C. S.N.C.", "Bandiera": "Api-Ip", "Tipo impianto": "Altro", "Indirizzo": "Via San Gillio 50 10040", "Nome impianto": "Italiana Petroli", "Comune": "GIVOLETTO", "idImpianto": 49396, "points": [{"type": "Feature", "properties": {}, "geometry": {"type": "Point", "coordinates": [7.5033806153961535, 45.1559432314448]}}], "price": 1.829, "ultima_rilevazione": "17/05/2022 14:47:30"}, {"Gestore": "FAMIREL S.N.C. DI FAMMILUME GENNARO E RELLA ANNARITA", "Bandiera": "Agip Eni", "Tipo impianto": "Altro", "Indirizzo": "VIA PIAVE 35 10044", "Nome impianto": "eni", "Comune": "PIANEZZA", "idImpianto": 38465, "points": [{"type": "Feature", "properties": {}, "geometry": {"type": "Point", "coordinates": [7.556098832016005, 45.09815772951559]}}], "price": 1.829, "ultima_rilevazione": "17/05/2022 18:30:04"}, {"Gestore": "SERVIZI & GESTIONI ITALIA S.R.L.", "Bandiera": "Q8", "Tipo impianto": "Altro", "Indirizzo": "VIA PIANEZZA 385 10151", "Nome impianto": "TORINO VIA PIANEZZA 385", "Comune": "TORINO", "idImpianto": 48815, "points": [{"type": "Feature", "properties": {}, "geometry": {"type": "Point", "coordinates": [7.620992475463093, 45.09912497394853]}}], "price": 1.789, "ultima_rilevazione": "18/05/2022 07:07:27"}, {"Gestore": "BIONDI ANTONIO", "Bandiera": "Agip Eni", "Tipo impianto": "Altro", "Indirizzo": "STRADA PROV.LE TORINO-LANZO KM20 049 10070", "Nome impianto": "Biondi Antonio 2", "Comune": "ROBASSOMERO", "idImpianto": 29131, "points": [{"type": "Feature", "properties": {}, "geometry": {"type": "Point", "coordinates": [7.547006607055664, 45.21033318936504]}}], "price": 1.889, "ultima_rilevazione": "18/05/2022 11:30:43"}, {"Gestore": "BIONDI ANTONIO", "Bandiera": "Agip Eni", "Tipo impianto": "Altro", "Indirizzo": "CORSO GARIBALDI 56 10078", "Nome impianto": "Eni di Biondi Antonio ", "Comune": "VENARIA REALE", "idImpianto": 36798, "points": [{"type": "Feature", "properties": {}, "geometry": {"type": "Point", "coordinates": [7.637437283992767, 45.12662925718583]}}], "price": 1.889, "ultima_rilevazione": "18/05/2022 11:32:37"}, {"Gestore": "SERVIZI & GESTIONI ITALIA srl", "Bandiera": "Q8", "Tipo impianto": "Altro", "Indirizzo": "SP 24 LOC. STAZIONETTA SNC 10093", "Nome impianto": "COLLEGNO SP 24 LOC. STAZIONETTA", "Comune": "COLLEGNO", "idImpianto": 6393, "points": [{"type": "Feature", "properties": {}, "geometry": {"type": "Point", "coordinates": [7.577296793460846, 45.09582544231724]}}], "price": 1.829, "ultima_rilevazione": "19/05/2022 01:41:08"}, {"Gestore": "ALOISIO MARCO", "Bandiera": "Q8", "Tipo impianto": "Altro", "Indirizzo": "VIA CAVALLO 76 10078", "Nome impianto": "Q8 Aloisio ", "Comune": "VENARIA REALE", "idImpianto": 32526, "points": [{"type": "Feature", "properties": {}, "geometry": {"type": "Point", "coordinates": [7.626418769359589, 45.13998102537151]}}], "price": 1.849, "ultima_rilevazione": "19/05/2022 08:55:45"}, {"Gestore": "SABINO ALESSANDRO", "Bandiera": "Esso", "Tipo impianto": "Altro", "Indirizzo": "STRADA TORINO PIANEZZA 90 10093", "Nome impianto": "ESSO STAZIONE", "Comune": "COLLEGNO", "idImpianto": 50690, "points": [{"type": "Feature", "properties": {}, "geometry": {"type": "Point", "coordinates": [7.592963317790918, 45.09679353299372]}}], "price": 1.819, "ultima_rilevazione": "20/05/2022 07:56:24"}, {"Gestore": "D'ELIA GIOVANNI", "Bandiera": "Agip Eni", "Tipo impianto": "Altro", "Indirizzo": "CORSO SACCO E VANZETTI 9 10093", "Nome impianto": "eni 978", "Comune": "COLLEGNO", "idImpianto": 5581, "points": [{"type": "Feature", "properties": {}, "geometry": {"type": "Point", "coordinates": [7.618653774261475, 45.094546413684775]}}], "price": 1.804, "ultima_rilevazione": "20/05/2022 11:33:28"}, {"Gestore": "IP SERVICES S.R.L.", "Bandiera": "Api-Ip", "Tipo impianto": "Altro", "Indirizzo": "SP 24 KM 2+265  10044", "Nome impianto": "Pianezza", "Comune": "PIANEZZA", "idImpianto": 38966, "points": [{"type": "Feature", "properties": {}, "geometry": {"type": "Point", "coordinates": [7.56183385848999, 45.11204418338163]}}], "price": 1.829, "ultima_rilevazione": "20/05/2022 12:05:16"}, {"Gestore": "ROCCATI GIULIANA", "Bandiera": "Esso", "Tipo impianto": "Strada Statale", "Indirizzo": "Statale 24 del Monginevro, Km. 12+538, dir. Susa Monginevro 10044", "Nome impianto": "Esso", "Comune": "PIANEZZA", "idImpianto": 8359, "points": [{"type": "Feature", "properties": {}, "geometry": {"type": "Point", "coordinates": [7.553480789065361, 45.10047137246544]}}], "price": 1.819, "ultima_rilevazione": "20/05/2022 17:59:29"}, {"Gestore": "GIODA AGOSTINO S.R.L.", "Bandiera": "Pompe Bianche", "Tipo impianto": "Altro", "Indirizzo": "CORSO GARIBALDI 164 10078", "Nome impianto": "GIODA AGOSTINO SRL - DISTRIBUTORE", "Comune": "VENARIA REALE", "idImpianto": 24038, "points": [{"type": "Feature", "properties": {}, "geometry": {"type": "Point", "coordinates": [7.643681466579437, 45.11874065836433]}}], "price": 1.769, "ultima_rilevazione": "20/05/2022 18:28:23"}, {"Gestore": "GIODA AGOSTINO S.R.L.", "Bandiera": "Pompe Bianche", "Tipo impianto": "Altro", "Indirizzo": "CORSO GARIBALDI  153 10078", "Nome impianto": "GIODA AGOSTINO SRL -G.P.L.", "Comune": "VENARIA REALE", "idImpianto": 31773, "points": [{"type": "Feature", "properties": {}, "geometry": {"type": "Point", "coordinates": [7.643968462944031, 45.12084187352116]}}], "price": 1.769, "ultima_rilevazione": "20/05/2022 18:28:41"}, {"Gestore": "IP SERVICES S.R.L.", "Bandiera": "Api-Ip", "Tipo impianto": "Altro", "Indirizzo": "VIA TORINO  10044", "Nome impianto": "PIANEZZA VIA TORINO", "Comune": "PIANEZZA", "idImpianto": 21859, "points": [{"type": "Feature", "properties": {}, "geometry": {"type": "Point", "coordinates": [7.574412077665329, 45.104513747653854]}}], "price": 1.798, "ultima_rilevazione": "20/05/2022 23:02:36"}, {"Gestore": "IP SERVICES S.R.L.", "Bandiera": "Api-Ip", "Tipo impianto": "Altro", "Indirizzo": "VIA TORINO -  OVEST  10044", "Nome impianto": "PIANEZZA VIA TORINO -  OVEST", "Comune": "PIANEZZA", "idImpianto": 21862, "points": [{"type": "Feature", "properties": {}, "geometry": {"type": "Point", "coordinates": [7.573900446295738, 45.10443063852144]}}], "price": 1.798, "ultima_rilevazione": "20/05/2022 23:02:36"}], "5": [{"Gestore": "TOP GAS SAS DI LOCURATOLO LUIGI & C.", "Bandiera": "Agip Eni", "Tipo impianto": "Altro", "Indirizzo": "STRADA TORINO KM. 11,500 SNC 10072", "Nome impianto": "top-gas", "Comune": "CASELLE TORINESE", "idImpianto": 39764, "points": [{"type": "Feature", "properties": {}, "geometry": {"type": "Point", "coordinates": [7.655032575130463, 45.1624579133943]}}], "price": 2.179, "ultima_rilevazione": "21/05/2022 06:56:09"}, {"Gestore": "NUOVE DIREZIONI DI CARLO FERNANDO COSTANZO", "Bandiera": "Agip Eni", "Tipo impianto": "Altro", "Indirizzo": "strada san maurizio  12 10072", "Nome impianto": "eni aereoporto caselle", "Comune": "CASELLE TORINESE", "idImpianto": 40089, "points": [{"type": "Feature", "properties": {}, "geometry": {"type": "Point", "coordinates": [7.642328962683678, 45.18971374654478]}}], "price": 1.824, "ultima_rilevazione": "05/05/2022 07:56:21"}, {"Gestore": "MAGEA S.N.C. DI ANTONICELLI EROS & GUGLIOTTA MARIA ANTONIA", "Bandiera": "Agip Eni", "Tipo impianto": "Strada Statale", "Indirizzo": "24 del Monginevro, Km. 16+760, CASELETTE 10091", "Nome impianto": "STAZIONE ENI MAGEA", "Comune": "ALPIGNANO", "idImpianto": 43114, "points": [{"type": "Feature", "properties": {}, "geometry": {"type": "Point", "coordinates": [7.504751417272701, 45.10476516983302]}}], "price": 1.829, "ultima_rilevazione": "16/05/2022 12:40:51"}, {"Gestore": "GA.VER. S.A.S. DI GAETA MARIO & C.", "Bandiera": "Api-Ip", "Tipo impianto": "Altro", "Indirizzo": "VIA PIETRO COSSA 80/A, 10146", "Nome impianto": "stazione di servizio totalerg", "Comune": "TORINO", "idImpianto": 9122, "points": [{"type": "Feature", "properties": {}, "geometry": {"type": "Point", "coordinates": [7.623943090438843, 45.081012662519285]}}], "price": 1.849, "ultima_rilevazione": "17/05/2022 12:27:19"}, {"Gestore": "SERVIZI & GESTIONI ITALIA S.R.L.", "Bandiera": "Q8", "Tipo impianto": "Altro", "Indirizzo": "SP TORINO/CASELLE KM 16  10077", "Nome impianto": "SAN MAURIZIO CANAVESE SP TORINO/CASELLE KM 16", "Comune": "SAN MAURIZIO CANAVESE", "idImpianto": 21106, "points": [{"type": "Feature", "properties": {}, "geometry": {"type": "Point", "coordinates": [7.626498770569583, 45.194391429784815]}}], "price": 1.779, "ultima_rilevazione": "18/05/2022 02:35:37"}, {"Gestore": "SERVIZI & GESTIONI ITALIA S.R.L.", "Bandiera": "Q8", "Tipo impianto": "Altro", "Indirizzo": "VIA P.COSSA 195/a 10145", "Nome impianto": "TORINO VIA P.COSSA 195/A", "Comune": "TORINO", "idImpianto": 32482, "points": [{"type": "Feature", "properties": {}, "geometry": {"type": "Point", "coordinates": [7.626372706745883, 45.087588804279456]}}], "price": 1.799, "ultima_rilevazione": "18/05/2022 02:35:39"}, {"Gestore": "SERVIZI & GESTIONI ITALIA S.R.L.", "Bandiera": "Q8", "Tipo impianto": "Altro", "Indirizzo": "VIA LANZO 18 10071", "Nome impianto": "BORGARO TORINESE VIA LANZO 18", "Comune": "BORGARO TORINESE", "idImpianto": 24891, "points": [{"type": "Feature", "properties": {}, "geometry": {"type": "Point", "coordinates": [7.65623984603269, 45.13680709766655]}}], "price": 1.859, "ultima_rilevazione": "18/05/2022 02:35:40"}, {"Gestore": "SERVIZI & GESTIONI ITALIA S.R.L.", "Bandiera": "Q8", "Tipo impianto": "Altro", "Indirizzo": "STRAD PROV. TORINO-LANZO S/N 10071", "Nome impianto": "BORGARO TORINESE-STRAD PROV. TORINO-LANZO", "Comune": "BORGARO TORINESE", "idImpianto": 11873, "points": [{"type": "Feature", "properties": {}, "geometry": {"type": "Point", "coordinates": [7.655451720237693, 45.14140756768663]}}], "price": 1.869, "ultima_rilevazione": "18/05/2022 07:07:28"}, {"Gestore": "SERVIZI & GESTIONI ITALIA S.R.L.", "Bandiera": "Q8", "Tipo impianto": "Altro", "Indirizzo": "VIA PAOLO VERONESE ANGOLO STRADA LANZO S/N 10148", "Nome impianto": "TORINO-VIA PAOLO VERONESE ANGOLO STRADA LA", "Comune": "TORINO", "idImpianto": 11864, "points": [{"type": "Feature", "properties": {}, "geometry": {"type": "Point", "coordinates": [7.660827987766197, 45.11157414810119]}}], "price": 1.799, "ultima_rilevazione": "18/05/2022 07:07:38"}, {"Gestore": "SAMA SNC DI POMO MAURO E LUCCO BOSSU' SARA", "Bandiera": "Agip Eni", "Tipo impianto": "Altro", "Indirizzo": "Corso Francia  401 10142", "Nome impianto": "Stazione di servizio Eni", "Comune": "TORINO", "idImpianto": 40126, "points": [{"type": "Feature", "properties": {}, "geometry": {"type": "Point", "coordinates": [7.60634026636194, 45.07366980061131]}}], "price": 1.824, "ultima_rilevazione": "18/05/2022 08:50:27"}, {"Gestore": "CIRILLO AUTORIPARAZIONI 2 S.A.S. DI CIRILLO PIETRO & C.", "Bandiera": "Esso", "Tipo impianto": "Altro", "Indirizzo": "CORSO FRANCIA 462 10143", "Nome impianto": "ESSO", "Comune": "TORINO", "idImpianto": 40065, "points": [{"type": "Feature", "properties": {}, "geometry": {"type": "Point", "coordinates": [7.606014273610754, 45.07428687878568]}}], "price": 1.809, "ultima_rilevazione": "18/05/2022 09:26:28"}, {"Gestore": "CIRILLO AUTORIPARAZIONI S.A.S. DI CIRILLO PIETRO & C.", "Bandiera": "Esso", "Tipo impianto": "Altro", "Indirizzo": "VIA PIETRO COSSA 175/A 10146", "Nome impianto": "ESSO ", "Comune": "TORINO", "idImpianto": 40049, "points": [{"type": "Feature", "properties": {}, "geometry": {"type": "Point", "coordinates": [7.625419901188707, 45.08620538125764]}}], "price": 1.819, "ultima_rilevazione": "18/05/2022 09:28:00"}, {"Gestore": "SED S.N.C. DI DAVIDE E STEFANO MONTAGONO", "Bandiera": "Api-Ip", "Tipo impianto": "Altro", "Indirizzo": "VIA VENARIA 8 10091", "Nome impianto": "IP Italiana Petroli", "Comune": "ALPIGNANO", "idImpianto": 43361, "points": [{"type": "Feature", "properties": {}, "geometry": {"type": "Point", "coordinates": [7.534227084655754, 45.10202250519849]}}], "price": 1.829, "ultima_rilevazione": "18/05/2022 09:38:16"}, {"Gestore": "ECONOMY S.R.L.", "Bandiera": "Economysrl", "Tipo impianto": "Altro", "Indirizzo": "VIA XXX APRILE 25 10093", "Nome impianto": "Economy - Collegno", "Comune": "COLLEGNO", "idImpianto": 47153, "points": [{"type": "Feature", "properties": {}, "geometry": {"type": "Point", "coordinates": [7.574864000123, 45.082282000123]}}], "price": 1.799, "ultima_rilevazione": "18/05/2022 18:14:16"}, {"Gestore": "GALDA - S.N.C. DI CANTELLA DANIELE E COTTINI ALBERTA SIGLABILE COMMERCIALMENTE GALDA - S.N.C.", "Bandiera": "Repsol", "Tipo impianto": "Altro", "Indirizzo": "strada provinciale  to-lanzo km18+770  10073", "Nome impianto": "galda ", "Comune": "CIRIE'", "idImpianto": 6338, "points": [{"type": "Feature", "properties": {}, "geometry": {"type": "Point", "coordinates": [7.6113393902778625, 45.216669909432255]}}], "price": 1.779, "ultima_rilevazione": "18/05/2022 18:28:43"}, {"Gestore": "SERVIZI & GESTIONI ITALIA srl", "Bandiera": "Q8", "Tipo impianto": "Altro", "Indirizzo": "VIA SANSOVINO 153 10151", "Nome impianto": "TORINO SANSOVINO 153", "Comune": "TORINO", "idImpianto": 6394, "points": [{"type": "Feature", "properties": {}, "geometry": {"type": "Point", "coordinates": [7.6470275484794, 45.105801503882]}}], "price": 1.789, "ultima_rilevazione": "19/05/2022 01:41:09"}, {"Gestore": "SERVIZI & GESTIONI ITALIA S.R.L.", "Bandiera": "Q8", "Tipo impianto": "Altro", "Indirizzo": "CORSO GROSSETO ANGOLO VIA SANSOVINO 338 10151", "Nome impianto": "TORINO-CORSO GROSSETO 338 ANGOLO VIA SANSO", "Comune": "TORINO", "idImpianto": 11857, "points": [{"type": "Feature", "properties": {}, "geometry": {"type": "Point", "coordinates": [7.649496152114807, 45.10650445294046]}}], "price": 1.789, "ultima_rilevazione": "19/05/2022 01:41:11"}, {"Gestore": "SERVIZI & GESTIONI ITALIA S.R.L.", "Bandiera": "Q8", "Tipo impianto": "Altro", "Indirizzo": "VIA SANSOVINO/VIA MOLISE S/N 10151", "Nome impianto": "TORINO-VIA SANSOVINO/VIA MOLISE", "Comune": "TORINO", "idImpianto": 11863, "points": [{"type": "Feature", "properties": {}, "geometry": {"type": "Point", "coordinates": [7.63872682209012, 45.100830292288975]}}], "price": 1.799, "ultima_rilevazione": "19/05/2022 06:36:19"}, {"Gestore": "ZULLO MICHELE", "Bandiera": "Europam", "Tipo impianto": "Altro", "Indirizzo": "VIA PIETRO COSSA 102 B 10146", "Nome impianto": "EUROPAM P.COSSA", "Comune": "TORINO", "idImpianto": 42646, "points": [{"type": "Feature", "properties": {}, "geometry": {"type": "Point", "coordinates": [7.624495668122904, 45.08235991224021]}}], "price": 1.787, "ultima_rilevazione": "19/05/2022 08:30:35"}, {"Gestore": "ARC S.N.C. DI ARROCCESE GIULIAN & C.", "Bandiera": "Esso", "Tipo impianto": "Altro", "Indirizzo": "STRADA COMUNALE DI ALTESSANO 138/A 10151", "Nome impianto": "STAZIONE ESSO ARC.SNC", "Comune": "TORINO", "idImpianto": 37645, "points": [{"type": "Feature", "properties": {}, "geometry": {"type": "Point", "coordinates": [7.645719944249777, 45.10944612290978]}}], "price": 1.789, "ultima_rilevazione": "19/05/2022 09:05:31"}, {"Gestore": "NECCHIO ADRIANO", "Bandiera": "Esso", "Tipo impianto": "Altro", "Indirizzo": "VIA VAL DELLA TORRE 210 10091", "Nome impianto": "DISTRIBUTORE ESSO", "Comune": "ALPIGNANO", "idImpianto": 7872, "points": [{"type": "Feature", "properties": {}, "geometry": {"type": "Point", "coordinates": [7.505966126918793, 45.11918184652125]}}], "price": 1.824, "ultima_rilevazione": "19/05/2022 09:29:31"}, {"Gestore": "ECONOMY S.R.L.", "Bandiera": "Economysrl", "Tipo impianto": "Altro", "Indirizzo": "VIA TORINO SP N.2 KM 16+102 SNC 10077", "Nome impianto": "Economy - Ceretta", "Comune": "SAN MAURIZIO CANAVESE", "idImpianto": 45179, "points": [{"type": "Feature", "properties": {}, "geometry": {"type": "Point", "coordinates": [7.626894000123, 45.194659000123]}}], "price": 1.779, "ultima_rilevazione": "21/05/2022 06:55:28"}, {"Gestore": "ROSELLI DAVIDE", "Bandiera": "Esso", "Tipo impianto": "Altro", "Indirizzo": "via lanzo  76 10071", "Nome impianto": "ESSO ", "Comune": "BORGARO TORINESE", "idImpianto": 48545, "points": [{"type": "Feature", "properties": {}, "geometry": {"type": "Point", "coordinates": [7.655568728836055, 45.14578362121748]}}], "price": 1.849, "ultima_rilevazione": "19/05/2022 13:00:16"}, {"Gestore": "AN. DE. GI. S.N.C. DI FURLAN ELENA E MANISCALCO GIUSEPPE", "Bandiera": "Costantin", "Tipo impianto": "Altro", "Indirizzo": "VIA LANZO 61 10070", "Nome impianto": "tamoil robassomero", "Comune": "ROBASSOMERO", "idImpianto": 24528, "points": [{"type": "Feature", "properties": {}, "geometry": {"type": "Point", "coordinates": [7.543290901245655, 45.2140289446472]}}], "price": 1.769, "ultima_rilevazione": "19/05/2022 14:43:57"}, {"Gestore": "MASSARO ANTONIO", "Bandiera": "Api-Ip", "Tipo impianto": "Altro", "Indirizzo": "VIA VEROLENGO 170/A 10149", "Nome impianto": "stazione di servizio totalerg 2", "Comune": "TORINO", "idImpianto": 40412, "points": [{"type": "Feature", "properties": {}, "geometry": {"type": "Point", "coordinates": [7.653329372406006, 45.09513774310146]}}], "price": 1.849, "ultima_rilevazione": "19/05/2022 16:14:10"}, {"Gestore": "MASSARO ANTONIO", "Bandiera": "Api-Ip", "Tipo impianto": "Altro", "Indirizzo": "CORSO POTENZA ANG. V. VEROLENGO SN 10149", "Nome impianto": "Stazione di servizio Totalerg", "Comune": "TORINO", "idImpianto": 40413, "points": [{"type": "Feature", "properties": {}, "geometry": {"type": "Point", "coordinates": [7.6574720442295074, 45.095448837219045]}}], "price": 1.849, "ultima_rilevazione": "19/05/2022 16:14:39"}, {"Gestore": "SERVIZI & GESTIONI ITALIA S.R.L.", "Bandiera": "Q8", "Tipo impianto": "Altro", "Indirizzo": "CORSO TOSCANA 43/A 10149", "Nome impianto": "TORINO CORSO TOSCANA 43/A", "Comune": "TORINO", "idImpianto": 24636, "points": [{"type": "Feature", "properties": {}, "geometry": {"type": "Point", "coordinates": [7.656544368122923, 45.09699542168028]}}], "price": 1.819, "ultima_rilevazione": "20/05/2022 06:32:45"}, {"Gestore": "TESORO MICHELE E DAVIDE SNC", "Bandiera": "Esso", "Tipo impianto": "Altro", "Indirizzo": "VIA STAMPINI 34/A 10148", "Nome impianto": "STAZIONE DI SERVIZIO ESSO DI TESORO M.E D.SNC", "Comune": "TORINO", "idImpianto": 44165, "points": [{"type": "Feature", "properties": {}, "geometry": {"type": "Point", "coordinates": [7.663632247885062, 45.10890661626722]}}], "price": 1.809, "ultima_rilevazione": "20/05/2022 07:08:53"}, {"Gestore": "CAPPUCCI ALESSIO CARBURANTI & C. S.N.C.", "Bandiera": "Esso", "Tipo impianto": "Altro", "Indirizzo": "VIA MICHELE LESSONA 84/A 10145", "Nome impianto": "CAPPUCCI CARBURANTI VIA LESSONA", "Comune": "TORINO", "idImpianto": 24311, "points": [{"type": "Feature", "properties": {}, "geometry": {"type": "Point", "coordinates": [7.640396490178318, 45.08350879449111]}}], "price": 1.826, "ultima_rilevazione": "20/05/2022 08:14:44"}, {"Gestore": "M.A. SERVICE S.N.C. DI DI GENNARO MARCO & GESUALDO ALESSANDRO", "Bandiera": "Api-Ip", "Tipo impianto": "Altro", "Indirizzo": "CORSO TOGLIATTI 12 10093", "Nome impianto": "totalerg", "Comune": "COLLEGNO", "idImpianto": 40157, "points": [{"type": "Feature", "properties": {}, "geometry": {"type": "Point", "coordinates": [7.564465139881122, 45.073229163995215]}}], "price": 1.889, "ultima_rilevazione": "20/05/2022 09:03:39"}, {"Gestore": "STAZIONE DI SERVIZIO S.N.C. DI SALOMONI ADRIANO E C.", "Bandiera": "Tamoil", "Tipo impianto": "Altro", "Indirizzo": "CORSO BERNARDINO TELESIO 71/A 10146", "Nome impianto": "STAZIONE DI SERVIZIO TAMOIL DI SALOMONI A. ", "Comune": "TORINO", "idImpianto": 21320, "points": [{"type": "Feature", "properties": {}, "geometry": {"type": "Point", "coordinates": [7.6273500490738115, 45.08073269066767]}}], "price": 1.819, "ultima_rilevazione": "20/05/2022 09:44:03"}, {"Gestore": "CAPPUCCI ALESSIO CARBURANTI & C. S.N.C.", "Bandiera": "Esso", "Tipo impianto": "Altro", "Indirizzo": "Via Sansovino 88/A 10151", "Nome impianto": "CAPPUCCI ALESSIO CARBURANTI & C. SNC", "Comune": "TORINO", "idImpianto": 45129, "points": [{"type": "Feature", "properties": {}, "geometry": {"type": "Point", "coordinates": [7.641423000123, 45.101915000123]}}], "price": 1.789, "ultima_rilevazione": "20/05/2022 09:55:30"}, {"Gestore": "ROSELLI MICHELE", "Bandiera": "Esso", "Tipo impianto": "Altro", "Indirizzo": "VIA SERVAIS 210/7 10146", "Nome impianto": "STAZIONE DI SERVIZIO ESSO EXPRESS", "Comune": "TORINO", "idImpianto": 37535, "points": [{"type": "Feature", "properties": {}, "geometry": {"type": "Point", "coordinates": [7.614164119643419, 45.08702061254925]}}], "price": 1.759, "ultima_rilevazione": "20/05/2022 10:22:42"}, {"Gestore": "T.D.M. S.R.L.", "Bandiera": "Tamoil", "Tipo impianto": "Altro", "Indirizzo": "CORSO SUSA 4 10040", "Nome impianto": "8013", "Comune": "CASELETTE", "idImpianto": 44380, "points": [{"type": "Feature", "properties": {}, "geometry": {"type": "Point", "coordinates": [7.498976959940592, 45.10741854063976]}}], "price": 1.819, "ultima_rilevazione": "20/05/2022 11:32:10"}, {"Gestore": "IP SERVICES S.R.L.", "Bandiera": "Api-Ip", "Tipo impianto": "Altro", "Indirizzo": "TORINO - AEROPORTO S.P. 325/A Km 8  10156", "Nome impianto": "TORINO - AEROPORTO S.P. 325/A Km 8", "Comune": "TORINO", "idImpianto": 22300, "points": [{"type": "Feature", "properties": {}, "geometry": {"type": "Point", "coordinates": [7.656681224536896, 45.13215865911113]}}], "price": 1.849, "ultima_rilevazione": "20/05/2022 12:01:24"}, {"Gestore": "IPERSTAROIL S.R.L.", "Bandiera": "Auchan", "Tipo impianto": "Altro", "Indirizzo": "CORSO GARIBALDI 235 10078", "Nome impianto": "Venaria Reale", "Comune": "VENARIA REALE", "idImpianto": 50302, "points": [{"type": "Feature", "properties": {}, "geometry": {"type": "Point", "coordinates": [7.647516714462441, 45.11478182586455]}}], "price": 1.769, "ultima_rilevazione": "20/05/2022 12:04:09"}, {"Gestore": "IP SERVICES S.R.L.", "Bandiera": "Api-Ip", "Tipo impianto": "Altro", "Indirizzo": "Corso Pastrengo  10093", "Nome impianto": "Collegno", "Comune": "COLLEGNO", "idImpianto": 39188, "points": [{"type": "Feature", "properties": {}, "geometry": {"type": "Point", "coordinates": [7.581583145368995, 45.08086836392947]}}], "price": 1.829, "ultima_rilevazione": "20/05/2022 12:04:45"}, {"Gestore": "IP SERVICES S.R.L.", "Bandiera": "Api-Ip", "Tipo impianto": "Altro", "Indirizzo": "VIA ALPIGNANO 130 10040", "Nome impianto": "Val della Torre Torino", "Comune": "VAL DELLA TORRE", "idImpianto": 40045, "points": [{"type": "Feature", "properties": {}, "geometry": {"type": "Point", "coordinates": [7.488698735833168, 45.13203174257948]}}], "price": 1.829, "ultima_rilevazione": "20/05/2022 12:04:45"}, {"Gestore": "IP SERVICES S.R.L.", "Bandiera": "Api-Ip", "Tipo impianto": "Altro", "Indirizzo": "Strada Altessano 106/A 10151", "Nome impianto": "Altessano Torino", "Comune": "TORINO", "idImpianto": 36452, "points": [{"type": "Feature", "properties": {}, "geometry": {"type": "Point", "coordinates": [7.645593881607056, 45.10782476295114]}}], "price": 1.769, "ultima_rilevazione": "20/05/2022 12:05:54"}, {"Gestore": "T.D.M. S.R.L.", "Bandiera": "Tamoil", "Tipo impianto": "Altro", "Indirizzo": "Corso Marche  10146", "Nome impianto": "8257", "Comune": "TORINO", "idImpianto": 35461, "points": [{"type": "Feature", "properties": {}, "geometry": {"type": "Point", "coordinates": [7.614338099956512, 45.07532942847123]}}], "price": 1.769, "ultima_rilevazione": "20/05/2022 12:16:04"}, {"Gestore": "ARAMU GIANCARLO", "Bandiera": "Api-Ip", "Tipo impianto": "Altro", "Indirizzo": "STRADA AEROPORTO 6 10148", "Nome impianto": "TotalErg", "Comune": "TORINO", "idImpianto": 26728, "points": [{"type": "Feature", "properties": {}, "geometry": {"type": "Point", "coordinates": [7.663553563982418, 45.11208314758517]}}], "price": 1.849, "ultima_rilevazione": "20/05/2022 18:58:06"}, {"Gestore": "EUROPACAR SOCIETA' COOPERATIVA", "Bandiera": "Tamoil", "Tipo impianto": "Altro", "Indirizzo": "Via Sansovino 44/A 10151", "Nome impianto": "TAMOIL", "Comune": "TORINO", "idImpianto": 33529, "points": [{"type": "Feature", "properties": {}, "geometry": {"type": "Point", "coordinates": [7.637332072352592, 45.099368380781925]}}], "price": 1.789, "ultima_rilevazione": "20/05/2022 15:06:10"}, {"Gestore": "EUROPACAR SOCIETA' COOPERATIVA", "Bandiera": "Tamoil", "Tipo impianto": "Altro", "Indirizzo": "via reiss romoli 314/a 10148", "Nome impianto": "TAMOIL", "Comune": "TORINO", "idImpianto": 34708, "points": [{"type": "Feature", "properties": {}, "geometry": {"type": "Point", "coordinates": [7.666633464396, 45.11127310711178]}}], "price": 1.779, "ultima_rilevazione": "20/05/2022 15:08:16"}, {"Gestore": "ECONOMY S.R.L.", "Bandiera": "Agip Eni", "Tipo impianto": "Altro", "Indirizzo": "S. P. 13 km 16+450 S. N.  10077", "Nome impianto": "Economy, San Maurizio Canavese", "Comune": "SAN MAURIZIO CANAVESE", "idImpianto": 41401, "points": [{"type": "Feature", "properties": {}, "geometry": {"type": "Point", "coordinates": [7.636678218841553, 45.20378145461903]}}], "price": 1.804, "ultima_rilevazione": "20/05/2022 16:00:19"}, {"Gestore": "IP SERVICES S.R.L.", "Bandiera": "Api-Ip", "Tipo impianto": "Altro", "Indirizzo": "VIA COSSA 150  10146", "Nome impianto": "TORINO - COSSA 150", "Comune": "TORINO", "idImpianto": 22301, "points": [{"type": "Feature", "properties": {}, "geometry": {"type": "Point", "coordinates": [7.6236160932541, 45.08156590969744]}}], "price": 1.769, "ultima_rilevazione": "20/05/2022 16:01:06"}, {"Gestore": "IP SERVICES S.R.L.", "Bandiera": "Api-Ip", "Tipo impianto": "Altro", "Indirizzo": "VIA PIETRO COSSA 107 10146", "Nome impianto": "TORINO - VIA PIETRO COSSA ", "Comune": "TORINO", "idImpianto": 21851, "points": [{"type": "Feature", "properties": {}, "geometry": {"type": "Point", "coordinates": [7.625824898147584, 45.08557348717841]}}], "price": 1.769, "ultima_rilevazione": "20/05/2022 16:01:23"}, {"Gestore": "IP SERVICES S.R.L.", "Bandiera": "Api-Ip", "Tipo impianto": "Altro", "Indirizzo": "SP Torino Caselle km 11+325  10071", "Nome impianto": "BORGARO TORINESE", "Comune": "BORGARO TORINESE", "idImpianto": 32694, "points": [{"type": "Feature", "properties": {}, "geometry": {"type": "Point", "coordinates": [7.654906511306763, 45.15676107613564]}}], "price": 1.799, "ultima_rilevazione": "20/05/2022 16:04:35"}, {"Gestore": "BOGINO MARIO", "Bandiera": "Tamoil", "Tipo impianto": "Altro", "Indirizzo": "VIA LANZO 92 10070", "Nome impianto": "Tamoil di Bogino Mario", "Comune": "FIANO", "idImpianto": 29882, "points": [{"type": "Feature", "properties": {}, "geometry": {"type": "Point", "coordinates": [7.530746127647376, 45.22559052709633]}}], "price": 1.839, "ultima_rilevazione": "20/05/2022 16:37:45"}, {"Gestore": "AUTOLAVAGGIO G.M. S.N.C. DI VAZZANA FABRIZIO & C.", "Bandiera": "Agip Eni", "Tipo impianto": "Altro", "Indirizzo": "VIA LANZO 3 10070", "Nome impianto": "autolavaggio g.m di vazzana fabrizio snc", "Comune": "FIANO", "idImpianto": 26306, "points": [{"type": "Feature", "properties": {}, "geometry": {"type": "Point", "coordinates": [7.537669837474823, 45.21897004575188]}}], "price": 1.839, "ultima_rilevazione": "20/05/2022 22:30:40"}, {"Gestore": "MURDOCCO MASSIMO", "Bandiera": "Agip Eni", "Tipo impianto": "Altro", "Indirizzo": "VIA SERVAIS 32/A 10146", "Nome impianto": "ENI 52935", "Comune": "TORINO", "idImpianto": 45680, "points": [{"type": "Feature", "properties": {}, "geometry": {"type": "Point", "coordinates": [7.6361654454036625, 45.08368297157411]}}], "price": 1.854, "ultima_rilevazione": "21/05/2022 07:15:22"}, {"Gestore": "SGAMBELLONE MARIA ROSA", "Bandiera": "Tamoil", "Tipo impianto": "Altro", "Indirizzo": "ViaTorino  39 10077", "Nome impianto": "Stazione di Servizio TAMOIL", "Comune": "SAN MAURIZIO CANAVESE", "idImpianto": 7361, "points": [{"type": "Feature", "properties": {}, "geometry": {"type": "Point", "coordinates": [7.621298432350159, 45.20256664566724]}}], "price": 1.779, "ultima_rilevazione": "21/05/2022 07:34:09"}]}, "Metano": {"1": [], "3": [{"Gestore": "SERVIZI & GESTIONI ITALIA S.R.L.", "Bandiera": "Q8", "Tipo impianto": "Altro", "Indirizzo": "VIA PIANEZZA 385 10151", "Nome impianto": "TORINO VIA PIANEZZA 385", "Comune": "TORINO", "idImpianto": 48815, "points": [{"type": "Feature", "properties": {}, "geometry": {"type": "Point", "coordinates": [7.620992475463093, 45.09912497394853]}}], "price": 1.799, "ultima_rilevazione": "18/05/2022 07:07:27"}, {"Gestore": "D'ELIA GIOVANNI", "Bandiera": "Agip Eni", "Tipo impianto": "Altro", "Indirizzo": "CORSO SACCO E VANZETTI 9 10093", "Nome impianto": "eni 978", "Comune": "COLLEGNO", "idImpianto": 5581, "points": [{"type": "Feature", "properties": {}, "geometry": {"type": "Point", "coordinates": [7.618653774261475, 45.094546413684775]}}], "price": 2.189, "ultima_rilevazione": "20/05/2022 11:33:28"}], "5": [{"Gestore": "EUROPACAR SOCIETA' COOPERATIVA", "Bandiera": "Tamoil", "Tipo impianto": "Altro", "Indirizzo": "Via Sansovino 44/A 10151", "Nome impianto": "TAMOIL", "Comune": "TORINO", "idImpianto": 33529, "points": [{"type": "Feature", "properties": {}, "geometry": {"type": "Point", "coordinates": [7.637332072352592, 45.099368380781925]}}], "price": 1.879, "ultima_rilevazione": "20/05/2022 15:06:10"}, {"Gestore": "AN. DE. GI. S.N.C. DI FURLAN ELENA E MANISCALCO GIUSEPPE", "Bandiera": "Costantin", "Tipo impianto": "Altro", "Indirizzo": "VIA LANZO 61 10070", "Nome impianto": "tamoil robassomero", "Comune": "ROBASSOMERO", "idImpianto": 24528, "points": [{"type": "Feature", "properties": {}, "geometry": {"type": "Point", "coordinates": [7.543290901245655, 45.2140289446472]}}], "price": 1.549, "ultima_rilevazione": "19/05/2022 14:43:57"}]}, "GPL": {"1": [{"Gestore": "SERVIZI & GESTIONI ITALIA S.R.L.", "Bandiera": "Q8", "Tipo impianto": "Altro", "Indirizzo": "S.P. TO/DRUENTO KM 10+400  10040", "Nome impianto": "DRUENTO S.P. TO/DRUENTO KM 10+400", "Comune": "DRUENTO", "idImpianto": 22253, "points": [{"type": "Feature", "properties": {}, "geometry": {"type": "Point", "coordinates": [7.598684669380987, 45.12217330018168]}}], "price": 0.889, "ultima_rilevazione": "18/05/2022 02:35:37"}, {"Gestore": "PETROLTERMICA COMAC - OLCEA S.P.A.", "Bandiera": "Pompe Bianche", "Tipo impianto": "Altro", "Indirizzo": "CORSO FLEMING 35 10040", "Nome impianto": "Petroltermica Druento", "Comune": "DRUENTO", "idImpianto": 21492, "points": [{"type": "Feature", "properties": {}, "geometry": {"type": "Point", "coordinates": [7.586854845285416, 45.13065020682192]}}], "price": 0.869, "ultima_rilevazione": "19/05/2022 09:04:19"}], "3": [{"Gestore": "SERVIZI & GESTIONI ITALIA S.R.L.", "Bandiera": "Q8", "Tipo impianto": "Altro", "Indirizzo": "VIA PIANEZZA 385 10151", "Nome impianto": "TORINO VIA PIANEZZA 385", "Comune": "TORINO", "idImpianto": 48815, "points": [{"type": "Feature", "properties": {}, "geometry": {"type": "Point", "coordinates": [7.620992475463093, 45.09912497394853]}}], "price": 0.878, "ultima_rilevazione": "18/05/2022 07:07:27"}, {"Gestore": "DE LUCA ANTONIO", "Bandiera": "Api-Ip", "Tipo impianto": "Altro", "Indirizzo": "STRADA STATALE 24 KM 7+879, 10040  10040", "Nome impianto": "_IP", "Comune": "COLLEGNO", "idImpianto": 4884, "points": [{"type": "Feature", "properties": {}, "geometry": {"type": "Point", "coordinates": [7.608423829078674, 45.09892339421623]}}], "price": 0.8, "ultima_rilevazione": "19/05/2022 08:02:32"}, {"Gestore": "SABINO ALESSANDRO", "Bandiera": "Esso", "Tipo impianto": "Altro", "Indirizzo": "STRADA TORINO PIANEZZA 90 10093", "Nome impianto": "ESSO STAZIONE", "Comune": "COLLEGNO", "idImpianto": 50690, "points": [{"type": "Feature", "properties": {}, "geometry": {"type": "Point", "coordinates": [7.592963317790918, 45.09679353299372]}}], "price": 0.809, "ultima_rilevazione": "20/05/2022 07:56:24"}, {"Gestore": "IP SERVICES S.R.L.", "Bandiera": "Api-Ip", "Tipo impianto": "Altro", "Indirizzo": "SP 24 KM 2+265  10044", "Nome impianto": "Pianezza", "Comune": "PIANEZZA", "idImpianto": 38966, "points": [{"type": "Feature", "properties": {}, "geometry": {"type": "Point", "coordinates": [7.56183385848999, 45.11204418338163]}}], "price": 0.829, "ultima_rilevazione": "20/05/2022 12:05:16"}, {"Gestore": "GIODA AGOSTINO S.R.L.", "Bandiera": "Pompe Bianche", "Tipo impianto": "Altro", "Indirizzo": "CORSO GARIBALDI  153 10078", "Nome impianto": "GIODA AGOSTINO SRL -G.P.L.", "Comune": "VENARIA REALE", "idImpianto": 31773, "points": [{"type": "Feature", "properties": {}, "geometry": {"type": "Point", "coordinates": [7.643968462944031, 45.12084187352116]}}], "price": 0.819, "ultima_rilevazione": "20/05/2022 18:28:41"}], "5": [{"Gestore": "ECONOMY S.R.L.", "Bandiera": "Economysrl", "Tipo impianto": "Altro", "Indirizzo": "VIA TORINO SP N.2 KM 16+102 SNC 10077", "Nome impianto": "Economy - Ceretta", "Comune": "SAN MAURIZIO CANAVESE", "idImpianto": 45179, "points": [{"type": "Feature", "properties": {}, "geometry": {"type": "Point", "coordinates": [7.626894000123, 45.194659000123]}}], "price": 0.823, "ultima_rilevazione": "21/05/2022 06:55:28"}, {"Gestore": "MAGEA S.N.C. DI ANTONICELLI EROS & GUGLIOTTA MARIA ANTONIA", "Bandiera": "Agip Eni", "Tipo impianto": "Strada Statale", "Indirizzo": "24 del Monginevro, Km. 16+760, CASELETTE 10091", "Nome impianto": "STAZIONE ENI MAGEA", "Comune": "ALPIGNANO", "idImpianto": 43114, "points": [{"type": "Feature", "properties": {}, "geometry": {"type": "Point", "coordinates": [7.504751417272701, 45.10476516983302]}}], "price": 0.817, "ultima_rilevazione": "16/05/2022 12:40:51"}, {"Gestore": "CILSERVICE GAS S.R.L.", "Bandiera": "Socogas", "Tipo impianto": "Altro", "Indirizzo": "via Terracini 43 10093", "Nome impianto": "SOGOGAS", "Comune": "COLLEGNO", "idImpianto": 31341, "points": [{"type": "Feature", "properties": {}, "geometry": {"type": "Point", "coordinates": [7.597465664148331, 45.07943711892751]}}], "price": 0.849, "ultima_rilevazione": "16/05/2022 13:39:43"}, {"Gestore": "C.G.C. CENTRO GOMME CALO' DI CALO' FEDERICO", "Bandiera": "Tamoil", "Tipo impianto": "Altro", "Indirizzo": "VIA TORINO 96 10077", "Nome impianto": "TAMOIL", "Comune": "SAN MAURIZIO CANAVESE", "idImpianto": 40402, "points": [{"type": "Feature", "properties": {}, "geometry": {"type": "Point", "coordinates": [7.625967487692833, 45.1940924995321]}}], "price": 0.819, "ultima_rilevazione": "17/05/2022 11:43:42"}, {"Gestore": "GALDA - S.N.C. DI CANTELLA DANIELE E COTTINI ALBERTA SIGLABILE COMMERCIALMENTE GALDA - S.N.C.", "Bandiera": "Repsol", "Tipo impianto": "Altro", "Indirizzo": "strada provinciale  to-lanzo km18+770  10073", "Nome impianto": "galda ", "Comune": "CIRIE'", "idImpianto": 6338, "points": [{"type": "Feature", "properties": {}, "geometry": {"type": "Point", "coordinates": [7.6113393902778625, 45.216669909432255]}}], "price": 0.824, "ultima_rilevazione": "18/05/2022 18:28:43"}, {"Gestore": "ARC S.N.C. DI ARROCCESE GIULIAN & C.", "Bandiera": "Esso", "Tipo impianto": "Altro", "Indirizzo": "STRADA COMUNALE DI ALTESSANO 138/A 10151", "Nome impianto": "STAZIONE ESSO ARC.SNC", "Comune": "TORINO", "idImpianto": 37645, "points": [{"type": "Feature", "properties": {}, "geometry": {"type": "Point", "coordinates": [7.645719944249777, 45.10944612290978]}}], "price": 0.869, "ultima_rilevazione": "19/05/2022 09:05:31"}, {"Gestore": "AN. DE. GI. S.N.C. DI FURLAN ELENA E MANISCALCO GIUSEPPE", "Bandiera": "Costantin", "Tipo impianto": "Altro", "Indirizzo": "VIA LANZO 61 10070", "Nome impianto": "tamoil robassomero", "Comune": "ROBASSOMERO", "idImpianto": 24528, "points": [{"type": "Feature", "properties": {}, "geometry": {"type": "Point", "coordinates": [7.543290901245655, 45.2140289446472]}}], "price": 0.839, "ultima_rilevazione": "19/05/2022 14:43:57"}, {"Gestore": "IP SERVICES S.R.L.", "Bandiera": "Api-Ip", "Tipo impianto": "Altro", "Indirizzo": "VIA ALPIGNANO 130 10040", "Nome impianto": "Val della Torre Torino", "Comune": "VAL DELLA TORRE", "idImpianto": 40045, "points": [{"type": "Feature", "properties": {}, "geometry": {"type": "Point", "coordinates": [7.488698735833168, 45.13203174257948]}}], "price": 0.829, "ultima_rilevazione": "20/05/2022 12:04:45"}, {"Gestore": "AUTOLAVAGGIO G.M. S.N.C. DI VAZZANA FABRIZIO & C.", "Bandiera": "Agip Eni", "Tipo impianto": "Altro", "Indirizzo": "VIA LANZO 3 10070", "Nome impianto": "autolavaggio g.m di vazzana fabrizio snc", "Comune": "FIANO", "idImpianto": 26306, "points": [{"type": "Feature", "properties": {}, "geometry": {"type": "Point", "coordinates": [7.537669837474823, 45.21897004575188]}}], "price": 0.839, "ultima_rilevazione": "20/05/2022 22:30:40"}, {"Gestore": "TOP GAS SAS DI LOCURATOLO LUIGI & C.", "Bandiera": "Agip Eni", "Tipo impianto": "Altro", "Indirizzo": "STRADA TORINO KM. 11,500 SNC 10072", "Nome impianto": "top-gas", "Comune": "CASELLE TORINESE", "idImpianto": 39764, "points": [{"type": "Feature", "properties": {}, "geometry": {"type": "Point", "coordinates": [7.655032575130463, 45.1624579133943]}}], "price": 0.812, "ultima_rilevazione": "21/05/2022 06:56:09"}]}, "Blue Diesel": {"1": [{"Gestore": "BIONDI ANTONIO", "Bandiera": "Agip Eni", "Tipo impianto": "Altro", "Indirizzo": "STRADA PROV.LE VENARIA LANZO KM16 960  10070", "Nome impianto": "Biondi Antonio", "Comune": "ROBASSOMERO", "idImpianto": 9882, "points": [{"type": "Feature", "properties": {}, "geometry": {"type": "Point", "coordinates": [7.5692018866539, 45.18770751684281]}}], "price": 2.069, "ultima_rilevazione": "18/05/2022 11:29:47"}, {"Gestore": "BIONDI ANTONIO", "Bandiera": "Agip Eni", "Tipo impianto": "Altro", "Indirizzo": "STRADA PROV.LE VENARIA LANZO KM16 960  10070", "Nome impianto": "Biondi Antonio", "Comune": "ROBASSOMERO", "idImpianto": 9882, "points": [{"type": "Feature", "properties": {}, "geometry": {"type": "Point", "coordinates": [7.5692018866539, 45.18770751684281]}}], "price": 1.989, "ultima_rilevazione": "18/05/2022 11:29:47"}], "3": [{"Gestore": "FAMIREL S.N.C. DI FAMMILUME GENNARO E RELLA ANNARITA", "Bandiera": "Agip Eni", "Tipo impianto": "Altro", "Indirizzo": "VIA PIAVE 35 10044", "Nome impianto": "eni", "Comune": "PIANEZZA", "idImpianto": 38465, "points": [{"type": "Feature", "properties": {}, "geometry": {"type": "Point", "coordinates": [7.556098832016005, 45.09815772951559]}}], "price": 2.039, "ultima_rilevazione": "17/05/2022 18:30:04"}, {"Gestore": "BIONDI ANTONIO", "Bandiera": "Agip Eni", "Tipo impianto": "Altro", "Indirizzo": "CORSO GARIBALDI 56 10078", "Nome impianto": "Eni di Biondi Antonio ", "Comune": "VENARIA REALE", "idImpianto": 36798, "points": [{"type": "Feature", "properties": {}, "geometry": {"type": "Point", "coordinates": [7.637437283992767, 45.12662925718583]}}], "price": 2.269, "ultima_rilevazione": "18/05/2022 11:32:37"}, {"Gestore": "FAMIREL S.N.C. DI FAMMILUME GENNARO E RELLA ANNARITA", "Bandiera": "Agip Eni", "Tipo impianto": "Altro", "Indirizzo": "VIA PIAVE 35 10044", "Nome impianto": "eni", "Comune": "PIANEZZA", "idImpianto": 38465, "points": [{"type": "Feature", "properties": {}, "geometry": {"type": "Point", "coordinates": [7.556098832016005, 45.09815772951559]}}], "price": 1.929, "ultima_rilevazione": "17/05/2022 18:30:04"}, {"Gestore": "BIONDI ANTONIO", "Bandiera": "Agip Eni", "Tipo impianto": "Altro", "Indirizzo": "STRADA PROV.LE TORINO-LANZO KM20 049 10070", "Nome impianto": "Biondi Antonio 2", "Comune": "ROBASSOMERO", "idImpianto": 29131, "points": [{"type": "Feature", "properties": {}, "geometry": {"type": "Point", "coordinates": [7.547006607055664, 45.21033318936504]}}], "price": 1.989, "ultima_rilevazione": "18/05/2022 11:30:43"}, {"Gestore": "BIONDI ANTONIO", "Bandiera": "Agip Eni", "Tipo impianto": "Altro", "Indirizzo": "CORSO GARIBALDI 56 10078", "Nome impianto": "Eni di Biondi Antonio ", "Comune": "VENARIA REALE", "idImpianto": 36798, "points": [{"type": "Feature", "properties": {}, "geometry": {"type": "Point", "coordinates": [7.637437283992767, 45.12662925718583]}}], "price": 1.999, "ultima_rilevazione": "18/05/2022 11:32:37"}, {"Gestore": "D'ELIA GIOVANNI", "Bandiera": "Agip Eni", "Tipo impianto": "Altro", "Indirizzo": "CORSO SACCO E VANZETTI 9 10093", "Nome impianto": "eni 978", "Comune": "COLLEGNO", "idImpianto": 5581, "points": [{"type": "Feature", "properties": {}, "geometry": {"type": "Point", "coordinates": [7.618653774261475, 45.094546413684775]}}], "price": 1.904, "ultima_rilevazione": "20/05/2022 11:33:28"}], "5": [{"Gestore": "TOP GAS SAS DI LOCURATOLO LUIGI & C.", "Bandiera": "Agip Eni", "Tipo impianto": "Altro", "Indirizzo": "STRADA TORINO KM. 11,500 SNC 10072", "Nome impianto": "top-gas", "Comune": "CASELLE TORINESE", "idImpianto": 39764, "points": [{"type": "Feature", "properties": {}, "geometry": {"type": "Point", "coordinates": [7.655032575130463, 45.1624579133943]}}], "price": 2.359, "ultima_rilevazione": "21/05/2022 06:56:09"}, {"Gestore": "NUOVE DIREZIONI DI CARLO FERNANDO COSTANZO", "Bandiera": "Agip Eni", "Tipo impianto": "Altro", "Indirizzo": "strada san maurizio  12 10072", "Nome impianto": "eni aereoporto caselle", "Comune": "CASELLE TORINESE", "idImpianto": 40089, "points": [{"type": "Feature", "properties": {}, "geometry": {"type": "Point", "coordinates": [7.642328962683678, 45.18971374654478]}}], "price": 1.549, "ultima_rilevazione": "05/05/2022 07:56:21"}, {"Gestore": "SAMA SNC DI POMO MAURO E LUCCO BOSSU' SARA", "Bandiera": "Agip Eni", "Tipo impianto": "Altro", "Indirizzo": "Corso Francia  401 10142", "Nome impianto": "Stazione di servizio Eni", "Comune": "TORINO", "idImpianto": 40126, "points": [{"type": "Feature", "properties": {}, "geometry": {"type": "Point", "coordinates": [7.60634026636194, 45.07366980061131]}}], "price": 2.044, "ultima_rilevazione": "18/05/2022 08:50:27"}, {"Gestore": "TOP GAS SAS DI LOCURATOLO LUIGI & C.", "Bandiera": "Agip Eni", "Tipo impianto": "Altro", "Indirizzo": "STRADA TORINO KM. 11,500 SNC 10072", "Nome impianto": "top-gas", "Comune": "CASELLE TORINESE", "idImpianto": 39764, "points": [{"type": "Feature", "properties": {}, "geometry": {"type": "Point", "coordinates": [7.655032575130463, 45.1624579133943]}}], "price": 2.279, "ultima_rilevazione": "21/05/2022 06:56:09"}, {"Gestore": "NUOVE DIREZIONI DI CARLO FERNANDO COSTANZO", "Bandiera": "Agip Eni", "Tipo impianto": "Altro", "Indirizzo": "strada san maurizio  12 10072", "Nome impianto": "eni aereoporto caselle", "Comune": "CASELLE TORINESE", "idImpianto": 40089, "points": [{"type": "Feature", "properties": {}, "geometry": {"type": "Point", "coordinates": [7.642328962683678, 45.18971374654478]}}], "price": 1.924, "ultima_rilevazione": "05/05/2022 07:56:21"}, {"Gestore": "MAGEA S.N.C. DI ANTONICELLI EROS & GUGLIOTTA MARIA ANTONIA", "Bandiera": "Agip Eni", "Tipo impianto": "Strada Statale", "Indirizzo": "24 del Monginevro, Km. 16+760, CASELETTE 10091", "Nome impianto": "STAZIONE ENI MAGEA", "Comune": "ALPIGNANO", "idImpianto": 43114, "points": [{"type": "Feature", "properties": {}, "geometry": {"type": "Point", "coordinates": [7.504751417272701, 45.10476516983302]}}], "price": 1.929, "ultima_rilevazione": "16/05/2022 12:40:51"}, {"Gestore": "SAMA SNC DI POMO MAURO E LUCCO BOSSU' SARA", "Bandiera": "Agip Eni", "Tipo impianto": "Altro", "Indirizzo": "Corso Francia  401 10142", "Nome impianto": "Stazione di servizio Eni", "Comune": "TORINO", "idImpianto": 40126, "points": [{"type": "Feature", "properties": {}, "geometry": {"type": "Point", "coordinates": [7.60634026636194, 45.07366980061131]}}], "price": 1.924, "ultima_rilevazione": "18/05/2022 08:50:27"}, {"Gestore": "ECONOMY S.R.L.", "Bandiera": "Agip Eni", "Tipo impianto": "Altro", "Indirizzo": "S. P. 13 km 16+450 S. N.  10077", "Nome impianto": "Economy, San Maurizio Canavese", "Comune": "SAN MAURIZIO CANAVESE", "idImpianto": 41401, "points": [{"type": "Feature", "properties": {}, "geometry": {"type": "Point", "coordinates": [7.636678218841553, 45.20378145461903]}}], "price": 1.904, "ultima_rilevazione": "20/05/2022 16:00:19"}, {"Gestore": "MURDOCCO MASSIMO", "Bandiera": "Agip Eni", "Tipo impianto": "Altro", "Indirizzo": "VIA SERVAIS 32/A 10146", "Nome impianto": "ENI 52935", "Comune": "TORINO", "idImpianto": 45680, "points": [{"type": "Feature", "properties": {}, "geometry": {"type": "Point", "coordinates": [7.6361654454036625, 45.08368297157411]}}], "price": 1.954, "ultima_rilevazione": "21/05/2022 07:15:22"}]}, "Diesel High Quality": {"1": [{"Gestore": "SERVIZI & GESTIONI ITALIA S.R.L.", "Bandiera": "Q8", "Tipo impianto": "Altro", "Indirizzo": "VIA LANZO 16 10070", "Nome impianto": "ROBASSOMERO-VIA LANZO 16", "Comune": "ROBASSOMERO", "idImpianto": 11854, "points": [{"type": "Feature", "properties": {}, "geometry": {"type": "Point", "coordinates": [7.563201923942529, 45.19373402332862]}}], "price": 2.339, "ultima_rilevazione": "20/05/2022 09:06:17"}, {"Gestore": "SERVIZI & GESTIONI ITALIA S.R.L.", "Bandiera": "Q8", "Tipo impianto": "Altro", "Indirizzo": "VIA LANZO 16 10070", "Nome impianto": "ROBASSOMERO-VIA LANZO 16", "Comune": "ROBASSOMERO", "idImpianto": 11854, "points": [{"type": "Feature", "properties": {}, "geometry": {"type": "Point", "coordinates": [7.563201923942529, 45.19373402332862]}}], "price": 2.219, "ultima_rilevazione": "20/05/2022 09:06:17"}], "3": [{"Gestore": "SERVIZI & GESTIONI ITALIA srl", "Bandiera": "Q8", "Tipo impianto": "Altro", "Indirizzo": "SP 24 LOC. STAZIONETTA SNC 10093", "Nome impianto": "COLLEGNO SP 24 LOC. STAZIONETTA", "Comune": "COLLEGNO", "idImpianto": 6393, "points": [{"type": "Feature", "properties": {}, "geometry": {"type": "Point", "coordinates": [7.577296793460846, 45.09582544231724]}}], "price": 1.685, "ultima_rilevazione": "19/05/2022 01:41:08"}, {"Gestore": "SERVIZI & GESTIONI ITALIA S.R.L.", "Bandiera": "Q8", "Tipo impianto": "Altro", "Indirizzo": "VIA PIANEZZA 385 10151", "Nome impianto": "TORINO VIA PIANEZZA 385", "Comune": "TORINO", "idImpianto": 48815, "points": [{"type": "Feature", "properties": {}, "geometry": {"type": "Point", "coordinates": [7.620992475463093, 45.09912497394853]}}], "price": 2.089, "ultima_rilevazione": "18/05/2022 07:07:27"}, {"Gestore": "ALOISIO MARCO", "Bandiera": "Q8", "Tipo impianto": "Altro", "Indirizzo": "VIA CAVALLO 76 10078", "Nome impianto": "Q8 Aloisio ", "Comune": "VENARIA REALE", "idImpianto": 32526, "points": [{"type": "Feature", "properties": {}, "geometry": {"type": "Point", "coordinates": [7.626418769359589, 45.13998102537151]}}], "price": 2.079, "ultima_rilevazione": "19/05/2022 08:55:45"}, {"Gestore": "SERVIZI & GESTIONI ITALIA S.R.L.", "Bandiera": "Q8", "Tipo impianto": "Altro", "Indirizzo": "VIA PIANEZZA 385 10151", "Nome impianto": "TORINO VIA PIANEZZA 385", "Comune": "TORINO", "idImpianto": 48815, "points": [{"type": "Feature", "properties": {}, "geometry": {"type": "Point", "coordinates": [7.620992475463093, 45.09912497394853]}}], "price": 2.169, "ultima_rilevazione": "18/05/2022 07:07:27"}, {"Gestore": "SABINO ALESSANDRO", "Bandiera": "Esso", "Tipo impianto": "Altro", "Indirizzo": "STRADA TORINO PIANEZZA 90 10093", "Nome impianto": "ESSO STAZIONE", "Comune": "COLLEGNO", "idImpianto": 50690, "points": [{"type": "Feature", "properties": {}, "geometry": {"type": "Point", "coordinates": [7.592963317790918, 45.09679353299372]}}], "price": 1.969, "ultima_rilevazione": "20/05/2022 07:56:24"}, {"Gestore": "IP SERVICES S.R.L.", "Bandiera": "Api-Ip", "Tipo impianto": "Altro", "Indirizzo": "SP 24 KM 2+265  10044", "Nome impianto": "Pianezza", "Comune": "PIANEZZA", "idImpianto": 38966, "points": [{"type": "Feature", "properties": {}, "geometry": {"type": "Point", "coordinates": [7.56183385848999, 45.11204418338163]}}], "price": 1.829, "ultima_rilevazione": "20/05/2022 12:05:16"}], "5": [{"Gestore": "SERVIZI & GESTIONI ITALIA S.R.L.", "Bandiera": "Q8", "Tipo impianto": "Altro", "Indirizzo": "STRAD PROV. TORINO-LANZO S/N 10071", "Nome impianto": "BORGARO TORINESE-STRAD PROV. TORINO-LANZO", "Comune": "BORGARO TORINESE", "idImpianto": 11873, "points": [{"type": "Feature", "properties": {}, "geometry": {"type": "Point", "coordinates": [7.655451720237693, 45.14140756768663]}}], "price": 2.169, "ultima_rilevazione": "18/05/2022 07:07:28"}, {"Gestore": "SERVIZI & GESTIONI ITALIA S.R.L.", "Bandiera": "Q8", "Tipo impianto": "Altro", "Indirizzo": "VIA PAOLO VERONESE ANGOLO STRADA LANZO S/N 10148", "Nome impianto": "TORINO-VIA PAOLO VERONESE ANGOLO STRADA LA", "Comune": "TORINO", "idImpianto": 11864, "points": [{"type": "Feature", "properties": {}, "geometry": {"type": "Point", "coordinates": [7.660827987766197, 45.11157414810119]}}], "price": 2.099, "ultima_rilevazione": "18/05/2022 07:07:38"}, {"Gestore": "SERVIZI & GESTIONI ITALIA S.R.L.", "Bandiera": "Q8", "Tipo impianto": "Altro", "Indirizzo": "VIA SANSOVINO/VIA MOLISE S/N 10151", "Nome impianto": "TORINO-VIA SANSOVINO/VIA MOLISE", "Comune": "TORINO", "idImpianto": 11863, "points": [{"type": "Feature", "properties": {}, "geometry": {"type": "Point", "coordinates": [7.63872682209012, 45.100830292288975]}}], "price": 2.099, "ultima_rilevazione": "19/05/2022 06:36:19"}, {"Gestore": "SERVIZI & GESTIONI ITALIA S.R.L.", "Bandiera": "Q8", "Tipo impianto": "Altro", "Indirizzo": "CORSO TOSCANA 43/A 10149", "Nome impianto": "TORINO CORSO TOSCANA 43/A", "Comune": "TORINO", "idImpianto": 24636, "points": [{"type": "Feature", "properties": {}, "geometry": {"type": "Point", "coordinates": [7.656544368122923, 45.09699542168028]}}], "price": 2.119, "ultima_rilevazione": "20/05/2022 06:32:45"}, {"Gestore": "SERVIZI & GESTIONI ITALIA S.R.L.", "Bandiera": "Q8", "Tipo impianto": "Altro", "Indirizzo": "STRAD PROV. TORINO-LANZO S/N 10071", "Nome impianto": "BORGARO TORINESE-STRAD PROV. TORINO-LANZO", "Comune": "BORGARO TORINESE", "idImpianto": 11873, "points": [{"type": "Feature", "properties": {}, "geometry": {"type": "Point", "coordinates": [7.655451720237693, 45.14140756768663]}}], "price": 2.189, "ultima_rilevazione": "18/05/2022 07:07:28"}, {"Gestore": "SERVIZI & GESTIONI ITALIA S.R.L.", "Bandiera": "Q8", "Tipo impianto": "Altro", "Indirizzo": "VIA PAOLO VERONESE ANGOLO STRADA LANZO S/N 10148", "Nome impianto": "TORINO-VIA PAOLO VERONESE ANGOLO STRADA LA", "Comune": "TORINO", "idImpianto": 11864, "points": [{"type": "Feature", "properties": {}, "geometry": {"type": "Point", "coordinates": [7.660827987766197, 45.11157414810119]}}], "price": 2.189, "ultima_rilevazione": "18/05/2022 07:07:38"}, {"Gestore": "SERVIZI & GESTIONI ITALIA S.R.L.", "Bandiera": "Q8", "Tipo impianto": "Altro", "Indirizzo": "VIA SANSOVINO/VIA MOLISE S/N 10151", "Nome impianto": "TORINO-VIA SANSOVINO/VIA MOLISE", "Comune": "TORINO", "idImpianto": 11863, "points": [{"type": "Feature", "properties": {}, "geometry": {"type": "Point", "coordinates": [7.63872682209012, 45.100830292288975]}}], "price": 2.189, "ultima_rilevazione": "19/05/2022 06:36:19"}, {"Gestore": "SERVIZI & GESTIONI ITALIA S.R.L.", "Bandiera": "Q8", "Tipo impianto": "Altro", "Indirizzo": "CORSO TOSCANA 43/A 10149", "Nome impianto": "TORINO CORSO TOSCANA 43/A", "Comune": "TORINO", "idImpianto": 24636, "points": [{"type": "Feature", "properties": {}, "geometry": {"type": "Point", "coordinates": [7.656544368122923, 45.09699542168028]}}], "price": 2.199, "ultima_rilevazione": "20/05/2022 06:32:45"}, {"Gestore": "ARC S.N.C. DI ARROCCESE GIULIAN & C.", "Bandiera": "Esso", "Tipo impianto": "Altro", "Indirizzo": "STRADA COMUNALE DI ALTESSANO 138/A 10151", "Nome impianto": "STAZIONE ESSO ARC.SNC", "Comune": "TORINO", "idImpianto": 37645, "points": [{"type": "Feature", "properties": {}, "geometry": {"type": "Point", "coordinates": [7.645719944249777, 45.10944612290978]}}], "price": 1.939, "ultima_rilevazione": "19/05/2022 09:05:31"}, {"Gestore": "ROSELLI DAVIDE", "Bandiera": "Esso", "Tipo impianto": "Altro", "Indirizzo": "via lanzo  76 10071", "Nome impianto": "ESSO ", "Comune": "BORGARO TORINESE", "idImpianto": 48545, "points": [{"type": "Feature", "properties": {}, "geometry": {"type": "Point", "coordinates": [7.655568728836055, 45.14578362121748]}}], "price": 1.999, "ultima_rilevazione": "19/05/2022 13:00:16"}, {"Gestore": "TESORO MICHELE E DAVIDE SNC", "Bandiera": "Esso", "Tipo impianto": "Altro", "Indirizzo": "VIA STAMPINI 34/A 10148", "Nome impianto": "STAZIONE DI SERVIZIO ESSO DI TESORO M.E D.SNC", "Comune": "TORINO", "idImpianto": 44165, "points": [{"type": "Feature", "properties": {}, "geometry": {"type": "Point", "coordinates": [7.663632247885062, 45.10890661626722]}}], "price": 1.959, "ultima_rilevazione": "20/05/2022 07:08:53"}, {"Gestore": "CAPPUCCI ALESSIO CARBURANTI & C. S.N.C.", "Bandiera": "Esso", "Tipo impianto": "Altro", "Indirizzo": "Via Sansovino 88/A 10151", "Nome impianto": "CAPPUCCI ALESSIO CARBURANTI & C. SNC", "Comune": "TORINO", "idImpianto": 45129, "points": [{"type": "Feature", "properties": {}, "geometry": {"type": "Point", "coordinates": [7.641423000123, 45.101915000123]}}], "price": 1.939, "ultima_rilevazione": "20/05/2022 09:55:30"},