{"area_comune": "[{\"type\": \"Feature\", \"properties\": {}, \"geometry\": {\"type\": \"Polygon\", \"coordinates\": [[[14.266691912119333, 40.955245225967055], [14.26853610727799, 40.95039465501536], [14.271183719470356, 40.94776600886566], [14.27282686097896, 40.94818581215292], [14.278858902844899, 40.95067740127819], [14.284815110977636, 40.94376867005859], [14.284039512387027, 40.94291305216074], [14.283919073784476, 40.942148847056735], [14.284104206845377, 40.935784327166836], [14.285790929632018, 40.93133141630008], [14.28707196966234, 40.92932340360454], [14.289540679011743, 40.92622992802348], [14.283576242794894, 40.923541340991925], [14.282576216353709, 40.9167701794192], [14.272737278082236, 40.92500619837702], [14.266360597693035, 40.92385134593941], [14.268970237047641, 40.92507671015425], [14.266971691137067, 40.93608875153508], [14.266401433317599, 40.93728523604147], [14.261743130924152, 40.94261524175632], [14.259910608288088, 40.94429791200937], [14.259166609669029, 40.94470616102848], [14.260246282467762, 40.95019804289122], [14.264052947111809, 40.95189642546714], [14.266691912119333, 40.955245225967055]]]}}]", "comune": "frattamaggiore", "buffer_1": "[{\"type\": \"Feature\", \"properties\": {}, \"geometry\": {\"type\": \"Polygon\", \"coordinates\": [[[14.25626737506237, 40.95952354198415], [14.256871864993624, 40.960278887115386], [14.257571287364694, 40.96098558124494], [14.258358883238728, 40.961636792487354], [14.259227040589511, 40.96222622518641], [14.260167367869782, 40.96274818082954], [14.261170775148301, 40.96319761318863], [14.262227562030178, 40.96357017715172], [14.263327511508216, 40.96386227077154], [14.264459988834359, 40.96407107012213], [14.265614044450892, 40.96419455662517], [14.26677851998088, 40.96423153658052], [14.267942156247111, 40.964181652711396], [14.269093702268856, 40.9640453876124], [14.270222024176132, 40.96382405906711], [14.271316212982079, 40.96351980728122], [14.272365690165469, 40.96313557415596], [14.273360310037264, 40.9626750748035], [14.27429045789689, 40.96214276158177], [14.292413976250376, 40.95066497857348], [14.29325232650546, 40.95007975998771], [14.294012660629257, 40.94943620014984], [14.29468795088636, 40.94874024972013], [14.295271956481717, 40.947998343546196], [14.295759281191385, 40.947217341125125], [14.296145423158949, 40.94640446314615], [14.296426816400551, 40.9455672247026], [14.301149326119207, 40.928028187902775], [14.301329803170491, 40.92712631198798], [14.30138879729521, 40.92621520566915], [14.301325705646983, 40.92530425723833], [14.301141183315028, 40.92440285297609], [14.300837136369688, 40.9235202804521], [14.300416702029295, 40.92266563285818], [14.299884216160674, 40.921847715357366], [14.292918866914967, 40.91238865253208], [14.292297324628116, 40.911634661095846], [14.291580606564702, 40.9109309603825], [14.290775732340341, 40.91028443994307], [14.289890583959533, 40.90970142936524], [14.28893382863174, 40.909187636357004], [14.287914833933785, 40.90874809091755], [14.28684357614785, 40.90838709613976], [14.28573054266978, 40.90810818612322], [14.284586629439262, 40.907914091408486], [14.283423034391195, 40.9078067122688], [14.282251147965574, 40.90778710011995], [14.28108244174149, 40.90785544722944], [14.279928356278797, 40.90801108482562], [14.278800189258696, 40.90825248962538], [14.277708985011753, 40.908577298717695], [14.276665426508668, 40.908982332658105], [14.260450910240094, 40.91606259194965], [14.259464159549726, 40.916544206101506], [14.258545038883225, 40.91709749765692], [14.257702563976288, 40.91771704068977], [14.256944999608276, 40.9183967593466], [14.25627977851718, 40.91912998738068], [14.255713428440824, 40.91990953348061], [14.255251508001862, 40.92072775175566], [14.254898552068472, 40.92157661668829], [14.247701038499192, 40.942430921851155], [14.247469930763705, 40.943257030769864], [14.247342105928007, 40.944095941603216], [14.247318696724998, 40.94494024641778], [14.247399913883346, 40.945782489361754], [14.247585044125257, 40.946615232510574], [14.247872456327093, 40.94743112156386], [14.248259615793438, 40.948222950813374], [14.248743106523033, 40.94898372680727], [14.25626737506237, 40.95952354198415]]]}}]", "buffer_3": "[{\"type\": \"Feature\", \"properties\": {}, \"geometry\": {\"type\": \"Polygon\", \"coordinates\": [[[14.235414031693983, 40.96807757140161], [14.23722712861473, 40.970343951186834], [14.239325201920536, 40.972464393780584], [14.241687982312925, 40.97441838962618], [14.244292634023383, 40.97618703777701], [14.247113975503618, 40.9777532291797], [14.250124723101173, 40.97910181261896], [14.253295755353994, 40.98021974169739], [14.256596395326456, 40.98109620140899], [14.259994708224262, 40.98172271306384], [14.263457811368253, 40.982093216534814], [14.266952193479986, 40.98220412901953], [14.270444040135967, 40.98205437974208], [14.273899562184264, 40.98164542025657], [14.277285323887211, 40.98098121025406], [14.280568567557808, 40.980068179017195], [14.283717531494744, 40.978915162904805], [14.286701758091656, 40.977533319486234], [14.28949238909873, 40.97593601917259], [14.307616544111784, 40.96445578089367], [14.310131596891377, 40.96269977114152], [14.312412422663517, 40.9607687494731], [14.31443794476908, 40.958680580502445], [14.31618945372225, 40.95645458049907], [14.317650779623811, 40.954111338341285], [14.318808440854742, 40.95167252476121], [14.319651767704727, 40.94916069166087], [14.324368158499361, 40.93162106733557], [14.324908629058706, 40.928915387311086], [14.325084627237171, 40.92618209196102], [14.32489438496175, 40.92344934517711], [14.324339907259263, 40.92074530173729], [14.323426949759195, 40.91809781737649], [14.322164957658046, 40.91553416207329], [14.320566966844886, 40.913080739493346], [14.313599847050822, 40.90362304853935], [14.311734871305656, 40.901361423611014], [14.309584550668687, 40.89925068466491], [14.307169950453359, 40.89731148617127], [14.304514715765103, 40.89556280272853], [14.3016448399877, 40.894021743866844], [14.298588410594514, 40.892703387090876], [14.295375334759449, 40.89162063077358], [14.292037047428508, 40.890784068320535], [14.288606204673533, 40.890201884818346], [14.285116365284605, 40.88987977716436], [14.281601663664963, 40.88982089844851], [14.278096477172092, 40.89002582712566], [14.274635091099741, 40.89049256127813], [14.271251364517994, 40.89121653802766], [14.267978400181764, 40.892190677914016], [14.264848221682382, 40.89340545381765], [14.248635910349176, 40.90048389975398], [14.24567598535323, 40.90192839021041], [14.242918766507168, 40.90358790072059], [14.240391295394971, 40.905446167743314], [14.238118368141091, 40.90748497787667], [14.236122292087929, 40.90968434590671], [14.234422666565475, 40.912022710264964], [14.2330361899189, 40.91447714400039], [14.23197649471461, 40.917023579217464], [14.224771933505998, 40.937876862329624], [14.224077750272228, 40.940355100035106], [14.223693374128866, 40.94287180767388], [14.223622235041534, 40.94540476233231], [14.223864997320021, 40.94793159504897], [14.224419552479361, 40.9504299883996], [14.225281036616193, 40.95287787371584], [14.226441872190842, 40.95525362619135], [14.227891833887497, 40.95753625614439], [14.235414031693983, 40.96807757140161]]]}}]", "buffer_5": "[{\"type\": \"Feature\", \"properties\": {}, \"geometry\": {\"type\": \"Polygon\", \"coordinates\": [[[14.214554996156872, 40.97662812771769], [14.217576201484045, 40.98040600123873], [14.22107266600334, 40.98394067263569], [14.225010620184234, 40.98719793613025], [14.229352005023767, 40.99014626681893], [14.234054839831032, 40.99275712704765], [14.239073628788095, 40.99500524386057], [14.244359802327118, 40.996868854778285], [14.249862188994108, 40.998329919471075], [14.255527513144475, 40.99937429522879], [14.261300913539209, 40.99999187448853], [14.267126477686382, 41.00017668305757], [14.272947786603815, 40.99992693806176], [14.278708464567964, 40.9992450650507], [14.284352728362121, 40.99813767409933], [14.2898259305452, 40.99661549515474], [14.295075091329958, 40.99469327328255], [14.300049413785889, 40.99238962486652], [14.304700777264994, 40.98972685620134], [14.322825565825056, 40.9782441612241], [14.327017322904384, 40.97531688802156], [14.330818403685171, 40.97209794815352], [14.33419369141127, 40.968617137056356], [14.337112025216122, 40.96490666806946], [14.33954648667086, 40.96100087330121], [14.341474646437936, 40.95693588506522], [14.34287876883184, 40.9527493008761], [14.347589037648767, 40.93520909169837], [14.348488220347294, 40.930699538580306], [14.348779910174853, 40.92614408644579], [14.348461227799726, 40.92158967341856], [14.347535581170575, 40.91708321730119], [14.346012625300942, 40.912671132645585], [14.343908157988821, 40.908398853382074], [14.341243952741802, 40.90431036588801], [14.334275065900435, 40.89485404722194], [14.331166192932002, 40.89108525472394], [14.327582049080394, 40.887567961713], [14.32355775386638, 40.88433656868709], [14.31913271419389, 40.881422676400746], [14.314350238565538, 40.87885477812222], [14.309257113980118, 40.87665798225103], [14.303903149615053, 40.874853767948174], [14.298340691689223, 40.87345977611335], [14.292624114153977, 40.87248963770533], [14.286809290070869, 40.87195284104475], [14.280953048703037, 40.87185463936893], [14.275112623471745, 40.87219599952531], [14.269345096010529, 40.872973592301356], [14.263706841585282, 40.8741798244929], [14.2582529811401, 40.87580291241808], [14.253036845174845, 40.877826996189604], [14.23682673897631, 40.88490363023989], [14.231894076048027, 40.88731052811221], [14.227298950566652, 40.89007577241288], [14.223086422408091, 40.89317228092548], [14.21929782133487, 40.89656972154279], [14.21597034135417, 40.900234808095995], [14.213136674753374, 40.90413162523795], [14.210824689444886, 40.90822197925794], [14.209057152860117, 40.912465771445284], [14.201845548617376, 40.933318029577414], [14.200687143929613, 40.93744827671392], [14.200045014697592, 40.941642747318745], [14.199924930443807, 40.945864404722194], [14.20032805188896, 40.95007596502246], [14.201250917166995, 40.9542402264711], [14.202685468940885, 40.95832039838057], [14.204619122301635, 40.962280426635175], [14.207034872966092, 40.96608531290973], [14.214554996156872, 40.97662812771769]]]}}]", "centroid": "[{\"type\": \"Feature\", \"properties\": {}, \"geometry\": {\"type\": \"Point\", \"coordinates\": [14.274295509772138, 40.93577638574411]}}]", "Diesel High Quality": {"1": [{"Gestore": "SERVIZI & GESTIONI ITALIA S.R.L.", "Bandiera": "Q8", "Tipo impianto": "Altro", "Indirizzo": "RETTIFILO AL BRAVO S/N 80022", "Nome impianto": "ARZANO-RETTIFILO AL BRAVO", "Comune": "ARZANO", "idImpianto": 11735, "points": [{"type": "Feature", "properties": {}, "geometry": {"type": "Point", "coordinates": [14.274977784061434, 40.91677567789187]}}], "price": 2.275, "ultima_rilevazione": "04/07/2022 00:36:11"}, {"Gestore": "SERVIZI & GESTIONI ITALIA S.R.L.", "Bandiera": "Q8", "Tipo impianto": "Altro", "Indirizzo": "RETTIFILO AL BRAVO S/N 80022", "Nome impianto": "ARZANO-RETTIFILO AL BRAVO", "Comune": "ARZANO", "idImpianto": 11735, "points": [{"type": "Feature", "properties": {}, "geometry": {"type": "Point", "coordinates": [14.274977784061434, 40.91677567789187]}}], "price": 2.295, "ultima_rilevazione": "04/07/2022 00:36:11"}, {"Gestore": "SERVIZI & GESTIONI ITALIA S.R.L.", "Bandiera": "Q8", "Tipo impianto": "Altro", "Indirizzo": "SP PER AFRAGOLA S/N 80027", "Nome impianto": "FRATTAMAGGIORE-SP PER AFRAGOLA", "Comune": "FRATTAMAGGIORE", "idImpianto": 11739, "points": [{"type": "Feature", "properties": {}, "geometry": {"type": "Point", "coordinates": [14.283683906745864, 40.93547163223486]}}], "price": 2.234, "ultima_rilevazione": "04/07/2022 00:36:11"}, {"Gestore": "SERVIZI & GESTIONI ITALIA S.R.L.", "Bandiera": "Q8", "Tipo impianto": "Altro", "Indirizzo": "SP PER AFRAGOLA S/N 80027", "Nome impianto": "FRATTAMAGGIORE-SP PER AFRAGOLA", "Comune": "FRATTAMAGGIORE", "idImpianto": 11739, "points": [{"type": "Feature", "properties": {}, "geometry": {"type": "Point", "coordinates": [14.283683906745864, 40.93547163223486]}}], "price": 2.238, "ultima_rilevazione": "04/07/2022 00:36:11"}], "3": [{"Gestore": "B GROUP DI LUCA BARBATO", "Bandiera": "Esso", "Tipo impianto": "Altro", "Indirizzo": "VIA GUGLIELMO MARCONI 110 80020", "Nome impianto": "BGROUP di Luca Barbato", "Comune": "CASAVATORE", "idImpianto": 50926, "points": [{"type": "Feature", "properties": {}, "geometry": {"type": "Point", "coordinates": [14.277507282137622, 40.89822028884527]}}], "price": 1.849, "ultima_rilevazione": "22/02/2022 07:48:38"}, {"Gestore": "L.S. Q8 S.A.S. DI AUFIERO TOMMASINA & MOTTOLA SABINO", "Bandiera": "Q8", "Tipo impianto": "Altro", "Indirizzo": "VIA LIMITONE D'ARZANO 6 80144", "Nome impianto": "L.S.Q8sas", "Comune": "NAPOLI", "idImpianto": 8602, "points": [{"type": "Feature", "properties": {}, "geometry": {"type": "Point", "coordinates": [14.262000024318697, 40.901842031383175]}}], "price": 2.304, "ultima_rilevazione": "21/03/2022 12:42:57"}, {"Gestore": "RUSSO RAFFAELE", "Bandiera": "Esso", "Tipo impianto": "Altro", "Indirizzo": "VIA ROMA VERSO SCAMPIA SNC 80144", "Nome impianto": "RUSSO RAFFAELE", "Comune": "NAPOLI", "idImpianto": 38070, "points": [{"type": "Feature", "properties": {}, "geometry": {"type": "Point", "coordinates": [14.25569397699303, 40.89807390517839]}}], "price": 2.134, "ultima_rilevazione": "24/05/2022 11:24:01"}, {"Gestore": "FERRARIO GROUP S.A.S. DI FERRARIO FABRIZIO & C.", "Bandiera": "Esso", "Tipo impianto": "Altro", "Indirizzo": "VIA DARIO FIORE 61 80021", "Nome impianto": "esso", "Comune": "AFRAGOLA", "idImpianto": 48749, "points": [{"type": "Feature", "properties": {}, "geometry": {"type": "Point", "coordinates": [14.304020845403668, 40.92498209306916]}}], "price": 2.109, "ultima_rilevazione": "04/07/2022 15:19:00"}, {"Gestore": "CARBURANTI S.N.C. DI GIORGIO VARRIALE", "Bandiera": "Q8", "Tipo impianto": "Altro", "Indirizzo": "VIA CIRCUMVALLAZIONE ESTERNA 31 80144", "Nome impianto": "CARBURANTI S.N.C. DI GIORGIO VARRIALE", "Comune": "NAPOLI", "idImpianto": 33636, "points": [{"type": "Feature", "properties": {}, "geometry": {"type": "Point", "coordinates": [14.266694063337695, 40.900292927556215]}}], "price": 2.369, "ultima_rilevazione": "07/07/2022 10:16:10"}, {"Gestore": "AREA SERVIZIO SAN MICHELE S.A.S. DI BUGLIONE SALVATORE E C.", "Bandiera": "Esso", "Tipo impianto": "Altro", "Indirizzo": "Via Circumvallazione esterna di Arzano, Km. 20+500  80022", "Nome impianto": "Area Servizio San Michele sas", "Comune": "ARZANO", "idImpianto": 32682, "points": [{"type": "Feature", "properties": {}, "geometry": {"type": "Point", "coordinates": [14.25217106938362, 40.91071817376809]}}], "price": 2.119, "ultima_rilevazione": "08/07/2022 09:13:54"}], "5": [{"Gestore": "VITULLO S.A.S. DI TESORONE PATRIZIA", "Bandiera": "Esso", "Tipo impianto": "Altro", "Indirizzo": "VIA CASERTA AL BRAVO 8 80144", "Nome impianto": "ESSO - VITULLO S.A.S. DI TESORONE PATRIZIA", "Comune": "NAPOLI", "idImpianto": 49879, "points": [{"type": "Feature", "properties": {}, "geometry": {"type": "Point", "coordinates": [14.27635153580922, 40.88637862409743]}}], "price": 2.156, "ultima_rilevazione": "28/06/2022 10:17:41"}, {"Gestore": "STAZIONE LE MONDE S.R.L.", "Bandiera": "Esso", "Tipo impianto": "Altro", "Indirizzo": "S.S. 7 bis Nola-Villa Literno km. 15+900  81030", "Nome impianto": "Stazione le Monde", "Comune": "SUCCIVO", "idImpianto": 37893, "points": [{"type": "Feature", "properties": {}, "geometry": {"type": "Point", "coordinates": [14.251082986702386, 40.98579470382172]}}], "price": 2.099, "ultima_rilevazione": "06/07/2022 10:54:15"}, {"Gestore": "SARNI S.R.L.", "Bandiera": "Q8", "Tipo impianto": "Autostradale", "Indirizzo": "Autostrada A1 MILANO-NAPOLI, Km. 754+000, dir. Nord 80026", "Nome impianto": "MASSERIA EST", "Comune": "CASORIA", "idImpianto": 3515, "points": [{"type": "Feature", "properties": {}, "geometry": {"type": "Point", "coordinates": [14.318506530094282, 40.89188839734464]}}], "price": 2.439, "ultima_rilevazione": "07/07/2022 06:30:05"}, {"Gestore": "SARNI S.R.L.", "Bandiera": "Q8", "Tipo impianto": "Autostradale", "Indirizzo": "Autostrada A1 MILANO-NAPOLI, Km. 754+000, dir. Nord 80026", "Nome impianto": "MASSERIA EST", "Comune": "CASORIA", "idImpianto": 3515, "points": [{"type": "Feature", "properties": {}, "geometry": {"type": "Point", "coordinates": [14.318506530094282, 40.89188839734464]}}], "price": 2.399, "ultima_rilevazione": "07/07/2022 06:30:05"}, {"Gestore": "SARNI S.R.L.", "Bandiera": "Q8", "Tipo impianto": "Autostradale", "Indirizzo": "Autostrada A1 MILANO-NAPOLI Ramo Capodichino, Km. 1+600, dir. Tangenzial 80144", "Nome impianto": "S.PIETRO", "Comune": "NAPOLI", "idImpianto": 3513, "points": [{"type": "Feature", "properties": {}, "geometry": {"type": "Point", "coordinates": [14.29818723411563, 40.88415920489065]}}], "price": 2.269, "ultima_rilevazione": "07/07/2022 07:00:05"}, {"Gestore": "SARNI S.R.L.", "Bandiera": "Q8", "Tipo impianto": "Autostradale", "Indirizzo": "Autostrada A1 MILANO-NAPOLI Ramo Capodichino, Km. 1+600, dir. Tangenzial 80144", "Nome impianto": "S.PIETRO", "Comune": "NAPOLI", "idImpianto": 3513, "points": [{"type": "Feature", "properties": {}, "geometry": {"type": "Point", "coordinates": [14.29818723411563, 40.88415920489065]}}], "price": 2.269, "ultima_rilevazione": "07/07/2022 07:00:05"}, {"Gestore": "IP SERVICES S.R.L.", "Bandiera": "Api-Ip", "Tipo impianto": "Altro", "Indirizzo": "Via S.Pertini 62 81031", "Nome impianto": "Aversa", "Comune": "AVERSA", "idImpianto": 27220, "points": [{"type": "Feature", "properties": {}, "geometry": {"type": "Point", "coordinates": [14.215456927647438, 40.96531815662782]}}], "price": 1.929, "ultima_rilevazione": "08/07/2022 09:04:16"}, {"Gestore": "IP SERVICES S.R.L.", "Bandiera": "Api-Ip", "Tipo impianto": "Altro", "Indirizzo": "Via P.Nenni  54 80018", "Nome impianto": "Mugnano di Napoli", "Comune": "MUGNANO DI NAPOLI", "idImpianto": 5955, "points": [{"type": "Feature", "properties": {}, "geometry": {"type": "Point", "coordinates": [14.222520589828491, 40.91201991863902]}}], "price": 1.899, "ultima_rilevazione": "08/07/2022 12:03:47"}, {"Gestore": "SANTANGELO CARBURANTI DI SANTANGELO PASQUALE", "Bandiera": "Q8", "Tipo impianto": "Altro", "Indirizzo": "VIA DEL CASSANO 181-ABC, 80144", "Nome impianto": "santangelo carburanti", "Comune": "NAPOLI", "idImpianto": 18622, "points": [{"type": "Feature", "properties": {}, "geometry": {"type": "Point", "coordinates": [14.26982154106986, 40.88963560826791]}}], "price": 2.349, "ultima_rilevazione": "08/07/2022 13:28:13"}, {"Gestore": "CAR.IO S.R.L.", "Bandiera": "Q8", "Tipo impianto": "Altro", "Indirizzo": "VIA DELLE PUGLIE 176/A 80026", "Nome impianto": "BENZINA - GASOLIO - HIQ CASORIA", "Comune": "CASORIA", "idImpianto": 29071, "points": [{"type": "Feature", "properties": {}, "geometry": {"type": "Point", "coordinates": [14.31901598762738, 40.883618858465454]}}], "price": 2.089, "ultima_rilevazione": "08/07/2022 18:48:10"}, {"Gestore": "SERVIZI & GESTIONI ITALIA S.R.L.", "Bandiera": "Q8", "Tipo impianto": "Altro", "Indirizzo": "VIA COLONNE 101 80014", "Nome impianto": "GIUGLIANO IN CAMPANIA-VIA COLONNE 101", "Comune": "GIUGLIANO IN CAMPANIA", "idImpianto": 11727, "points": [{"type": "Feature", "properties": {}, "geometry": {"type": "Point", "coordinates": [14.211885423278773, 40.92848955674073]}}], "price": 2.249, "ultima_rilevazione": "09/07/2022 00:34:48"}]}, "Blue Diesel": {"1": [], "3": [{"Gestore": "RI.AL.GA. PETROLI S.A.S. DI COPPOLA RITA & C.", "Bandiera": "Agip Eni", "Tipo impianto": "Altro", "Indirizzo": "CORSO UMBERTO KM 12,900  80023", "Nome impianto": "RI.AL.GA. PETROLI SAS", "Comune": "CAIVANO", "idImpianto": 28161, "points": [{"type": "Feature", "properties": {}, "geometry": {"type": "Point", "coordinates": [14.3068465590477, 40.95861044266464]}}], "price": 2.194, "ultima_rilevazione": "04/07/2022 11:57:03"}, {"Gestore": "RI.AL.GA. PETROLI S.A.S. DI COPPOLA RITA & C.", "Bandiera": "Agip Eni", "Tipo impianto": "Altro", "Indirizzo": "CORSO UMBERTO KM 12,900  80023", "Nome impianto": "RI.AL.GA. PETROLI SAS", "Comune": "CAIVANO", "idImpianto": 28161, "points": [{"type": "Feature", "properties": {}, "geometry": {"type": "Point", "coordinates": [14.3068465590477, 40.95861044266464]}}], "price": 2.074, "ultima_rilevazione": "04/07/2022 11:57:03"}, {"Gestore": "CAMPECE GIUSEPPE", "Bandiera": "Agip Eni", "Tipo impianto": "Altro", "Indirizzo": "VIA A. DIAZ  80026", "Nome impianto": "Giuseppe Campece", "Comune": "CASORIA", "idImpianto": 11285, "points": [{"type": "Feature", "properties": {}, "geometry": {"type": "Point", "coordinates": [14.294157857880464, 40.905396106582586]}}], "price": 2.074, "ultima_rilevazione": "05/07/2022 07:38:27"}, {"Gestore": "AURINO ALFREDO E C. DI ALFREDO AURINO SAS", "Bandiera": "Agip Eni", "Tipo impianto": "Altro", "Indirizzo": "VIA CASERTA AL BRAVO 116 80144", "Nome impianto": "ENI", "Comune": "NAPOLI", "idImpianto": 35599, "points": [{"type": "Feature", "properties": {}, "geometry": {"type": "Point", "coordinates": [14.278779923915865, 40.89066579584919]}}], "price": 2.359, "ultima_rilevazione": "05/07/2022 14:25:55"}, {"Gestore": "AURINO ALFREDO E C. DI ALFREDO AURINO SAS", "Bandiera": "Agip Eni", "Tipo impianto": "Altro", "Indirizzo": "VIA CASERTA AL BRAVO 116 80144", "Nome impianto": "ENI", "Comune": "NAPOLI", "idImpianto": 35599, "points": [{"type": "Feature", "properties": {}, "geometry": {"type": "Point", "coordinates": [14.278779923915865, 40.89066579584919]}}], "price": 2.069, "ultima_rilevazione": "05/07/2022 14:25:55"}, {"Gestore": "RELLA PASQUALE", "Bandiera": "Agip Eni", "Tipo impianto": "Strada Statale", "Indirizzo": "7 Via Appia, Km. 22+144, NAPOLI 80017", "Nome impianto": "pasquale rella", "Comune": "MELITO DI NAPOLI", "idImpianto": 51314, "points": [{"type": "Feature", "properties": {}, "geometry": {"type": "Point", "coordinates": [14.235650609751051, 40.915841431703065]}}], "price": 2.149, "ultima_rilevazione": "08/07/2022 17:04:56"}, {"Gestore": "RELLA PASQUALE", "Bandiera": "Agip Eni", "Tipo impianto": "Strada Statale", "Indirizzo": "7 Via Appia, Km. 22+144, NAPOLI 80017", "Nome impianto": "pasquale rella", "Comune": "MELITO DI NAPOLI", "idImpianto": 51314, "points": [{"type": "Feature", "properties": {}, "geometry": {"type": "Point", "coordinates": [14.235650609751051, 40.915841431703065]}}], "price": 2.034, "ultima_rilevazione": "08/07/2022 17:04:56"}, {"Gestore": "CANCELLO FRANCESCO", "Bandiera": "Agip Eni", "Tipo impianto": "Strada Statale", "Indirizzo": "7 Via Appia, Km. 23+579, napoli 80144", "Nome impianto": "cancello francesco", "Comune": "NAPOLI", "idImpianto": 44415, "points": [{"type": "Feature", "properties": {}, "geometry": {"type": "Point", "coordinates": [14.247570636460864, 40.9055444592129]}}], "price": 2.029, "ultima_rilevazione": "08/07/2022 17:42:55"}, {"Gestore": "CANCELLO FRANCESCO", "Bandiera": "Agip Eni", "Tipo impianto": "Altro", "Indirizzo": "sp1 circumvallazione esterna di napoli 1 80100", "Nome impianto": "Francesco Cancello 56409", "Comune": "NAPOLI", "idImpianto": 45422, "points": [{"type": "Feature", "properties": {}, "geometry": {"type": "Point", "coordinates": [14.267061746873878, 40.90039997614225]}}], "price": 2.029, "ultima_rilevazione": "08/07/2022 17:44:26"}], "5": [{"Gestore": "DISTRIBUTORE CARBURANTI - LUBRIFICANTI S.N.C. DI CAVALLACCIO SALVATORE & BARBATO ANTONIO", "Bandiera": "Agip Eni", "Tipo impianto": "Altro", "Indirizzo": "via vito di iasi/via kennedy  81031", "Nome impianto": "stazione eni di barbato & cavallaccio", "Comune": "AVERSA", "idImpianto": 16766, "points": [{"type": "Feature", "properties": {}, "geometry": {"type": "Point", "coordinates": [14.209619164466858, 40.95991326969028]}}], "price": 1.654, "ultima_rilevazione": "09/07/2022 07:09:46"}, {"Gestore": "GRICIOIL S.R.L.", "Bandiera": "Agip Eni", "Tipo impianto": "Altro", "Indirizzo": "VIA BOSCARIELLO SNC 81030", "Nome impianto": "ENI SPA", "Comune": "GRICIGNANO DI AVERSA", "idImpianto": 35485, "points": [{"type": "Feature", "properties": {}, "geometry": {"type": "Point", "coordinates": [14.236886657702598, 40.98593591937014]}}], "price": 2.074, "ultima_rilevazione": "05/07/2022 14:00:29"}, {"Gestore": "ALBOREA S.R.L.", "Bandiera": "Agip Eni", "Tipo impianto": "Autostradale", "Indirizzo": "TANG.LE DI NAPOLI, Km. 19,4, OVEST ", "Nome impianto": "DOGANELLA OVEST", "Comune": "NAPOLI", "idImpianto": 50584, "points": [{"type": "Feature", "properties": {}, "geometry": {"type": "Point", "coordinates": [14.278909115960005, 40.87269129600387]}}], "price": 2.304, "ultima_rilevazione": "07/07/2022 17:10:21"}, {"Gestore": "ALBOREA S.R.L.", "Bandiera": "Agip Eni", "Tipo impianto": "Autostradale", "Indirizzo": "TANG.LE DI NAPOLI, Km. 19,4, OVEST ", "Nome impianto": "DOGANELLA OVEST", "Comune": "NAPOLI", "idImpianto": 50584, "points": [{"type": "Feature", "properties": {}, "geometry": {"type": "Point", "coordinates": [14.278909115960005, 40.87269129600387]}}], "price": 2.224, "ultima_rilevazione": "07/07/2022 17:10:21"}, {"Gestore": "QUOTIDIANO EMANUELE", "Bandiera": "Agip Eni", "Tipo impianto": "Altro", "Indirizzo": "via miano 151 80145", "Nome impianto": "quotidiano emanuele", "Comune": "NAPOLI", "idImpianto": 44235, "points": [{"type": "Feature", "properties": {}, "geometry": {"type": "Point", "coordinates": [14.250550000123, 40.888578000123]}}], "price": 2.029, "ultima_rilevazione": "08/07/2022 17:27:31"}, {"Gestore": "ESPOSITO ANTONIO", "Bandiera": "Agip Eni", "Tipo impianto": "Altro", "Indirizzo": "Via Miano (fronte caserma Caretto)  80145", "Nome impianto": "AGIP", "Comune": "NAPOLI", "idImpianto": 13181, "points": [{"type": "Feature", "properties": {}, "geometry": {"type": "Point", "coordinates": [14.255109196505371, 40.89514532961387]}}], "price": 2.034, "ultima_rilevazione": "08/07/2022 21:47:36"}, {"Gestore": "DISTRIBUTORE CARBURANTI - LUBRIFICANTI S.N.C. DI CAVALLACCIO SALVATORE & BARBATO ANTONIO", "Bandiera": "Agip Eni", "Tipo impianto": "Altro", "Indirizzo": "via vito di iasi/via kennedy  81031", "Nome impianto": "stazione eni di barbato & cavallaccio", "Comune": "AVERSA", "idImpianto": 16766, "points": [{"type": "Feature", "properties": {}, "geometry": {"type": "Point", "coordinates": [14.209619164466858, 40.95991326969028]}}], "price": 2.144, "ultima_rilevazione": "09/07/2022 07:09:46"}]}, "Gasolio High Quality": {"1": [], "3": [{"Gestore": "MAURO E PASQUALE CIARAMELLA S.N.C.", "Bandiera": "Esso", "Tipo impianto": "Altro", "Indirizzo": "via principe di piemonte 38 80026", "Nome impianto": "mauro e pasquale ciaramella snc", "Comune": "CASORIA", "idImpianto": 17704, "points": [{"type": "Feature", "properties": {}, "geometry": {"type": "Point", "coordinates": [14.285856963458857, 40.902248283429614]}}], "price": 2.269, "ultima_rilevazione": "08/07/2022 07:07:31"}, {"Gestore": "IOVINO S.A.S. DI IOVINO ASSUNTA", "Bandiera": "Esso", "Tipo impianto": "Strada Statale", "Indirizzo": "87 Sannitica, Km. 11.217, napoli 80024", "Nome impianto": "EG ITALIA", "Comune": "CARDITO", "idImpianto": 41439, "points": [{"type": "Feature", "properties": {}, "geometry": {"type": "Point", "coordinates": [14.29911643266678, 40.9448143335362]}}], "price": 2.109, "ultima_rilevazione": "09/07/2022 07:40:03"}], "5": [{"Gestore": "SARNI S.R.L.", "Bandiera": "Sarni Oil", "Tipo impianto": "Autostradale", "Indirizzo": "A1 MILANO-NAPOLI, Km. 755,700, SUD 80026", "Nome impianto": "CITTADELLA", "Comune": "CASORIA", "idImpianto": 41853, "points": [{"type": "Feature", "properties": {}, "geometry": {"type": "Point", "coordinates": [14.317010790109634, 40.8863581307136]}}], "price": 2.259, "ultima_rilevazione": "04/07/2022 06:30:11"}, {"Gestore": "PETROLJ - SOCIETA' A RESPONSABILITA' LIMITATA", "Bandiera": "Esso", "Tipo impianto": "Altro", "Indirizzo": "via Oreste Salomone 38 80144", "Nome impianto": "Esso 6519", "Comune": "NAPOLI", "idImpianto": 33025, "points": [{"type": "Feature", "properties": {}, "geometry": {"type": "Point", "coordinates": [14.284850899475032, 40.87225247686746]}}], "price": 2.139, "ultima_rilevazione": "08/07/2022 09:23:10"}, {"Gestore": "EUROCARB S.R.L.", "Bandiera": "Esso", "Tipo impianto": "Altro", "Indirizzo": "Via Nazionale delle Puglie km 34+923  80026", "Nome impianto": "Eurocarb srl", "Comune": "CASORIA", "idImpianto": 35061, "points": [{"type": "Feature", "properties": {}, "geometry": {"type": "Point", "coordinates": [14.329589009284971, 40.8965886816468]}}], "price": 2.096, "ultima_rilevazione": "08/07/2022 17:30:31"}, {"Gestore": "G.I.C.A. DI LA ROCCA GAETANO &  C. - S.N.C.", "Bandiera": "Esso", "Tipo impianto": "Altro", "Indirizzo": "S.S. 7 bis Km 18+188  80014", "Nome impianto": "ESSO \"on the run caf\u00e8\"", "Comune": "GIUGLIANO IN CAMPANIA", "idImpianto": 13437, "points": [{"type": "Feature", "properties": {}, "geometry": {"type": "Point", "coordinates": [14.215379369641823, 40.947283654622]}}], "price": 2.049, "ultima_rilevazione": "09/07/2022 07:07:12"}]}, "Benzina": {"1": [{"Gestore": "VITALE ENRICO", "Bandiera": "Pompe Bianche", "Tipo impianto": "Altro", "Indirizzo": "corso cirillo 76 80028", "Nome impianto": "V.E. Carburantii Grumo Nevano", "Comune": "GRUMO NEVANO", "idImpianto": 43978, "points": [{"type": "Feature", "properties": {}, "geometry": {"type": "Point", "coordinates": [14.255795387731496, 40.93667813116261]}}], "price": 1.859, "ultima_rilevazione": "25/03/2022 21:25:11"}, {"Gestore": "EUROPETROL S.A.S. DI FUSCO GERARDO & C.", "Bandiera": "Api-Ip", "Tipo impianto": "Altro", "Indirizzo": "VIA NUOVA BELVEDERE 157 80024", "Nome impianto": "TOTALERG", "Comune": "CARDITO", "idImpianto": 16073, "points": [{"type": "Feature", "properties": {}, "geometry": {"type": "Point", "coordinates": [14.284775984731256, 40.94322867055087]}}], "price": 2.09, "ultima_rilevazione": "08/06/2022 21:14:55"}, {"Gestore": "SERVIZI & GESTIONI ITALIA S.R.L.", "Bandiera": "Q8", "Tipo impianto": "Altro", "Indirizzo": "EX SS 87 DIREZIONE CE  80027", "Nome impianto": "FRATTAMAGGIORE EX SS 87 DIREZIONE CE", "Comune": "FRATTAMAGGIORE", "idImpianto": 35900, "points": [{"type": "Feature", "properties": {}, "geometry": {"type": "Point", "coordinates": [14.283426851034164, 40.926981859975164]}}], "price": 1.999, "ultima_rilevazione": "04/07/2022 00:36:07"}, {"Gestore": "SERVIZI & GESTIONI ITALIA srl", "Bandiera": "Q8", "Tipo impianto": "Altro", "Indirizzo": "VIA ROMA IMP. Q8 262 80027", "Nome impianto": "FRATTAMAGGIORE VIA ROMA  262 IMP. Q8", "Comune": "FRATTAMAGGIORE", "idImpianto": 6700, "points": [{"type": "Feature", "properties": {}, "geometry": {"type": "Point", "coordinates": [14.272496311045074, 40.93349968936316]}}], "price": 2.049, "ultima_rilevazione": "04/07/2022 00:36:07"}, {"Gestore": "SERVIZI & GESTIONI ITALIA S.R.L.", "Bandiera": "Q8", "Tipo impianto": "Altro", "Indirizzo": "SS SANNITICA 87 PAL.RUSSO  80026", "Nome impianto": "SS SANNITICA 87 PAL.RUSSO - CASORIA", "Comune": "CASORIA", "idImpianto": 29726, "points": [{"type": "Feature", "properties": {}, "geometry": {"type": "Point", "coordinates": [14.296560555819724, 40.92404121584755]}}], "price": 1.969, "ultima_rilevazione": "04/07/2022 00:36:08"}, {"Gestore": "SERVIZI & GESTIONI ITALIA S.R.L.", "Bandiera": "Q8", "Tipo impianto": "Altro", "Indirizzo": "RETTIFILO AL BRAVO S/N 80022", "Nome impianto": "ARZANO-RETTIFILO AL BRAVO", "Comune": "ARZANO", "idImpianto": 11735, "points": [{"type": "Feature", "properties": {}, "geometry": {"type": "Point", "coordinates": [14.274977784061434, 40.91677567789187]}}], "price": 1.995, "ultima_rilevazione": "04/07/2022 00:36:11"}, {"Gestore": "SERVIZI & GESTIONI ITALIA S.R.L.", "Bandiera": "Q8", "Tipo impianto": "Altro", "Indirizzo": "SP PER AFRAGOLA S/N 80027", "Nome impianto": "FRATTAMAGGIORE-SP PER AFRAGOLA", "Comune": "FRATTAMAGGIORE", "idImpianto": 11739, "points": [{"type": "Feature", "properties": {}, "geometry": {"type": "Point", "coordinates": [14.283683906745864, 40.93547163223486]}}], "price": 1.988, "ultima_rilevazione": "04/07/2022 00:36:11"}, {"Gestore": "LC S.R.L.", "Bandiera": "Api-Ip", "Tipo impianto": "Altro", "Indirizzo": "Via Roma 365 80027", "Nome impianto": "IP FRATTAMAGGIORE 46001", "Comune": "FRATTAMAGGIORE", "idImpianto": 50666, "points": [{"type": "Feature", "properties": {}, "geometry": {"type": "Point", "coordinates": [14.27351691381773, 40.924100379431295]}}], "price": 1.999, "ultima_rilevazione": "04/07/2022 06:52:10"}, {"Gestore": "IP PETROLI SOCIETA' A RESPONSABILITA' LIMITATA SEMPLIFICATA", "Bandiera": "Q8", "Tipo impianto": "Altro", "Indirizzo": "via giacomo matteotti 30 80028", "Nome impianto": "ip petroli", "Comune": "GRUMO NEVANO", "idImpianto": 49512, "points": [{"type": "Feature", "properties": {}, "geometry": {"type": "Point", "coordinates": [14.264296692441205, 40.93692637383571]}}], "price": 1.999, "ultima_rilevazione": "04/07/2022 09:31:14"}, {"Gestore": "CARBURANTI DI MARIO FEBBRARO", "Bandiera": "Q8", "Tipo impianto": "Altro", "Indirizzo": "via ex s.s. 87 Sannitica km 5+30  snc 80027", "Nome impianto": "GP CARBURANTI", "Comune": "FRATTAMAGGIORE", "idImpianto": 46264, "points": [{"type": "Feature", "properties": {}, "geometry": {"type": "Point", "coordinates": [14.283864457242087, 40.92637677035637]}}], "price": 1.999, "ultima_rilevazione": "06/07/2022 10:31:28"}, {"Gestore": "4M CARBURANTI S.A.S. DI MIGLIACCIO RAFFAELE & C.", "Bandiera": "Pompe Bianche", "Tipo impianto": "Altro", "Indirizzo": "VIA PIROZZI SNC 80027", "Nome impianto": "migliaccio carburanti", "Comune": "FRATTAMAGGIORE", "idImpianto": 38382, "points": [{"type": "Feature", "properties": {}, "geometry": {"type": "Point", "coordinates": [14.271732419729233, 40.946660788432176]}}], "price": 2.019, "ultima_rilevazione": "06/07/2022 10:57:02"}, {"Gestore": "MECK OIL S.R.L.", "Bandiera": "Pompe Bianche", "Tipo impianto": "Altro", "Indirizzo": "VIA GIOVANNI XXIII 131 80020", "Nome impianto": "MECK OIL - FRATTAMINORE", "Comune": "FRATTAMINORE", "idImpianto": 33496, "points": [{"type": "Feature", "properties": {}, "geometry": {"type": "Point", "coordinates": [14.271504431962969, 40.94951728248129]}}], "price": 2.129, "ultima_rilevazione": "06/07/2022 16:57:35"}, {"Gestore": "MECK OIL S.R.L.", "Bandiera": "Pompe Bianche", "Tipo impianto": "Altro", "Indirizzo": "VIA ALESSANDRO VOLTA 122 81030", "Nome impianto": "MECK OIL ", "Comune": "SANT'ARPINO", "idImpianto": 41048, "points": [{"type": "Feature", "properties": {}, "geometry": {"type": "Point", "coordinates": [14.253828374868815, 40.95046617175665]}}], "price": 2.129, "ultima_rilevazione": "06/07/2022 16:58:59"}, {"Gestore": "TOCCO ASSUNTA", "Bandiera": "Pompe Bianche", "Tipo impianto": "Altro", "Indirizzo": "CORSO GIUSEPPE GARIBALDI 155 80028", "Nome impianto": "TOCCO ASSUNTA", "Comune": "GRUMO NEVANO", "idImpianto": 32618, "points": [{"type": "Feature", "properties": {}, "geometry": {"type": "Point", "coordinates": [14.26202813617624, 40.93158103505807]}}], "price": 1.969, "ultima_rilevazione": "07/07/2022 07:16:46"}, {"Gestore": "VELAR S.R.L.", "Bandiera": "Oceania", "Tipo impianto": "Altro", "Indirizzo": "VIA PIETRO NENNI SNC 80026", "Nome impianto": "OCEANIA (CASORIA)", "Comune": "CASORIA", "idImpianto": 46730, "points": [{"type": "Feature", "properties": {}, "geometry": {"type": "Point", "coordinates": [14.287055748886928, 40.91233049813255]}}], "price": 1.955, "ultima_rilevazione": "07/07/2022 08:34:34"}, {"Gestore": "B.M. CARBURANTI S.R.L.", "Bandiera": "Pompe Bianche", "Tipo impianto": "Altro", "Indirizzo": "CORSO D'AMATO SNC 80022", "Nome impianto": "BM CARBURANTI", "Comune": "ARZANO", "idImpianto": 45924, "points": [{"type": "Feature", "properties": {}, "geometry": {"type": "Point", "coordinates": [14.275883835594756, 40.910711967494414]}}], "price": 1.979, "ultima_rilevazione": "07/07/2022 09:51:30"}, {"Gestore": "SALZANO ANTONIO", "Bandiera": "Pompe Bianche", "Tipo impianto": "Altro", "Indirizzo": "VIA DARIO FIORE 131 80021", "Nome impianto": "Salzano Antonio", "Comune": "AFRAGOLA", "idImpianto": 27853, "points": [{"type": "Feature", "properties": {}, "geometry": {"type": "Point", "coordinates": [14.299802244705234, 40.92684578451861]}}], "price": 1.938, "ultima_rilevazione": "07/07/2022 14:47:14"}, {"Gestore": "SALZANO GIOVANNI E FIGLIO S.A.S. DI SALZANO GIOVANNI", "Bandiera": "Api-Ip", "Tipo impianto": "Altro", "Indirizzo": "VIA DARIO FIORE 133 80021", "Nome impianto": "Impianto IP", "Comune": "AFRAGOLA", "idImpianto": 16173, "points": [{"type": "Feature", "properties": {}, "geometry": {"type": "Point", "coordinates": [14.299805886438776, 40.92684392956943]}}], "price": 1.938, "ultima_rilevazione": "07/07/2022 14:48:47"}, {"Gestore": "EURO CARBURANTI S.A.S DI SALZANO FRANCESCO E C.", "Bandiera": "Pompe Bianche", "Tipo impianto": "Altro", "Indirizzo": "CORSO ITALIA ANG. VIA PALERMO SNC 80024", "Nome impianto": "EURO CARBURANTI", "Comune": "CARDITO", "idImpianto": 44197, "points": [{"type": "Feature", "properties": {}, "geometry": {"type": "Point", "coordinates": [14.293399, 40.929749]}}], "price": 1.938, "ultima_rilevazione": "07/07/2022 14:50:12"}, {"Gestore": "SANNINO PETROLI S.R.L. ", "Bandiera": "Pompe Bianche", "Tipo impianto": "Altro", "Indirizzo": "VIA SETTE RE 5 80022", "Nome impianto": "SP PETROLI ARZANO", "Comune": "ARZANO", "idImpianto": 16194, "points": [{"type": "Feature", "properties": {}, "geometry": {"type": "Point", "coordinates": [14.268480804025671, 40.91604799563869]}}], "price": 1.995, "ultima_rilevazione": "07/07/2022 17:00:44"}, {"Gestore": "LA CAVA S.R.L", "Bandiera": "Api-Ip", "Tipo impianto": "Altro", "Indirizzo": "VIA REMO DE FEO 4 80022", "Nome impianto": "IP 45373", "Comune": "ARZANO", "idImpianto": 43902, "points": [{"type": "Feature", "properties": {}, "geometry": {"type": "Point", "coordinates": [14.275783000000049, 40.918197107197024]}}], "price": 2.039, "ultima_rilevazione": "08/07/2022 06:56:26"}, {"Gestore": "VESUVIO GAS S.R.L.", "Bandiera": "Pompe Bianche", "Tipo impianto": "Altro", "Indirizzo": "VIA CUPA POMIGLIANO S.N.C. 80027", "Nome impianto": "VESUVIOGAS SRL", "Comune": "FRATTAMAGGIORE", "idImpianto": 16956, "points": [{"type": "Feature", "properties": {}, "geometry": {"type": "Point", "coordinates": [14.267773479223251, 40.95377120368689]}}], "price": 1.999, "ultima_rilevazione": "08/07/2022 07:44:31"}, {"Gestore": "BNC POWER S.R.L.", "Bandiera": "Pompe Bianche", "Tipo impianto": "Altro", "Indirizzo": "Via Roma 251 80027", "Nome impianto": "BNC Power", "Comune": "FRATTAMAGGIORE", "idImpianto": 46579, "points": [{"type": "Feature", "properties": {}, "geometry": {"type": "Point", "coordinates": [14.27222428483458, 40.93356082719643]}}], "price": 1.959, "ultima_rilevazione": "08/07/2022 07:56:17"}, {"Gestore": "IP SERVICES S.R.L.", "Bandiera": "Api-Ip", "Tipo impianto": "Altro", "Indirizzo": "SS 87 SANNITICA KM. 7,710  80023", "Nome impianto": "CASORIA - S.S. 87 KM.7,710", "Comune": "CASORIA", "idImpianto": 30634, "points": [{"type": "Feature", "properties": {}, "geometry": {"type": "Point", "coordinates": [14.291124139881164, 40.91663749667929]}}], "price": 1.969, "ultima_rilevazione": "08/07/2022 14:02:19"}, {"Gestore": "IP SERVICES S.R.L.", "Bandiera": "Api-Ip", "Tipo impianto": "Altro", "Indirizzo": "CORSO GARIBALDI 202 80100", "Nome impianto": "GRUMO NEVANO - GARIBALDI 202", "Comune": "GRUMO NEVANO", "idImpianto": 37906, "points": [{"type": "Feature", "properties": {}, "geometry": {"type": "Point", "coordinates": [14.263854741104524, 40.92588581405797]}}], "price": 1.969, "ultima_rilevazione": "08/07/2022 12:01:31"}, {"Gestore": "IP SERVICES S.R.L.", "Bandiera": "Api-Ip", "Tipo impianto": "Altro", "Indirizzo": "VIA LUIGI SAN ROCCO 64 80100", "Nome impianto": "ARZANO - LUIGI SAN ROCCO 64", "Comune": "ARZANO", "idImpianto": 32757, "points": [{"type": "Feature", "properties": {}, "geometry": {"type": "Point", "coordinates": [14.271959766864711, 40.91250912138149]}}], "price": 1.969, "ultima_rilevazione": "08/07/2022 12:01:33"}, {"Gestore": "IP SERVICES S.R.L.", "Bandiera": "Api-Ip", "Tipo impianto": "Altro", "Indirizzo": "VIA MARTIRI ATELLANI  80100", "Nome impianto": "FRATTAMINORE - MARTIRI ATELLANI", "Comune": "FRATTAMINORE", "idImpianto": 30242, "points": [{"type": "Feature", "properties": {}, "geometry": {"type": "Point", "coordinates": [14.264659766864725, 40.96120101274002]}}], "price": 1.969, "ultima_rilevazione": "08/07/2022 12:01:36"}, {"Gestore": "DORANTOIL S.A.S. DI MIELE RAFFAELE", "Bandiera": "Esso", "Tipo impianto": "Altro", "Indirizzo": "VIA PROVINCIALE CRISPANO - FRATTAMAGGIORE S.N.C. 80020", "Nome impianto": "DORANTOIL SAS", "Comune": "CRISPANO", "idImpianto": 18094, "points": [{"type": "Feature", "properties": {}, "geometry": {"type": "Point", "coordinates": [14.282879680395126, 40.94835180733347]}}], "price": 1.959, "ultima_rilevazione": "08/07/2022 13:00:02"}, {"Gestore": "ALFIERI CIRO", "Bandiera": "Tamoil", "Tipo impianto": "Altro", "Indirizzo": "via pietro nenni  80026", "Nome impianto": "tamoil", "Comune": "CASORIA", "idImpianto": 19419, "points": [{"type": "Feature", "properties": {}, "geometry": {"type": "Point", "coordinates": [14.284238889813423, 40.91321339870182]}}], "price": 1.969, "ultima_rilevazione": "08/07/2022 15:04:11"}, {"Gestore": "SORVILLO VINCENZO", "Bandiera": "Api-Ip", "Tipo impianto": "Altro", "Indirizzo": "VIA P.MARIO VERGARA 98 80027", "Nome impianto": "IP", "Comune": "FRATTAMAGGIORE", "idImpianto": 31887, "points": [{"type": "Feature", "properties": {}, "geometry": {"type": "Point", "coordinates": [14.280422284866404, 40.937370855372606]}}], "price": 1.979, "ultima_rilevazione": "08/07/2022 20:19:52"}, {"Gestore": "FULL SERVICE S.A.S. DI DEL PRETE SOSIO & C.", "Bandiera": "Tamoil", "Tipo impianto": "Altro", "Indirizzo": "VIA EX STRADA PR.LE GRUMO-FRATTA 12/14 80028", "Nome impianto": "TAMOIL", "Comune": "GRUMO NEVANO", "idImpianto": 15394, "points": [{"type": "Feature", "properties": {}, "geometry": {"type": "Point", "coordinates": [14.258404523134232, 40.946680439922034]}}], "price": 1.979, "ultima_rilevazione": "09/07/2022 06:52:08"}], "3": [{"Gestore": "CAFFETTERIA PENTA DI PIERNO ROSARIO E DI RICCI GIOVANNI MARCO S.N .C.", "Bandiera": "Api-Ip", "Tipo impianto": "Altro", "Indirizzo": "VIA NAPOLI ROMA VERSO SCAMPIA 52B-52C 80144", "Nome impianto": "IP", "Comune": "NAPOLI", "idImpianto": 50923, "points": [{"type": "Feature", "properties": {}, "geometry": {"type": "Point", "coordinates": [14.254184067249298, 40.89965847100691]}}], "price": 1.744, "ultima_rilevazione": "26/10/2021 10:45:47"}, {"Gestore": "B GROUP DI LUCA BARBATO", "Bandiera": "Esso", "Tipo impianto": "Altro", "Indirizzo": "VIA GUGLIELMO MARCONI 110 80020", "Nome impianto": "BGROUP di Luca Barbato", "Comune": "CASAVATORE", "idImpianto": 50926, "points": [{"type": "Feature", "properties": {}, "geometry": {"type": "Point", "coordinates": [14.277507282137622, 40.89822028884527]}}], "price": 1.809, "ultima_rilevazione": "22/02/2022 07:48:38"}, {"Gestore": "PALLADINO  ANTONINO", "Bandiera": "Agip Eni", "Tipo impianto": "Altro", "Indirizzo": "VIA MARCONI 209 80020", "Nome impianto": "STAZIONE CASAVATORE", "Comune": "CASAVATORE", "idImpianto": 42376, "points": [{"type": "Feature", "properties": {}, "geometry": {"type": "Point", "coordinates": [14.278422260713228, 40.893851911513394]}}], "price": 2.099, "ultima_rilevazione": "05/07/2022 06:41:55"}, {"Gestore": "MAURO E PASQUALE CIARAMELLA S.N.C.", "Bandiera": "Esso", "Tipo impianto": "Altro", "Indirizzo": "via principe di piemonte 38 80026", "Nome impianto": "mauro e pasquale ciaramella snc", "Comune": "CASORIA", "idImpianto": 17704, "points": [{"type": "Feature", "properties": {}, "geometry": {"type": "Point", "coordinates": [14.285856963458857, 40.902248283429614]}}], "price": 2.259, "ultima_rilevazione": "08/07/2022 07:07:31"}, {"Gestore": "L.S. Q8 S.A.S. DI AUFIERO TOMMASINA & MOTTOLA SABINO", "Bandiera": "Q8", "Tipo impianto": "Altro", "Indirizzo": "VIA LIMITONE D'ARZANO 6 80144", "Nome impianto": "L.S.Q8sas", "Comune": "NAPOLI", "idImpianto": 8602, "points": [{"type": "Feature", "properties": {}, "geometry": {"type": "Point", "coordinates": [14.262000024318697, 40.901842031383175]}}], "price": 2.159, "ultima_rilevazione": "21/03/2022 12:42:57"}, {"Gestore": "SARRACINO PETROLI S.A.S. DI SARRACINO ANTONIO", "Bandiera": "Api-Ip", "Tipo impianto": "Strada Statale", "Indirizzo": "7 bis di Terra di Lavoro, Km. 15+35, direziona nola 81030", "Nome impianto": "TOTAL ERG SARRACINO PETROLI", "Comune": "ORTA DI ATELLA", "idImpianto": 32544, "points": [{"type": "Feature", "properties": {}, "geometry": {"type": "Point", "coordinates": [14.276027977466583, 40.97506646673391]}}], "price": 1.764, "ultima_rilevazione": "22/03/2022 17:55:51"}, {"Gestore": "A.G. CARBURANTI S.R.L.S.", "Bandiera": "Pompe Bianche", "Tipo impianto": "Altro", "Indirizzo": "via Guglielmo Marconi 62 80029", "Nome impianto": "SANTANTIMO", "Comune": "SANT'ANTIMO", "idImpianto": 49006, "points": [{"type": "Feature", "properties": {}, "geometry": {"type": "Point", "coordinates": [14.243863171214205, 40.9459497105326]}}], "price": 1.799, "ultima_rilevazione": "05/05/2022 12:14:07"}, {"Gestore": "RUSSO RAFFAELE", "Bandiera": "Esso", "Tipo impianto": "Altro", "Indirizzo": "VIA ROMA VERSO SCAMPIA SNC 80144", "Nome impianto": "RUSSO RAFFAELE", "Comune": "NAPOLI", "idImpianto": 38070, "points": [{"type": "Feature", "properties": {}, "geometry": {"type": "Point", "coordinates": [14.25569397699303, 40.89807390517839]}}], "price": 1.859, "ultima_rilevazione": "24/05/2022 11:24:01"}, {"Gestore": "FERRARIO GROUP S.A.S. DI FERRARIO FABRIZIO & C.", "Bandiera": "Esso", "Tipo impianto": "Altro", "Indirizzo": "VIA DARIO FIORE 61 80021", "Nome impianto": "esso", "Comune": "AFRAGOLA", "idImpianto": 48749, "points": [{"type": "Feature", "properties": {}, "geometry": {"type": "Point", "coordinates": [14.304020845403668, 40.92498209306916]}}], "price": 2.069, "ultima_rilevazione": "04/07/2022 15:19:00"}, {"Gestore": "C.R. PETROLI SOCIETA' A RESPONSABILITA' LIMITATA SEMPLIFICATA", "Bandiera": "Pompe Bianche", "Tipo impianto": "Altro", "Indirizzo": "Via Roma  169 80029", "Nome impianto": "C.R. PETROLI", "Comune": "SANT'ANTIMO", "idImpianto": 49765, "points": [{"type": "Feature", "properties": {}, "geometry": {"type": "Point", "coordinates": [14.234772805910149, 40.93317344216066]}}], "price": 1.969, "ultima_rilevazione": "21/06/2022 14:06:18"}, {"Gestore": "PIT -  STOP CARBURANTE S.A.S. DI ASCIONE LUCIA & C.", "Bandiera": "Pompe Bianche", "Tipo impianto": "Altro", "Indirizzo": "via paolo borsellino 200 80025", "Nome impianto": "pit stop carburante sas", "Comune": "CASANDRINO", "idImpianto": 15902, "points": [{"type": "Feature", "properties": {}, "geometry": {"type": "Point", "coordinates": [14.250720124606346, 40.9177032983733]}}], "price": 1.999, "ultima_rilevazione": "28/06/2022 17:00:47"}, {"Gestore": "AL.MA S.N.C. DI RUSSO FABIO", "Bandiera": "Api-Ip", "Tipo impianto": "Altro", "Indirizzo": "VIA CIRCUMVALLAZIONE ESTERNA 98 80100", "Nome impianto": "ALMA", "Comune": "CASORIA", "idImpianto": 44071, "points": [{"type": "Feature", "properties": {}, "geometry": {"type": "Point", "coordinates": [14.303845046626977, 40.89698222598175]}}], "price": 2.167, "ultima_rilevazione": "30/06/2022 16:32:53"}, {"Gestore": "SANNINO PETROLI S.R.L.", "Bandiera": "Pompe Bianche", "Tipo impianto": "Altro", "Indirizzo": "corso michelangelo  snc 80029", "Nome impianto": "sannino petroli", "Comune": "SANT'ANTIMO", "idImpianto": 51074, "points": [{"type": "Feature", "properties": {}, "geometry": {"type": "Point", "coordinates": [14.232742310660308, 40.95471832145436]}}], "price": 1.999, "ultima_rilevazione": "04/07/2022 09:29:26"}, {"Gestore": "RI.AL.GA. PETROLI S.A.S. DI COPPOLA RITA & C.", "Bandiera": "Agip Eni", "Tipo impianto": "Altro", "Indirizzo": "CORSO UMBERTO KM 12,900  80023", "Nome impianto": "RI.AL.GA. PETROLI SAS", "Comune": "CAIVANO", "idImpianto": 28161, "points": [{"type": "Feature", "properties": {}, "geometry": {"type": "Point", "coordinates": [14.3068465590477, 40.95861044266464]}}], "price": 2.044, "ultima_rilevazione": "04/07/2022 11:57:03"}, {"Gestore": "CAMPECE GIUSEPPE", "Bandiera": "Agip Eni", "Tipo impianto": "Altro", "Indirizzo": "VIA A. DIAZ  80026", "Nome impianto": "Giuseppe Campece", "Comune": "CASORIA", "idImpianto": 11285, "points": [{"type": "Feature", "properties": {}, "geometry": {"type": "Point", "coordinates": [14.294157857880464, 40.905396106582586]}}], "price": 2.044, "ultima_rilevazione": "05/07/2022 07:38:27"}, {"Gestore": "AURINO ALFREDO E C. DI ALFREDO AURINO SAS", "Bandiera": "Agip Eni", "Tipo impianto": "Altro", "Indirizzo": "VIA CASERTA AL BRAVO 116 80144", "Nome impianto": "ENI", "Comune": "NAPOLI", "idImpianto": 35599, "points": [{"type": "Feature", "properties": {}, "geometry": {"type": "Point", "coordinates": [14.278779923915865, 40.89066579584919]}}], "price": 2.039, "ultima_rilevazione": "05/07/2022 14:25:55"}, {"Gestore": "D'ANGELO S.R.L.", "Bandiera": "Eco Fuel", "Tipo impianto": "Altro", "Indirizzo": "VIA P.BORSELLINO (EX VIA NAPOLI) 39 80025", "Nome impianto": "EcoFuel", "Comune": "CASANDRINO", "idImpianto": 47114, "points": [{"type": "Feature", "properties": {}, "geometry": {"type": "Point", "coordinates": [14.24665242433548, 40.93330270923944]}}], "price": 1.975, "ultima_rilevazione": "05/07/2022 18:05:17"}, {"Gestore": "PONTICELLI TOMMASO", "Bandiera": "Api-Ip", "Tipo impianto": "Altro", "Indirizzo": "CORSO UMBERTO 17 80023", "Nome impianto": "IP", "Comune": "CAIVANO", "idImpianto": 51276, "points": [{"type": "Feature", "properties": {}, "geometry": {"type": "Point", "coordinates": [14.302432538623066, 40.949442548318544]}}], "price": 1.989, "ultima_rilevazione": "05/07/2022 21:09:20"}, {"Gestore": "MECK OIL S.R.L.", "Bandiera": "Pompe Bianche", "Tipo impianto": "Altro", "Indirizzo": " STR.PROVINCIALE AVERSA-CAIVANO SNC 80020", "Nome impianto": "Mekoil Crispano", "Comune": "CRISPANO", "idImpianto": 36173, "points": [{"type": "Feature", "properties": {}, "geometry": {"type": "Point", "coordinates": [14.290754646062853, 40.95971152764272]}}], "price": 2.129, "ultima_rilevazione": "06/07/2022 16:58:26"}, {"Gestore": "B. & A. S.A.S. DI FRANZESE PASQUALE & C.", "Bandiera": "Italiana Carburanti", "Tipo impianto": "Altro", "Indirizzo": "via circumvalazione esterna  80026", "Nome impianto": "B & A S.A.S DI FRANZESE PASQUALE", "Comune": "CASORIA", "idImpianto": 42479, "points": [{"type": "Feature", "properties": {}, "geometry": {"type": "Point", "coordinates": [14.294319953372906, 40.89610105495309]}}], "price": 2.169, "ultima_rilevazione": "06/07/2022 20:23:04"}, {"Gestore": "BRP S.A.S. DI BAFFICO NICOLA E BAFFICO SALVATORE & C.", "Bandiera": "Pompe Bianche", "Tipo impianto": "Altro", "Indirizzo": "Via Astragata SNC, Succivo, Caserta, Italy  81030", "Nome impianto": "BRP", "Comune": "SUCCIVO", "idImpianto": 15401, "points": [{"type": "Feature", "properties": {}, "geometry": {"type": "Point", "coordinates": [14.261425188946532, 40.97552048616645]}}], "price": 1.989, "ultima_rilevazione": "07/07/2022 06:28:50"}, {"Gestore": "VELAR S.R.L.", "Bandiera": "Oceania", "Tipo impianto": "Altro", "Indirizzo": "VIA DON SEBASTIANO DE ROSA SNC 80022", "Nome impianto": "OCEANIA (ARZANO)", "Comune": "ARZANO", "idImpianto": 48457, "points": [{"type": "Feature", "properties": {}, "geometry": {"type": "Point", "coordinates": [14.259299588954931, 40.91623163920552]}}], "price": 1.955, "ultima_rilevazione": "07/07/2022 08:33:59"}, {"Gestore": "CARBURANTI S.N.C. DI GIORGIO VARRIALE", "Bandiera": "Q8", "Tipo impianto": "Altro", "Indirizzo": "VIA CIRCUMVALLAZIONE ESTERNA 31 80144", "Nome impianto": "CARBURANTI S.N.C. DI GIORGIO VARRIALE", "Comune": "NAPOLI", "idImpianto": 33636, "points": [{"type": "Feature", "properties": {}, "geometry": {"type": "Point", "coordinates": [14.266694063337695, 40.900292927556215]}}], "price": 1.999, "ultima_rilevazione": "07/07/2022 10:16:10"}, {"Gestore": "M.E. S.R.L.", "Bandiera": "Esso", "Tipo impianto": "Altro", "Indirizzo": "VIA COM.LE VIOTTOLO DEI SERPI SNC 80021", "Nome impianto": "ESSO", "Comune": "AFRAGOLA", "idImpianto": 44496, "points": [{"type": "Feature", "properties": {}, "geometry": {"type": "Point", "coordinates": [14.303855895996094, 40.9447120213266]}}], "price": 1.989, "ultima_rilevazione": "07/07/2022 13:27:20"}, {"Gestore": "CAIAZZO CARBURANTI DI CAIAZZO DOMENICO", "Bandiera": "Api-Ip", "Tipo impianto": "Altro", "Indirizzo": "Via baku snc 80144", "Nome impianto": "Italiana petroli s.p.a", "Comune": "NAPOLI", "idImpianto": 35769, "points": [{"type": "Feature", "properties": {}, "geometry": {"type": "Point", "coordinates": [14.24405202269554, 40.90692752195723]}}], "price": 2.019, "ultima_rilevazione": "07/07/2022 14:41:27"}, {"Gestore": "CAIAZZO & CO. SOCIETA' A RESPONSABILITA' LIMITATA SEMPLIFICATA", "Bandiera": "Total Erg", "Tipo impianto": "Altro", "Indirizzo": "CORSO ENRICO DE NICOLA 2 80021", "Nome impianto": "CPETROLI", "Comune": "AFRAGOLA", "idImpianto": 42403, "points": [{"type": "Feature", "properties": {}, "geometry": {"type": "Point", "coordinates": [14.307874053474052, 40.92039715802028]}}], "price": 1.937, "ultima_rilevazione": "07/07/2022 15:01:36"}, {"Gestore": "TILOGICA S.R.L.", "Bandiera": "Pompe Bianche", "Tipo impianto": "Altro", "Indirizzo": "Via Armando Diaz  106 80026", "Nome impianto": "Tilogica Station", "Comune": "CASORIA", "idImpianto": 51357, "points": [{"type": "Feature", "properties": {}, "geometry": {"type": "Point", "coordinates": [14.297259183898626, 40.91087696870597]}}], "price": 1.955, "ultima_rilevazione": "07/07/2022 22:13:17"}, {"Gestore": "SIRIUS PETROLI S.R.L.", "Bandiera": "Pompe Bianche", "Tipo impianto": "Altro", "Indirizzo": "PIAZZA CASTELLO  80021", "Nome impianto": "SP FUEL  -  NA", "Comune": "AFRAGOLA", "idImpianto": 47164, "points": [{"type": "Feature", "properties": {}, "geometry": {"type": "Point", "coordinates": [14.3142677798272, 40.919833719705046]}}], "price": 1.928, "ultima_rilevazione": "08/07/2022 08:25:09"}, {"Gestore": "IP SERVICES S.R.L.", "Bandiera": "Api-Ip", "Tipo impianto": "Strada Statale", "Indirizzo": "Statale 87 Sannitica, Km. 13,480, dir. NAPOLI 80023", "Nome impianto": "CAIVANO - S.S. 87 KM 13,480", "Comune": "CAIVANO", "idImpianto": 28044, "points": [{"type": "Feature", "properties": {}, "geometry": {"type": "Point", "coordinates": [14.307010728836076, 40.9632405083603]}}], "price": 1.989, "ultima_rilevazione": "08/07/2022 09:01:32"}, {"Gestore": "AREA SERVIZIO SAN MICHELE S.A.S. DI BUGLIONE SALVATORE E C.", "Bandiera": "Esso", "Tipo impianto": "Altro", "Indirizzo": "Via Circumvallazione esterna di Arzano, Km. 20+500  80022", "Nome impianto": "Area Servizio San Michele sas", "Comune": "ARZANO", "idImpianto": 32682, "points": [{"type": "Feature", "properties": {}, "geometry": {"type": "Point", "coordinates": [14.25217106938362, 40.91071817376809]}}], "price": 1.969, "ultima_rilevazione": "08/07/2022 09:13:54"}, {"Gestore": "DI MARSILIO ANTONIO", "Bandiera": "Esso", "Tipo impianto": "Altro", "Indirizzo": "VIA MARTIRI ATELLANI 30 81030", "Nome impianto": "DI MARSILIO ANTONIO", "Comune": "SANT'ARPINO", "idImpianto": 43645, "points": [{"type": "Feature", "properties": {}, "geometry": {"type": "Point", "coordinates": [14.24407404662702, 40.96383583572239]}}], "price": 2.029, "ultima_rilevazione": "08/07/2022 11:10:29"}, {"Gestore": "DI MARSILIO ANTONIO", "Bandiera": "Esso", "Tipo impianto": "Altro", "Indirizzo": "VIA CASERTA 25 81030", "Nome impianto": "DI MARSILIO ANTONIO", "Comune": "SUCCIVO", "idImpianto": 43647, "points": [{"type": "Feature", "properties": {}, "geometry": {"type": "Point", "coordinates": [14.261868224536896, 40.96857903788038]}}], "price": 1.999, "ultima_rilevazione": "08/07/2022 11:11:20"}, {"Gestore": "IP SERVICES S.R.L.", "Bandiera": "Api-Ip", "Tipo impianto": "Altro", "Indirizzo": "VIA MARCONI 5 81100", "Nome impianto": "SUCCIVO - MARCONI", "Comune": "SUCCIVO", "idImpianto": 32873, "points": [{"type": "Feature", "properties": {}, "geometry": {"type": "Point", "coordinates": [14.260538892030697, 40.96622126592551]}}], "price": 1.969, "ultima_rilevazione": "08/07/2022 12:01:33"}, {"Gestore": "AUTOSTAZIONE CANCELLO CARLO", "Bandiera": "Esso", "Tipo impianto": "Altro", "Indirizzo": "VIA CIRC.NE ARZANO SNC 80022", "Nome impianto": "AUTOSTAZIONE CANCELLO CARLO", "Comune": "ARZANO", "idImpianto": 31941, "points": [{"type": "Feature", "properties": {}, "geometry": {"type": "Point", "coordinates": [14.264139086008072, 40.90419284727805]}}], "price": 1.999, "ultima_rilevazione": "08/07/2022 12:02:23"}, {"Gestore": "EASY SERVICE S.R.L.", "Bandiera": "Energas", "Tipo impianto": "Altro", "Indirizzo": "VIALE X MAGGIO  SNC 80024", "Nome impianto": "Easy Service Cardito", "Comune": "CARDITO", "idImpianto": 38134, "points": [{"type": "Feature", "properties": {}, "geometry": {"type": "Point", "coordinates": [14.303525320376592, 40.94033678958917]}}], "price": 1.959, "ultima_rilevazione": "08/07/2022 13:57:58"}, {"Gestore": "RELLA PASQUALE", "Bandiera": "Agip Eni", "Tipo impianto": "Strada Statale", "Indirizzo": "7 Via Appia, Km. 22+144, NAPOLI 80017", "Nome impianto": "pasquale rella", "Comune": "MELITO DI NAPOLI", "idImpianto": 51314, "points": [{"type": "Feature", "properties": {}, "geometry": {"type": "Point", "coordinates": [14.235650609751051, 40.915841431703065]}}], "price": 2.004, "ultima_rilevazione": "08/07/2022 17:04:56"}, {"Gestore": "CANCELLO FRANCESCO", "Bandiera": "Agip Eni", "Tipo impianto": "Strada Statale", "Indirizzo": "7 Via Appia, Km. 23+579, napoli 80144", "Nome impianto": "cancello francesco", "Comune": "NAPOLI", "idImpianto": 44415, "points": [{"type": "Feature", "properties": {}, "geometry": {"type": "Point", "coordinates": [14.247570636460864, 40.9055444592129]}}], "price": 1.979, "ultima_rilevazione": "08/07/2022 17:42:55"}, {"Gestore": "CANCELLO FRANCESCO", "Bandiera": "Agip Eni", "Tipo impianto": "Altro", "Indirizzo": "sp1 circumvallazione esterna di napoli 1 80100", "Nome impianto": "Francesco Cancello 56409", "Comune": "NAPOLI", "idImpianto": 45422, "points": [{"type": "Feature", "properties": {}, "geometry": {"type": "Point", "coordinates": [14.267061746873878, 40.90039997614225]}}], "price": 1.979, "ultima_rilevazione": "08/07/2022 17:44:26"}, {"Gestore": "CRISPINO LUIGI E C. SN.C.", "Bandiera": "Pompe Bianche", "Tipo impianto": "Altro", "Indirizzo": "VIA ALCIDE DE GASPERI 110 80021", "Nome impianto": "CRISPINO LUIGI & C. s.n.c.", "Comune": "AFRAGOLA", "idImpianto": 13186, "points": [{"type": "Feature", "properties": {}, "geometry": {"type": "Point", "coordinates": [14.3096628968201, 40.92847474908711]}}], "price": 1.989, "ultima_rilevazione": "08/07/2022 19:24:06"}, {"Gestore": "START S.R.L.", "Bandiera": "Energas", "Tipo impianto": "Altro", "Indirizzo": "VIA CIRCUMVALLAZIONE ESTERNA 24/26 80026", "Nome impianto": "Energas Spa", "Comune": "CASORIA", "idImpianto": 48033, "points": [{"type": "Feature", "properties": {}, "geometry": {"type": "Point", "coordinates": [14.29590151653291, 40.89587429614623]}}], "price": 1.999, "ultima_rilevazione": "08/07/2022 20:38:33"}, {"Gestore": "GESTIONE ITALIA SOCIETA' A RESPONSABILITA' LIMITATA", "Bandiera": "ALIFUEL", "Tipo impianto": "Altro", "Indirizzo": "VIA MARTIRI ATELLANI SNC 81030", "Nome impianto": "ALI FUEL - SANT'ARPINO", "Comune": "SANT'ARPINO", "idImpianto": 41326, "points": [{"type": "Feature", "properties": {}, "geometry": {"type": "Point", "coordinates": [14.237398709730089, 40.96636257428471]}}], "price": 1.979, "ultima_rilevazione": "09/07/2022 05:22:06"}, {"Gestore": "TOIL S.P.A.", "Bandiera": "Toil", "Tipo impianto": "Altro", "Indirizzo": "VIA TORIELLO SIPARIELLO SNC 80029", "Nome impianto": "TOIL S.ANTIMO", "Comune": "SANT'ANTIMO", "idImpianto": 35547, "points": [{"type": "Feature", "properties": {}, "geometry": {"type": "Point", "coordinates": [14.24148716032505, 40.95368835219109]}}], "price": 1.979, "ultima_rilevazione": "09/07/2022 00:24:02"}, {"Gestore": "SERVIZI & GESTIONI ITALIA S.R.L.", "Bandiera": "Q8", "Tipo impianto": "Altro", "Indirizzo": "CORSO EUROPA 37 80029", "Nome impianto": "S.ANTIMO CORSO EUROPA, 37", "Comune": "SANT'ANTIMO", "idImpianto": 7496, "points": [{"type": "Feature", "properties": {}, "geometry": {"type": "Point", "coordinates": [14.230506867170334, 40.93010872140122]}}], "price": 1.949, "ultima_rilevazione": "09/07/2022 00:34:48"}, {"Gestore": "GESTIONI INNOVATIVE ITALIA S.R.L.", "Bandiera": "Agip Eni", "Tipo impianto": "Altro", "Indirizzo": "CORSO S.D'AMATO LOC.RETTIFILO 20, 80022", "Nome impianto": "PV 8086", "Comune": "ARZANO", "idImpianto": 25273, "points": [{"type": "Feature", "properties": {}, "geometry": {"type": "Point", "coordinates": [14.276156723499298, 40.906906845069386]}}], "price": 1.984, "ultima_rilevazione": "09/07/2022 06:06:06"}, {"Gestore": "IOVINO S.A.S. DI IOVINO ASSUNTA", "Bandiera": "Esso", "Tipo impianto": "Strada Statale", "Indirizzo": "87 Sannitica, Km. 11.217, napoli 80024", "Nome impianto": "EG ITALIA", "Comune": "CARDITO", "idImpianto": 41439, "points": [{"type": "Feature", "properties": {}, "geometry": {"type": "Point", "coordinates": [14.29911643266678, 40.9448143335362]}}], "price": 1.979, "ultima_rilevazione": "09/07/2022 07:40:03"}], "5": [{"Gestore": "DISTRIBUTORE CARBURANTI - LUBRIFICANTI S.N.C. DI CAVALLACCIO SALVATORE & BARBATO ANTONIO", "Bandiera": "Agip Eni", "Tipo impianto": "Altro", "Indirizzo": "via vito di iasi/via kennedy  81031", "Nome impianto": "stazione eni di barbato & cavallaccio", "Comune": "AVERSA", "idImpianto": 16766, "points": [{"type": "Feature", "properties": {}, "geometry": {"type": "Point", "coordinates": [14.209619164466858, 40.95991326969028]}}], "price": 1.694, "ultima_rilevazione": "09/07/2022 07:09:46"}, {"Gestore": "DELLO MARGIO MARIA ROSARIA", "Bandiera": "Api-Ip", "Tipo impianto": "Altro", "Indirizzo": "VIA S.ANTONIO ABATE 124 81030", "Nome impianto": "STAZIONE SERVIZIO IP", "Comune": "GRICIGNANO DI AVERSA", "idImpianto": 28087, "points": [{"type": "Feature", "properties": {}, "geometry": {"type": "Point", "coordinates": [14.232721848410051, 40.98575050252686]}}], "price": 2.002, "ultima_rilevazione": "17/06/2022 17:42:52"}, {"Gestore": "VITULLO S.A.S. DI TESORONE PATRIZIA", "Bandiera": "Esso", "Tipo impianto": "Altro", "Indirizzo": "VIA CASERTA AL BRAVO 8 80144", "Nome impianto": "ESSO - VITULLO S.A.S. DI TESORONE PATRIZIA", "Comune": "NAPOLI", "idImpianto": 49879, "points": [{"type": "Feature", "properties": {}, "geometry": {"type": "Point", "coordinates": [14.27635153580922, 40.88637862409743]}}], "price": 2.019, "ultima_rilevazione": "28/06/2022 10:17:41"}, {"Gestore": "ORO NERO S.R.L.", "Bandiera": "Pompe Bianche", "Tipo impianto": "Altro", "Indirizzo": "VIA SAGGESE SNC 80021", "Nome impianto": "ROIL", "Comune": "AFRAGOLA", "idImpianto": 43367, "points": [{"type": "Feature", "properties": {}, "geometry": {"type": "Point", "coordinates": [14.345534744892618, 40.921300160915735]}}], "price": 1.99, "ultima_rilevazione": "28/06/2022 11:13:05"}, {"Gestore": "A.G. GAS S.R.L.", "Bandiera": "Pompe Bianche", "Tipo impianto": "Altro", "Indirizzo": "VIA PIETRO NENNI 42 80018", "Nome impianto": "MY EN", "Comune": "MUGNANO DI NAPOLI", "idImpianto": 37236, "points": [{"type": "Feature", "properties": {}, "geometry": {"type": "Point", "coordinates": [14.221272692084312, 40.91297421794075]}}], "price": 1.999, "ultima_rilevazione": "01/07/2022 13:50:32"}, {"Gestore": "ANGELINO PETROLI S.A.S. DI ANGELINO CARMINE & C.", "Bandiera": "Energas", "Tipo impianto": "Altro", "Indirizzo": "via oasi del sacro cuore  119 80014", "Nome impianto": "EnerGas", "Comune": "GIUGLIANO IN CAMPANIA", "idImpianto": 35766, "points": [{"type": "Feature", "properties": {}, "geometry": {"type": "Point", "coordinates": [14.20791988769679, 40.93894261107274]}}], "price": 2.009, "ultima_rilevazione": "03/07/2022 19:24:54"}, {"Gestore": "SERVIZI & GESTIONI ITALIA S.R.L.", "Bandiera": "Q8", "Tipo impianto": "Altro", "Indirizzo": "VITO DE JASI  81031", "Nome impianto": "AVERSA VITO DE JASI", "Comune": "AVERSA", "idImpianto": 34565, "points": [{"type": "Feature", "properties": {}, "geometry": {"type": "Point", "coordinates": [14.207907553372934, 40.96247438592287]}}], "price": 2.029, "ultima_rilevazione": "04/07/2022 00:36:15"}, {"Gestore": "SERVIZI & GESTIONI ITALIA S.R.L.", "Bandiera": "Q8", "Tipo impianto": "Altro", "Indirizzo": "S.P. MELITO-MUGNANO SNC 80018", "Nome impianto": "MUGNANO - S.P. MELITO-MUGNANO  SNC", "Comune": "MUGNANO DI NAPOLI", "idImpianto": 31878, "points": [{"type": "Feature", "properties": {}, "geometry": {"type": "Point", "coordinates": [14.222807586193085, 40.91692099516414]}}], "price": 1.999, "ultima_rilevazione": "04/07/2022 01:05:44"}, {"Gestore": "SARNI S.R.L.", "Bandiera": "Sarni Oil", "Tipo impianto": "Autostradale", "Indirizzo": "A1 MILANO-NAPOLI, Km. 755,700, SUD 80026", "Nome impianto": "CITTADELLA", "Comune": "CASORIA", "idImpianto": 41853, "points": [{"type": "Feature", "properties": {}, "geometry": {"type": "Point", "coordinates": [14.317010790109634, 40.8863581307136]}}], "price": 2.098, "ultima_rilevazione": "04/07/2022 06:30:11"}, {"Gestore": "MARCOLIVA SOCIETA' A RESPONSABILITA' LIMITATA SEMPLIFICATA", "Bandiera": "Api-Ip", "Tipo impianto": "Altro", "Indirizzo": "VIA ATELLANA SNC 81031", "Nome impianto": "MARCOLIVA SRLS", "Comune": "AVERSA", "idImpianto": 50083, "points": [{"type": "Feature", "properties": {}, "geometry": {"type": "Point", "coordinates": [14.223478703147292, 40.970464686620126]}}], "price": 2.029, "ultima_rilevazione": "04/07/2022 07:58:04"}, {"Gestore": "SANGERMANO VINCENZO", "Bandiera": "Pompe Bianche", "Tipo impianto": "Altro", "Indirizzo": "via Regina Margherita  107 80145", "Nome impianto": "GHEPARDOIL", "Comune": "NAPOLI", "idImpianto": 40405, "points": [{"type": "Feature", "properties": {}, "geometry": {"type": "Point", "coordinates": [14.257028303726202, 40.88898121442208]}}], "price": 2.09, "ultima_rilevazione": "04/07/2022 08:10:46"}, {"Gestore": "VERDE RAFFAELE", "Bandiera": "Esso", "Tipo impianto": "Altro", "Indirizzo": "strada s. michele  140 81031", "Nome impianto": "ESSO VERDE GAS", "Comune": "AVERSA", "idImpianto": 48944, "points": [{"type": "Feature", "properties": {}, "geometry": {"type": "Point", "coordinates": [14.215788924536898, 40.96542820140151]}}], "price": 2.049, "ultima_rilevazione": "04/07/2022 09:21:12"}, {"Gestore": "EASY SERVICE S.R.L.", "Bandiera": "Energas", "Tipo impianto": "Altro", "Indirizzo": "Via Oasi Sacro Cuore snc 80014", "Nome impianto": "Giugliano ", "Comune": "GIUGLIANO IN CAMPANIA", "idImpianto": 29162, "points": [{"type": "Feature", "properties": {}, "geometry": {"type": "Point", "coordinates": [14.2082579433918, 40.946363381327735]}}], "price": 1.989, "ultima_rilevazione": "04/07/2022 12:16:12"}, {"Gestore": "RAN S.R.L.", "Bandiera": "AP Stazioni di Servizio", "Tipo impianto": "Altro", "Indirizzo": "VIA A. GRAMSCI SNC 81031", "Nome impianto": "RAN S.R.L.", "Comune": "AVERSA", "idImpianto": 28508, "points": [{"type": "Feature", "properties": {}, "geometry": {"type": "Point", "coordinates": [14.212466329336166, 40.95391725708272]}}], "price": 2.069, "ultima_rilevazione": "04/07/2022 17:02:09"}, {"Gestore": "AP GESTIONE QUATTRO S.R.L.", "Bandiera": "AP Stazioni di Servizio", "Tipo impianto": "Altro", "Indirizzo": "VIA AVERSA 103 81030", "Nome impianto": "AP GESTIONE QUATTRO SRL", "Comune": "GRICIGNANO DI AVERSA", "idImpianto": 23226, "points": [{"type": "Feature", "properties": {}, "geometry": {"type": "Point", "coordinates": [14.226364766088636, 40.97959522519232]}}], "price": 2.059, "ultima_rilevazione": "04/07/2022 17:04:58"}, {"Gestore": "GRICIOIL S.R.L.", "Bandiera": "Agip Eni", "Tipo impianto": "Altro", "Indirizzo": "VIA BOSCARIELLO SNC 81030", "Nome impianto": "ENI SPA", "Comune": "GRICIGNANO DI AVERSA", "idImpianto": 35485, "points": [{"type": "Feature", "properties": {}, "geometry": {"type": "Point", "coordinates": [14.236886657702598, 40.98593591937014]}}], "price": 2.043, "ultima_rilevazione": "05/07/2022 14:00:29"}, {"Gestore": "IP PETROLI SOCIETA' A RESPONSABILITA' LIMITATA SEMPLIFICATA", "Bandiera": "Pompe Bianche", "Tipo impianto": "Altro", "Indirizzo": "VIA DANTE ALIGHIERI SNC 80029", "Nome impianto": "GT PETROLI", "Comune": "SANT'ANTIMO", "idImpianto": 47663, "points": [{"type": "Feature", "properties": {}, "geometry": {"type": "Point", "coordinates": [14.225222635581956, 40.935021157700255]}}], "price": 1.999, "ultima_rilevazione": "06/07/2022 10:32:35"}, {"Gestore": "PENTA PETROLI SRL", "Bandiera": "Pompe Bianche", "Tipo impianto": "Altro", "Indirizzo": "VIA CASERTA AL BRAVO 83 80144", "Nome impianto": "EWA CAPODICHINO", "Comune": "NAPOLI", "idImpianto": 29982, "points": [{"type": "Feature", "properties": {}, "geometry": {"type": "Point", "coordinates": [14.27830584347248, 40.88991247146935]}}], "price": 2.039, "ultima_rilevazione": "06/07/2022 10:39:48"}, {"Gestore": "STAZIONE LE MONDE S.R.L.", "Bandiera": "Esso", "Tipo impianto": "Altro", "Indirizzo": "S.S. 7 bis Nola-Villa Literno km. 15+900  81030", "Nome impianto": "Stazione le Monde", "Comune": "SUCCIVO", "idImpianto": 37893, "points": [{"type": "Feature", "properties": {}, "geometry": {"type": "Point", "coordinates": [14.251082986702386, 40.98579470382172]}}], "price": 1.999, "ultima_rilevazione": "06/07/2022 10:54:15"}, {"Gestore": "EASY SERVICE S.R.L.", "Bandiera": "Energas", "Tipo impianto": "Altro", "Indirizzo": "Via Janfolla 316 80100", "Nome impianto": "Easy Service Via Janfolla", "Comune": "NAPOLI", "idImpianto": 38607, "points": [{"type": "Feature", "properties": {}, "geometry": {"type": "Point", "coordinates": [14.238584339618685, 40.88518282183775]}}], "price": 2.059, "ultima_rilevazione": "06/07/2022 14:51:52"}, {"Gestore": "A. SERVIZI S.R.L.", "Bandiera": "Pompe Bianche", "Tipo impianto": "Altro", "Indirizzo": "Viale Umberto Maddalena 180 80143", "Nome impianto": "VIALE MADDALENA", "Comune": "NAPOLI", "idImpianto": 35028, "points": [{"type": "Feature", "properties": {}, "geometry": {"type": "Point", "coordinates": [14.27816212560731, 40.875841762819945]}}], "price": 2.029, "ultima_rilevazione": "06/07/2022 17:01:28"}, {"Gestore": "EDIL GA S.R.L.", "Bandiera": "Pit stop", "Tipo impianto": "Altro", "Indirizzo": "Via Appia Km 19,800 SNC 80014", "Nome impianto": "Pit Stop", "Comune": "GIUGLIANO IN CAMPANIA", "idImpianto": 50261, "points": [{"type": "Feature", "properties": {}, "geometry": {"type": "Point", "coordinates": [14.22273993492126, 40.93326097817131]}}], "price": 1.979, "ultima_rilevazione": "06/07/2022 18:33:40"}, {"Gestore": "SARNI S.R.L.", "Bandiera": "Q8", "Tipo impianto": "Autostradale", "Indirizzo": "Autostrada A1 MILANO-NAPOLI, Km. 754+000, dir. Nord 80026", "Nome impianto": "MASSERIA EST", "Comune": "CASORIA", "idImpianto": 3515, "points": [{"type": "Feature", "properties": {}, "geometry": {"type": "Point", "coordinates": [14.318506530094282, 40.89188839734464]}}], "price": 2.159, "ultima_rilevazione": "07/07/2022 06:30:05"}, {"Gestore": "SARNI S.R.L.", "Bandiera": "Q8", "Tipo impianto": "Autostradale", "Indirizzo": "Autostrada A1 MILANO-NAPOLI Ramo Capodichino, Km. 1+600, dir. Tangenzial 80144", "Nome impianto": "S.PIETRO", "Comune": "NAPOLI", "idImpianto": 3513, "points": [{"type": "Feature", "properties": {}, "geometry": {"type": "Point", "coordinates": [14.29818723411563, 40.88415920489065]}}], "price": 2.159, "ultima_rilevazione": "07/07/2022 07:00:05"}, {"Gestore": "MALFITANO ROSSANA", "Bandiera": "Api-Ip", "Tipo impianto": "Altro", "Indirizzo": "VIA MIANO SNC 80145", "Nome impianto": "ITALIANA PETROLI   IP ", "Comune": "NAPOLI", "idImpianto": 49095, "points": [{"type": "Feature", "properties": {}, "geometry": {"type": "Point", "coordinates": [14.248791111663536, 40.87976462583335]}}], "price": 1.989, "ultima_rilevazione": "07/07/2022 15:11:18"}, {"Gestore": "FERRARIO GROUP S.A.S. DI FERRARIO FABRIZIO & C.", "Bandiera": "Esso", "Tipo impianto": "Altro", "Indirizzo": "VIA CIRCUMVALLAZIONE ESTERNA 60 80017", "Nome impianto": "ESSO", "Comune": "MELITO DI NAPOLI", "idImpianto": 31920, "points": [{"type": "Feature", "properties": {}, "geometry": {"type": "Point", "coordinates": [14.229415208101273, 40.90983519430475]}}], "price": 1.989, "ultima_rilevazione": "07/07/2022 15:11:38"}, {"Gestore": "BO.GA. PETROLI S.R.L.", "Bandiera": "Api-Ip", "Tipo impianto": "Strada Statale", "Indirizzo": "Statale 162 dir del Centro Direzionale, Km. 14, dir. SUD 80014", "Nome impianto": "BO.GA PETROLI", "Comune": "GIUGLIANO IN CAMPANIA", "idImpianto": 13558, "points": [{"type": "Feature", "properties": {}, "geometry": {"type": "Point", "coordinates": [14.213653206825256, 40.93626311965497]}}], "price": 1.978, "ultima_rilevazione": "07/07/2022 16:48:17"}, {"Gestore": "ALBOREA S.R.L.", "Bandiera": "Agip Eni", "Tipo impianto": "Autostradale", "Indirizzo": "TANG.LE DI NAPOLI, Km. 19,4, OVEST ", "Nome impianto": "DOGANELLA OVEST", "Comune": "NAPOLI", "idImpianto": 50584, "points": [{"type": "Feature", "properties": {}, "geometry": {"type": "Point", "coordinates": [14.278909115960005, 40.87269129600387]}}], "price": 2.154, "ultima_rilevazione": "07/07/2022 17:10:21"}, {"Gestore": "PECOVELA TIZIANA", "Bandiera": "Pompe Bianche", "Tipo impianto": "Altro", "Indirizzo": "VIA ATELLANA 20 81030", "Nome impianto": "Q8", "Comune": "CESA", "idImpianto": 32615, "points": [{"type": "Feature", "properties": {}, "geometry": {"type": "Point", "coordinates": [14.230997069450382, 40.968388174370354]}}], "price": 1.969, "ultima_rilevazione": "07/07/2022 18:25:32"}, {"Gestore": "FADDIMM  S.R.L.", "Bandiera": "Repsol", "Tipo impianto": "Altro", "Indirizzo": "VIA PROV.CIRCUMVALLAZIONE EST. 6 80017", "Nome impianto": "REPSOL", "Comune": "MELITO DI NAPOLI", "idImpianto": 45655, "points": [{"type": "Feature", "properties": {}, "geometry": {"type": "Point", "coordinates": [14.23086918106037, 40.90966889745]}}], "price": 1.988, "ultima_rilevazione": "07/07/2022 21:44:38"}, {"Gestore": "IP SERVICES S.R.L.", "Bandiera": "Api-Ip", "Tipo impianto": "Altro", "Indirizzo": "Via S.Pertini 62 81031", "Nome impianto": "Aversa", "Comune": "AVERSA", "idImpianto": 27220, "points": [{"type": "Feature", "properties": {}, "geometry": {"type": "Point", "coordinates": [14.215456927647438, 40.96531815662782]}}], "price": 1.969, "ultima_rilevazione": "08/07/2022 09:04:16"}, {"Gestore": "PETROLJ - SOCIETA' A RESPONSABILITA' LIMITATA", "Bandiera": "Esso", "Tipo impianto": "Altro", "Indirizzo": "via Oreste Salomone 38 80144", "Nome impianto": "Esso 6519", "Comune": "NAPOLI", "idImpianto": 33025, "points": [{"type": "Feature", "properties": {}, "geometry": {"type": "Point", "coordinates": [14.284850899475032, 40.87225247686746]}}], "price": 2.019, "ultima_rilevazione": "08/07/2022 09:23:10"}, {"Gestore": "COSSUTIA S.R.L.", "Bandiera": "Q8", "Tipo impianto": "Altro", "Indirizzo": "CORSO UMBERTO I 75 81030", "Nome impianto": "Cossutia srl Distributore Q8", "Comune": "GRICIGNANO DI AVERSA", "idImpianto": 7544, "points": [{"type": "Feature", "properties": {}, "geometry": {"type": "Point", "coordinates": [14.232864528894424, 40.977571411485286]}}], "price": 2.049, "ultima_rilevazione": "08/07/2022 09:28:01"}, {"Gestore": "VITALE GIUSEPPE", "Bandiera": "Tamoil", "Tipo impianto": "Altro", "Indirizzo": "VIA ULDERICO MASONI SNC 80141", "Nome impianto": "Tamoil di Vitale G.ppe", "Comune": "NAPOLI", "idImpianto": 20214, "points": [{"type": "Feature", "properties": {}, "geometry": {"type": "Point", "coordinates": [14.26477633894376, 40.87437238345071]}}], "price": 2.038, "ultima_rilevazione": "09/07/2022 06:54:09"}, {"Gestore": "T.D.M. S.R.L.", "Bandiera": "Tamoil", "Tipo impianto": "Altro", "Indirizzo": "VIALE MADDALENA UMBERTO  80144", "Nome impianto": "8335", "Comune": "NAPOLI", "idImpianto": 46945, "points": [{"type": "Feature", "properties": {}, "geometry": {"type": "Point", "coordinates": [14.281972039881111, 40.87210163102492]}}], "price": 1.979, "ultima_rilevazione": "08/07/2022 11:50:13"}, {"Gestore": "IP SERVICES S.R.L.", "Bandiera": "Api-Ip", "Tipo impianto": "Altro", "Indirizzo": "VIA PIETRO NENNI 33 80018", "Nome impianto": "MUGNANO DI NAPOLI - NENNI", "Comune": "MUGNANO DI NAPOLI", "idImpianto": 30379, "points": [{"type": "Feature", "properties": {}, "geometry": {"type": "Point", "coordinates": [14.215518775463124, 40.915614188149846]}}], "price": 1.989, "ultima_rilevazione": "08/07/2022 12:02:38"}, {"Gestore": "IP SERVICES S.R.L.", "Bandiera": "Api-Ip", "Tipo impianto": "Altro", "Indirizzo": "Via P.Nenni  54 80018", "Nome impianto": "Mugnano di Napoli", "Comune": "MUGNANO DI NAPOLI", "idImpianto": 5955, "points": [{"type": "Feature", "properties": {}, "geometry": {"type": "Point", "coordinates": [14.222520589828491, 40.91201991863902]}}], "price": 1.989, "ultima_rilevazione": "08/07/2022 12:03:47"}, {"Gestore": "SANTANGELO CARBURANTI DI SANTANGELO PASQUALE", "Bandiera": "Q8", "Tipo impianto": "Altro", "Indirizzo": "VIA DEL CASSANO 181-ABC, 80144", "Nome impianto": "santangelo carburanti", "Comune": "NAPOLI", "idImpianto": 18622, "points": [{"type": "Feature", "properties": {}, "geometry": {"type": "Point", "coordinates": [14.26982154106986, 40.88963560826791]}}], "price": 2.045, "ultima_rilevazione": "08/07/2022 13:28:13"}, {"Gestore": "ZUPPA RAFFAELE", "Bandiera": "Tamoil", "Tipo impianto": "Altro", "Indirizzo": "VIA VITO DI IASI  81031", "Nome impianto": "Tamoil di Zuppa Raffaele", "Comune": "AVERSA", "idImpianto": 20813, "points": [{"type": "Feature", "properties": {}, "geometry": {"type": "Point", "coordinates": [14.207936161406336, 40.96344552470608]}}], "price": 1.959, "ultima_rilevazione": "09/07/2022 07:42:04"}, {"Gestore": "APPIA STORE S.R.L.", "Bandiera": "CONAD", "Tipo impianto": "Altro", "Indirizzo": "VIA APPIA KM 18,700 SNC 80014", "Nome impianto": "CONAD SUPERMERCATO", "Comune": "GIUGLIANO IN CAMPANIA", "idImpianto": 22265, "points": [{"type": "Feature", "properties": {}, "geometry": {"type": "Point", "coordinates": [14.216533899307253, 40.94266533861124]}}], "price": 1.899, "ultima_rilevazione": "08/07/2022 15:09:57"}, {"Gestore": "EASY SERVICE S.R.L.", "Bandiera": "Energas", "Tipo impianto": "Altro", "Indirizzo": "Via Vecchia Nazionale delle Puglie SNC 80013", "Nome impianto": "Easy Service Casalnuovo Meridiana", "Comune": "CASALNUOVO DI NAPOLI", "idImpianto": 38747, "points": [{"type": "Feature", "properties": {}, "geometry": {"type": "Point", "coordinates": [14.337139427661896, 40.90041641829387]}}], "price": 1.986, "ultima_rilevazione": "08/07/2022 15:34:37"}, {"Gestore": "QUOTIDIANO EMANUELE", "Bandiera": "Agip Eni", "Tipo impianto": "Altro", "Indirizzo": "via miano 151 80145", "Nome impianto": "quotidiano emanuele", "Comune": "NAPOLI", "idImpianto": 44235, "points": [{"type": "Feature", "properties": {}, "geometry": {"type": "Point", "coordinates": [14.250550000123, 40.888578000123]}}], "price": 1.979, "ultima_rilevazione": "08/07/2022 17:27:31"}, {"Gestore": "EUROCARB S.R.L.", "Bandiera": "Esso", "Tipo impianto": "Altro", "Indirizzo": "Via Nazionale delle Puglie km 34+923  80026", "Nome impianto": "Eurocarb srl", "Comune": "CASORIA", "idImpianto": 35061, "points": [{"type": "Feature", "properties": {}, "geometry": {"type": "Point", "coordinates": [14.329589009284971, 40.8965886816468]}}], "price": 1.956, "ultima_rilevazione": "08/07/2022 17:30:31"}, {"Gestore": "CAR.IO S.R.L.", "Bandiera": "Q8", "Tipo impianto": "Altro", "Indirizzo": "VIA DELLE PUGLIE 176/A 80026", "Nome impianto": "BENZINA - GASOLIO - HIQ CASORIA", "Comune": "CASORIA", "idImpianto": 29071, "points": [{"type": "Feature", "properties": {}, "geometry": {"type": "Point", "coordinates": [14.31901598762738, 40.883618858465454]}}], "price": 1.989, "ultima_rilevazione": "08/07/2022 18:48:10"}, {"Gestore": "ROTI S.A.S. DI IORIO GIOVANNI & C.", "Bandiera": "Pompe Bianche", "Tipo impianto": "Altro", "Indirizzo": "VIA DETTA NUOVA CASORIA SNC 80144", "Nome impianto": "ROTI FUEL", "Comune": "NAPOLI", "idImpianto": 49343, "points": [{"type": "Feature", "properties": {}, "geometry": {"type": "Point", "coordinates": [14.306723540811822, 40.88122260177593]}}], "price": 1.959, "ultima_rilevazione": "08/07/2022 20:22:51"}, {"Gestore": "ESPOSITO ANTONIO", "Bandiera": "Agip Eni", "Tipo impianto": "Altro", "Indirizzo": "Via Miano (fronte caserma Caretto)  80145", "Nome impianto": "AGIP", "Comune": "NAPOLI", "idImpianto": 13181, "points": [{"type": "Feature", "properties": {}, "geometry": {"type": "Point", "coordinates": [14.255109196505371, 40.89514532961387]}}], "price": 1.984, "ultima_rilevazione": "08/07/2022 21:47:36"}, {"Gestore": "C.M.PETROLIO S.R.L.", "Bandiera": "Pompe Bianche", "Tipo impianto": "Altro", "Indirizzo": "corso europa snc   ", "Nome impianto": "your fuel", "Comune": "MELITO DI NAPOLI", "idImpianto": 20367, "points": [{"type": "Feature", "properties": {}, "geometry": {"type": "Point", "coordinates": [14.230032744817436, 40.91518496486265]}}], "price": 1.979, "ultima_rilevazione": "08/07/2022 22:56:06"}, {"Gestore": "SERVIZI & GESTIONI ITALIA S.R.L.", "Bandiera": "Q8", "Tipo impianto": "Altro", "Indirizzo": "VIA COLONNE 101 80014", "Nome impianto": "GIUGLIANO IN CAMPANIA-VIA COLONNE 101", "Comune": "GIUGLIANO IN CAMPANIA", "idImpianto": 11727, "points": [{"type": "Feature", "properties": {}, "geometry": {"type": "Point", "coordinates": [14.211885423278773, 40.92848955674073]}}], "price": 1.999, "ultima_rilevazione": "09/07/2022 00:34:48"}, {"Gestore": "GESTIONE ITALIA SOCIETA' A RESPONSABILITA' LIMITATA", "Bandiera": "ALIFUEL", "Tipo impianto": "Strada Statale", "Indirizzo": "7 Via Appia, Km. 20,500, Aversa 80029", "Nome impianto": "ALI FUEL - SANT'ANTIMO", "Comune": "SANT'ANTIMO", "idImpianto": 41171, "points": [{"type": "Feature", "properties": {}, "geometry": {"type": "Point", "coordinates": [14.224498718976974, 40.93083661242735]}}], "price": 1.949, "ultima_rilevazione": "09/07/2022 00:54:04"}, {"Gestore": "G.I.C.A. DI LA ROCCA GAETANO &  C. - S.N.C.", "Bandiera": "Esso", "Tipo impianto": "Altro", "Indirizzo": "S.S. 7 bis Km 18+188  80014", "Nome impianto": "ESSO \"on the run caf\u00e8\"", "Comune": "GIUGLIANO IN CAMPANIA", "idImpianto": 13437, "points": [{"type": "Feature", "properties": {}, "geometry": {"type": "Point", "coordinates": [14.215379369641823, 40.947283654622]}}], "price": 1.979, "ultima_rilevazione": "09/07/2022 07:07:12"}]}, "null": {}, "GPL": {"1": [{"Gestore": "SERVIZI & GESTIONI ITALIA S.R.L.", "Bandiera": "Q8", "Tipo impianto": "Altro", "Indirizzo": "EX SS 87 DIREZIONE CE  80027", "Nome impianto": "FRATTAMAGGIORE EX SS 87 DIREZIONE CE", "Comune": "FRATTAMAGGIORE", "idImpianto": 35900, "points": [{"type": "Feature", "properties": {}, "geometry": {"type": "Point", "coordinates": [14.283426851034164, 40.926981859975164]}}], "price": 0.839, "ultima_rilevazione": "04/07/2022 00:36:07"}, {"Gestore": "CARBURANTI DI MARIO FEBBRARO", "Bandiera": "Q8", "Tipo impianto": "Altro", "Indirizzo": "via ex s.s. 87 Sannitica km 5+30  snc 80027", "Nome impianto": "GP CARBURANTI", "Comune": "FRATTAMAGGIORE", "idImpianto": 46264, "points": [{"type": "Feature", "properties": {}, "geometry": {"type": "Point", "coordinates": [14.283864457242087, 40.92637677035637]}}], "price": 0.769, "ultima_rilevazione": "06/07/2022 10:31:28"}, {"Gestore": "VELAR S.R.L.", "Bandiera": "Oceania", "Tipo impianto": "Altro", "Indirizzo": "VIA PIETRO NENNI SNC 80026", "Nome impianto": "OCEANIA (CASORIA)", "Comune": "CASORIA", "idImpianto": 46730, "points": [{"type": "Feature", "properties": {}, "geometry": {"type": "Point", "coordinates": [14.287055748886928, 40.91233049813255]}}], "price": 0.769, "ultima_rilevazione": "07/07/2022 08:34:34"}, {"Gestore": "EURO CARBURANTI S.A.S DI SALZANO FRANCESCO E C.", "Bandiera": "Pompe Bianche", "Tipo impianto": "Altro", "Indirizzo": "CORSO ITALIA ANG. VIA PALERMO SNC 80024", "Nome impianto": "EURO CARBURANTI", "Comune": "CARDITO", "idImpianto": 44197, "points": [{"type": "Feature", "properties": {}, "geometry": {"type": "Point", "coordinates": [14.293399, 40.929749]}}], "price": 0.769, "ultima_rilevazione": "07/07/2022 14:50:12"}, {"Gestore": "ANGECRI DEI FRATELLI LA CAVA DI ROMANO CONCETTA S.A.S.", "Bandiera": "Pompe Bianche", "Tipo impianto": "Altro", "Indirizzo": "VIA A. PECCHIA SNC 80022", "Nome impianto": "La Cava Carburanti", "Comune": "ARZANO", "idImpianto": 36774, "points": [{"type": "Feature", "properties": {}, "geometry": {"type": "Point", "coordinates": [14.266434608320653, 40.91956172977312]}}], "price": 0.77, "ultima_rilevazione": "08/07/2022 06:56:47"}, {"Gestore": "VESUVIO GAS S.R.L.", "Bandiera": "Pompe Bianche", "Tipo impianto": "Altro", "Indirizzo": "VIA CUPA POMIGLIANO S.N.C. 80027", "Nome impianto": "VESUVIOGAS SRL", "Comune": "FRATTAMAGGIORE", "idImpianto": 16956, "points": [{"type": "Feature", "properties": {}, "geometry": {"type": "Point", "coordinates": [14.267773479223251, 40.95377120368689]}}], "price": 0.769, "ultima_rilevazione": "08/07/2022 07:44:31"}, {"Gestore": "MERLINO GAS S.R.L.", "Bandiera": "Pompe Bianche", "Tipo impianto": "Altro", "Indirizzo": "VIA GALILEI SNC 80028", "Nome impianto": "MERLINO CARBURANTI", "Comune": "GRUMO NEVANO", "idImpianto": 42363, "points": [{"type": "Feature", "properties": {}, "geometry": {"type": "Point", "coordinates": [14.25924780185244, 40.92860548617181]}}], "price": 0.769, "ultima_rilevazione": "08/07/2022 12:00:53"}], "3": [{"Gestore": "SARRACINO PETROLI S.A.S. DI SARRACINO ANTONIO", "Bandiera": "Api-Ip", "Tipo impianto": "Strada Statale", "Indirizzo": "7 bis di Terra di Lavoro, Km. 15+35, direziona nola 81030", "Nome impianto": "TOTAL ERG SARRACINO PETROLI", "Comune": "ORTA DI ATELLA", "idImpianto": 32544, "points": [{"type": "Feature", "properties": {}, "geometry": {"type": "Point", "coordinates": [14.276027977466583, 40.97506646673391]}}], "price": 0.849, "ultima_rilevazione": "22/03/2022 17:55:51"}, {"Gestore": "PIT -  STOP CARBURANTE S.A.S. DI ASCIONE LUCIA & C.", "Bandiera": "Pompe Bianche", "Tipo impianto": "Altro", "Indirizzo": "via paolo borsellino 200 80025", "Nome impianto": "pit stop carburante sas", "Comune": "CASANDRINO", "idImpianto": 15902, "points": [{"type": "Feature", "properties": {}, "geometry": {"type": "Point", "coordinates": [14.250720124606346, 40.9177032983733]}}], "price": 0.799, "ultima_rilevazione": "28/06/2022 17:00:47"}, {"Gestore": "SANNINO PETROLI S.R.L.", "Bandiera": "Pompe Bianche", "Tipo impianto": "Altro", "Indirizzo": "corso michelangelo  snc 80029", "Nome impianto": "sannino petroli", "Comune": "SANT'ANTIMO", "idImpianto": 51074, "points": [{"type": "Feature", "properties": {}, "geometry": {"type": "Point", "coordinates": [14.232742310660308, 40.95471832145436]}}], "price": 0.769, "ultima_rilevazione": "04/07/2022 09:29:26"}, {"Gestore": "BRP S.A.S. DI BAFFICO NICOLA E BAFFICO SALVATORE & C.", "Bandiera": "Pompe Bianche", "Tipo impianto": "Altro", "Indirizzo": "Via Astragata SNC, Succivo, Caserta, Italy  81030", "Nome impianto": "BRP", "Comune": "SUCCIVO", "idImpianto": 15401, "points": [{"type": "Feature", "properties": {}, "geometry": {"type": "Point", "coordinates": [14.261425188946532, 40.97552048616645]}}], "price": 0.769, "ultima_rilevazione": "07/07/2022 06:28:50"}, {"Gestore": "CARBURANTI S.N.C. DI GIORGIO VARRIALE", "Bandiera": "Q8", "Tipo impianto": "Altro", "Indirizzo": "VIA CIRCUMVALLAZIONE ESTERNA 31 80144", "Nome impianto": "CARBURANTI S.N.C. DI GIORGIO VARRIALE", "Comune": "NAPOLI", "idImpianto": 33636, "points": [{"type": "Feature", "properties": {}, "geometry": {"type": "Point", "coordinates": [14.266694063337695, 40.900292927556215]}}], "price": 0.795, "ultima_rilevazione": "07/07/2022 10:16:10"}, {"Gestore": "M.E. S.R.L.", "Bandiera": "Esso", "Tipo impianto": "Altro", "Indirizzo": "VIA COM.LE VIOTTOLO DEI SERPI SNC 80021", "Nome impianto": "ESSO", "Comune": "AFRAGOLA", "idImpianto": 44496, "points": [{"type": "Feature", "properties": {}, "geometry": {"type": "Point", "coordinates": [14.303855895996094, 40.9447120213266]}}], "price": 0.769, "ultima_rilevazione": "07/07/2022 13:27:20"}, {"Gestore": "DEL VECCHIO PETROLI S.A.S. DI DEL VECCHIO ARMANDO", "Bandiera": "Pompe Bianche", "Tipo impianto": "Altro", "Indirizzo": "via Boccaccio snc 80026", "Nome impianto": "drpetroli", "Comune": "CASORIA", "idImpianto": 36891, "points": [{"type": "Feature", "properties": {}, "geometry": {"type": "Point", "coordinates": [14.30610090494156, 40.90490926592658]}}], "price": 0.769, "ultima_rilevazione": "07/07/2022 14:05:38"}, {"Gestore": "MANZONI S.A.S DI MANZONI SALVATORE", "Bandiera": "Agip Eni", "Tipo impianto": "Altro", "Indirizzo": "VIA PAOLO BORSELLINO 129 80025", "Nome impianto": "ENI MANZONI SAS DI MANZONI SALVATORE", "Comune": "CASANDRINO", "idImpianto": 13940, "points": [{"type": "Feature", "properties": {}, "geometry": {"type": "Point", "coordinates": [14.248971864581108, 40.922293519724015]}}], "price": 0.769, "ultima_rilevazione": "08/07/2022 08:07:46"}, {"Gestore": "AREA SERVIZIO SAN MICHELE S.A.S. DI BUGLIONE SALVATORE E C.", "Bandiera": "Esso", "Tipo impianto": "Altro", "Indirizzo": "Via Circumvallazione esterna di Arzano, Km. 20+500  80022", "Nome impianto": "Area Servizio San Michele sas", "Comune": "ARZANO", "idImpianto": 32682, "points": [{"type": "Feature", "properties": {}, "geometry": {"type": "Point", "coordinates": [14.25217106938362, 40.91071817376809]}}], "price": 0.769, "ultima_rilevazione": "08/07/2022 09:13:54"}, {"Gestore": "UNION FUEL S.R.L.", "Bandiera": "Eco Fuel", "Tipo impianto": "Altro", "Indirizzo": "VIA LIMITONE DI ARZANO SNC 80144", "Nome impianto": "Eco Fuel", "Comune": "NAPOLI", "idImpianto": 48487, "points": [{"type": "Feature", "properties": {}, "geometry": {"type": "Point", "coordinates": [14.261631965637202, 40.90213518985369]}}], "price": 0.769, "ultima_rilevazione": "08/07/2022 13:12:38"}, {"Gestore": "START S.R.L.", "Bandiera": "Energas", "Tipo impianto": "Altro", "Indirizzo": "VIA CIRCUMVALLAZIONE ESTERNA 24/26 80026", "Nome impianto": "Energas Spa", "Comune": "CASORIA", "idImpianto": 48033, "points": [{"type": "Feature", "properties": {}, "geometry": {"type": "Point", "coordinates": [14.29590151653291, 40.89587429614623]}}], "price": 0.769, "ultima_rilevazione": "08/07/2022 20:38:33"}, {"Gestore": "TOIL S.P.A.", "Bandiera": "Toil", "Tipo impianto": "Altro", "Indirizzo": "VIA TORIELLO SIPARIELLO SNC 80029", "Nome impianto": "TOIL S.ANTIMO", "Comune": "SANT'ANTIMO", "idImpianto": 35547, "points": [{"type": "Feature", "properties": {}, "geometry": {"type": "Point", "coordinates": [14.24148716032505, 40.95368835219109]}}], "price": 0.769, "ultima_rilevazione": "09/07/2022 00:24:02"}, {"Gestore": "GESTIONE ITALIA SOCIETA' A RESPONSABILITA' LIMITATA", "Bandiera": "ALIFUEL", "Tipo impianto": "Altro", "Indirizzo": "VIA MARTIRI ATELLANI SNC 81030", "Nome impianto": "ALI FUEL - SANT'ARPINO", "Comune": "SANT'ARPINO", "idImpianto": 41326, "points": [{"type": "Feature", "properties": {}, "geometry": {"type": "Point", "coordinates": [14.237398709730089, 40.96636257428471]}}], "price": 0.769, "ultima_rilevazione": "09/07/2022 05:22:06"}], "5": [{"Gestore": "ORO NERO S.R.L.", "Bandiera": "Pompe Bianche", "Tipo impianto": "Altro", "Indirizzo": "VIA SAGGESE SNC 80021", "Nome impianto": "ROIL", "Comune": "AFRAGOLA", "idImpianto": 43367, "points": [{"type": "Feature", "properties": {}, "geometry": {"type": "Point", "coordinates": [14.345534744892618, 40.921300160915735]}}], "price": 0.809, "ultima_rilevazione": "28/06/2022 11:13:05"}, {"Gestore": "A.G. GAS S.R.L.", "Bandiera": "Pompe Bianche", "Tipo impianto": "Altro", "Indirizzo": "VIA PIETRO NENNI 42 80018", "Nome impianto": "MY EN", "Comune": "MUGNANO DI NAPOLI", "idImpianto": 37236, "points": [{"type": "Feature", "properties": {}, "geometry": {"type": "Point", "coordinates": [14.221272692084312, 40.91297421794075]}}], "price": 0.799, "ultima_rilevazione": "01/07/2022 13:50:32"}, {"Gestore": "SARNI S.R.L.", "Bandiera": "Sarni Oil", "Tipo impianto": "Autostradale", "Indirizzo": "A1 MILANO-NAPOLI, Km. 755,700, SUD 80026", "Nome impianto": "CITTADELLA", "Comune": "CASORIA", "idImpianto": 41853, "points": [{"type": "Feature", "properties": {}, "geometry": {"type": "Point", "coordinates": [14.317010790109634, 40.8863581307136]}}], "price": 0.798, "ultima_rilevazione": "04/07/2022 06:30:11"}, {"Gestore": "VERDE RAFFAELE", "Bandiera": "Esso", "Tipo impianto": "Altro", "Indirizzo": "strada s. michele  140 81031", "Nome impianto": "ESSO VERDE GAS", "Comune": "AVERSA", "idImpianto": 48944, "points": [{"type": "Feature", "properties": {}, "geometry": {"type": "Point", "coordinates": [14.215788924536898, 40.96542820140151]}}], "price": 0.769, "ultima_rilevazione": "04/07/2022 09:21:12"}, {"Gestore": "RAN S.R.L.", "Bandiera": "AP Stazioni di Servizio", "Tipo impianto": "Altro", "Indirizzo": "VIA A. GRAMSCI SNC 81031", "Nome impianto": "RAN S.R.L.", "Comune": "AVERSA", "idImpianto": 28508, "points": [{"type": "Feature", "properties": {}, "geometry": {"type": "Point", "coordinates": [14.212466329336166, 40.95391725708272]}}], "price": 0.769, "ultima_rilevazione": "04/07/2022 17:02:09"}, {"Gestore": "GRICIOIL S.R.L.", "Bandiera": "Agip Eni", "Tipo impianto": "Altro", "Indirizzo": "VIA BOSCARIELLO SNC 81030", "Nome impianto": "ENI SPA", "Comune": "GRICIGNANO DI AVERSA", "idImpianto": 35485, "points": [{"type": "Feature", "properties": {}, "geometry": {"type": "Point", "coordinates": [14.236886657702598, 40.98593591937014]}}], "price": 0.799, "ultima_rilevazione": "05/07/2022 14:00:29"}, {"Gestore": "IP PETROLI SOCIETA' A RESPONSABILITA' LIMITATA SEMPLIFICATA", "Bandiera": "Pompe Bianche", "Tipo impianto": "Altro", "Indirizzo": "VIA DANTE ALIGHIERI SNC 80029", "Nome impianto": "GT PETROLI", "Comune": "SANT'ANTIMO", "idImpianto": 47663, "points": [{"type": "Feature", "properties": {}, "geometry": {"type": "Point", "coordinates": [14.225222635581956, 40.935021157700255]}}], "price": 0.769, "ultima_rilevazione": "06/07/2022 10:32:35"}, {"Gestore": "STAZIONE LE MONDE S.R.L.", "Bandiera": "Esso", "Tipo impianto": "Altro", "Indirizzo": "S.S. 7 bis Nola-Villa Literno km. 15+900  81030", "Nome impianto": "Stazione le Monde", "Comune": "SUCCIVO", "idImpianto": 37893, "points": [{"type": "Feature", "properties": {}, "geometry": {"type": "Point", "coordinates": [14.251082986702386, 40.98579470382172]}}], "price": 0.769, "ultima_rilevazione": "06/07/2022 10:54:15"}, {"Gestore": "EASY SERVICE S.R.L.", "Bandiera": "Energas", "Tipo impianto": "Altro", "Indirizzo": "Via Janfolla 316 80100", "Nome impianto": "Easy Service Via Janfolla", "Comune": "NAPOLI", "idImpianto": 38607, "points": [{"type": "Feature", "properties": {}, "geometry": {"type": "Point", "coordinates": [14.238584339618685, 40.88518282183775]}}], "price": 0.799, "ultima_rilevazione": "06/07/2022 14:51:52"}, {"Gestore": "EDIL GA S.R.L.", "Bandiera": "Pit stop", "Tipo impianto": "Altro", "Indirizzo": "Via Appia Km 19,800 SNC 80014", "Nome impianto": "Pit Stop", "Comune": "GIUGLIANO IN CAMPANIA", "idImpianto": 50261, "points": [{"type": "Feature", "properties": {}, "geometry": {"type": "Point", "coordinates": [14.22273993492126, 40.93326097817131]}}], "price": 0.769, "ultima_rilevazione": "06/07/2022 18:33:40"}, {"Gestore": "EASY SERVICE S.R.L.", "Bandiera": "Energas", "Tipo impianto": "Altro", "Indirizzo": "S.P. Orta di Atella - Marcianise S.N.C.  81030", "Nome impianto": "Easy Service Orta di Atella ", "Comune": "ORTA DI ATELLA", "idImpianto": 39278, "points": [{"type": "Feature", "properties": {}, "geometry": {"type": "Point", "coordinates": [14.281416539695783, 40.99145883361825]}}], "price": 0.769, "ultima_rilevazione": "06/07/2022 18:54:29"}, {"Gestore": "CAR.IO S.R.L.", "Bandiera": "Pompe Bianche", "Tipo impianto": "Altro", "Indirizzo": "VIA DELLE PUGLIE 176/A 80026", "Nome impianto": "METANO / GPL CASORIA", "Comune": "CASORIA", "idImpianto": 5295, "points": [{"type": "Feature", "properties": {}, "geometry": {"type": "Point", "coordinates": [14.31889528822171, 40.883934189888485]}}], "price": 0.779, "ultima_rilevazione": "06/07/2022 19:40:58"}, {"Gestore": "GERVASIO S.R.L.", "Bandiera": "Pompe Bianche", "Tipo impianto": "Altro", "Indirizzo": "VIA PIETRO NENNI 11 80018", "Nome impianto": "GR PETROLI", "Comune": "MUGNANO DI NAPOLI", "idImpianto": 48596, "points": [{"type": "Feature", "properties": {}, "geometry": {"type": "Point", "coordinates": [14.221275689190875, 40.91299329761184]}}], "price": 0.729, "ultima_rilevazione": "07/07/2022 12:02:41"}, {"Gestore": "BO.GA. PETROLI S.R.L.", "Bandiera": "Api-Ip", "Tipo impianto": "Strada Statale", "Indirizzo": "Statale 162 dir del Centro Direzionale, Km. 14, dir. SUD 80014", "Nome impianto": "BO.GA PETROLI", "Comune": "GIUGLIANO IN CAMPANIA", "idImpianto": 13558, "points": [{"type": "Feature", "properties": {}, "geometry": {"type": "Point", "coordinates": [14.213653206825256, 40.93626311965497]}}], "price": 0.768, "ultima_rilevazione": "07/07/2022 16:48:17"}, {"Gestore": "C.L. GAS - S.R.L.", "Bandiera": "Pompe Bianche", "Tipo impianto": "Altro", "Indirizzo": "VIA OASI SACRO CUORE SNC 80014", "Nome impianto": "C.L.Gas Auto", "Comune": "GIUGLIANO IN CAMPANIA", "idImpianto": 16205, "points": [{"type": "Feature", "properties": {}, "geometry": {"type": "Point", "coordinates": [14.213679617435446, 40.94902051546801]}}], "price": 0.769, "ultima_rilevazione": "07/07/2022 22:55:30"}, {"Gestore": "ROTI S.A.S. DI IORIO GIOVANNI & C.", "Bandiera": "Pompe Bianche", "Tipo impianto": "Altro", "Indirizzo": "VIA DETTA NUOVA CASORIA SNC 80144", "Nome impianto": "ROTI FUEL", "Comune": "NAPOLI", "idImpianto": 49343, "points": [{"type": "Feature", "properties": {}, "geometry": {"type": "Point", "coordinates": [14.306723540811822, 40.88122260177593]}}], "price": 0.769, "ultima_rilevazione": "08/07/2022 20:22:51"}, {"Gestore": "C.M.PETROLIO S.R.L.", "Bandiera": "Pompe Bianche", "Tipo impianto": "Altro", "Indirizzo": "corso europa snc   ", "Nome impianto": "your fuel", "Comune": "MELITO DI NAPOLI", "idImpianto": 20367, "points": [{"type": "Feature", "properties": {}, "geometry": {"type": "Point", "coordinates": [14.230032744817436, 40.91518496486265]}}], "price": 0.799, "ultima_rilevazione": "08/07/2022 22:56:06"}, {"Gestore": "GESTIONE ITALIA SOCIETA' A RESPONSABILITA' LIMITATA", "Bandiera": "ALIFUEL", "Tipo impianto": "Strada Statale", "Indirizzo": "7 Via Appia, Km. 20,500, Aversa 80029", "Nome impianto": "ALI FUEL - SANT'ANTIMO", "Comune": "SANT'ANTIMO", "idImpianto": 41171, "points": [{"type": "Feature", "properties": {}, "geometry": {"type": "Point", "coordinates": [14.224498718976974, 40.93083661242735]}}], "price": 0.769, "ultima_rilevazione": "09/07/2022 00:54:04"}]}, "Gasolio": {"1": [{"Gestore": "VITALE ENRICO", "Bandiera": "Pompe Bianche", "Tipo impianto": "Altro", "Indirizzo": "corso cirillo 76 80028", "Nome impianto": "V.E. Carburantii Grumo Nevano", "Comune": "GRUMO NEVANO", "idImpianto": 43978, "points": [{"type": "Feature", "properties": {}, "geometry": {"type": "Point", "coordinates": [14.255795387731496, 40.93667813116261]}}], "price": 1.799, "ultima_rilevazione": "25/03/2022 21:25:11"}, {"Gestore": "EUROPETROL S.A.S. DI FUSCO GERARDO & C.", "Bandiera": "Api-Ip", "Tipo impianto": "Altro", "Indirizzo": "VIA NUOVA BELVEDERE 157 80024", "Nome impianto": "TOTALERG", "Comune": "CARDITO", "idImpianto": 16073, "points": [{"type": "Feature", "properties": {}, "geometry": {"type": "Point", "coordinates": [14.284775984731256, 40.94322867055087]}}], "price": 2.07, "ultima_rilevazione": "08/06/2022 21:14:55"}, {"Gestore": "SERVIZI & GESTIONI ITALIA S.R.L.", "Bandiera": "Q8", "Tipo impianto": "Altro", "Indirizzo": "EX SS 87 DIREZIONE CE  80027", "Nome impianto": "FRATTAMAGGIORE EX SS 87 DIREZIONE CE", "Comune": "FRATTAMAGGIORE", "idImpianto": 35900, "points": [{"type": "Feature", "properties": {},