{"area_comune": "[{\"type\": \"Feature\", \"properties\": {}, \"geometry\": {\"type\": \"Polygon\", \"coordinates\": [[[8.792767907875803, 45.68916853032414], [8.795900942963616, 45.68954048186413], [8.797072479206554, 45.689520374481766], [8.800702311484917, 45.68819473458466], [8.801020656606815, 45.68770687331837], [8.800755250429031, 45.686662997314876], [8.801501672843603, 45.68597607962724], [8.80533717744637, 45.68458959520027], [8.806610769132122, 45.68456619122545], [8.806512836539627, 45.68048936225361], [8.808115888251779, 45.67513756143681], [8.81954503829907, 45.65845408080032], [8.82697200931249, 45.64704858719133], [8.832237361168772, 45.64078751996919], [8.829812642849703, 45.64063992980383], [8.828786983868076, 45.64035938424887], [8.825212619913932, 45.63853574694001], [8.819153811138339, 45.63134361866124], [8.813628360879761, 45.63398998821324], [8.808193651673175, 45.63621320833124], [8.803174683950447, 45.63684373424023], [8.797736017243823, 45.63997552890292], [8.78725398407083, 45.63964145608354], [8.783858529745723, 45.64067835701995], [8.782549807907479, 45.64160747976574], [8.781741297555131, 45.64297987587972], [8.780665544855372, 45.652063666152856], [8.775515219597812, 45.65565809067522], [8.770756037122375, 45.65739925361726], [8.764075215819556, 45.66030196928366], [8.764751700036419, 45.6623967659946], [8.761884357786176, 45.668584460451584], [8.75485896309903, 45.675177581864965], [8.75398316301184, 45.67576813768335], [8.755472798680117, 45.67739930111278], [8.762508319682532, 45.68346716712553], [8.763066132297878, 45.68517848419455], [8.777071765650751, 45.68899599220037], [8.77865240384906, 45.68874704112881], [8.78190059703001, 45.68878928963588], [8.788032934169578, 45.68963161435802], [8.792767907875803, 45.68916853032414]]]}}]", "comune": "gallarate", "buffer_1": "[{\"type\": \"Feature\", \"properties\": {}, \"geometry\": {\"type\": \"Polygon\", \"coordinates\": [[[8.790352291305016, 45.698008704474326], [8.791692127659264, 45.6981377021765], [8.793043895828742, 45.69816725249139], [8.79439260303034, 45.69809702765825], [8.795723290475848, 45.697927806541195], [8.79702119951855, 45.6976614659789], [8.79827193556444, 45.697300959939824], [8.812116356024957, 45.69269796296324], [8.81316201462217, 45.692307824488324], [8.81415191729703, 45.69185181866706], [8.815077640795169, 45.691333826381445], [8.815931308695184, 45.690758255943685], [8.816705658451777, 45.6901300055382], [8.817394103186473, 45.689454421494645], [8.817990787700104, 45.68873725274921], [8.818490638231305, 45.68798460188309], [8.844109547955167, 45.644203282121325], [8.844524210241046, 45.64338317830372], [8.844824025348823, 45.6425388206966], [8.845006196139678, 45.641678101464954], [8.8450690253732, 45.64080906534399], [8.845011931371673, 45.6399398344331], [8.844835453250628, 45.639078532280266], [8.844541245674383, 45.63823320796686], [8.844132063193305, 45.637411760902], [8.843611734316573, 45.63662186702854], [8.842985125569573, 45.63587090712941], [8.842258095877872, 45.63516589790214], [8.841437441709106, 45.6345134264443], [8.828353800233002, 45.625070568234385], [8.827447526464566, 45.624476652347354], [8.826463776240399, 45.623946903262954], [8.825411741283542, 45.62348626962556], [8.824301250435703, 45.62309905432465], [8.823142677897152, 45.62278887434873], [8.821946846404218, 45.622558627041975], [8.8207249262445, 45.62241046307644], [8.819488331047834, 45.622345766390914], [8.818248611320202, 45.62236514128232], [8.817017346708289, 45.62246840676953], [8.815806037993891, 45.622654598281756], [8.814625999819786, 45.622921976655846], [8.779335263073383, 45.63225533839759], [8.778204529797389, 45.632598497358444], [8.777125909926198, 45.63301615162187], [8.776109346549758, 45.63350445157152], [8.775164211461792, 45.63405889632867], [8.774299218814964, 45.6346743751905], [8.773522344803329, 45.635345214687824], [8.772840754111355, 45.636065230831065], [8.742960982205942, 45.67115214916999], [8.742389170868433, 45.671901290673254], [8.741920651580555, 45.672684892136864], [8.741559602904509, 45.673495972221836], [8.741309246368669, 45.67432730447114], [8.741171817609866, 45.67517148166772], [8.74114854628383, 45.676020981813394], [8.74123964492874, 45.6768682351423], [8.741444306887496, 45.67770569157157], [8.741760713313758, 45.67852588798891], [8.742186049205792, 45.67932151477673], [8.742716528331458, 45.680085480979606], [8.743347426827878, 45.68081097753291], [8.752429421776359, 45.69022215927244], [8.753186959561905, 45.690929439463524], [8.754039899350131, 45.691581198800904], [8.754980007445903, 45.692171143232166], [8.755998207491936, 45.69269357546374], [8.757084668115224, 45.69314345003964], [8.758228897905589, 45.69351642212455], [8.759419846806871, 45.69380888951721], [8.76064601293776, 45.69401802748573], [8.790352291305016, 45.698008704474326]]]}}]", "buffer_3": "[{\"type\": \"Feature\", \"properties\": {}, \"geometry\": {\"type\": \"Polygon\", \"coordinates\": [[[8.785518759004772, 45.71568885426098], [8.789539519690733, 45.716075971273604], [8.793596122199027, 45.7161646526029], [8.797643530714474, 45.715953913620794], [8.8016368118983, 45.71544609377651], [8.8055316358539, 45.71464683051907], [8.809284770252235, 45.71356499645527], [8.823132309963688, 45.70896068272007], [8.826269923808725, 45.70778994030412], [8.829240085738364, 45.70642156064954], [8.832017510584263, 45.70486719871836], [8.83457856046511, 45.70314009253916], [8.83690144620707, 45.70125495008736], [8.838966412765949, 45.699227823647874], [8.840755907071774, 45.69707597274654], [8.84225472687561, 45.694817716833484], [8.867858257814946, 45.65103110378769], [8.869101321050207, 45.64857053080938], [8.86999971558715, 45.646037262921936], [8.870545089234467, 45.64345498388557], [8.870732392763276, 45.640847832418814], [8.870559925313385, 45.63824017641322], [8.870029348436738, 45.6356563851287], [8.869145668715984, 45.63312060150101], [8.867917189189667, 45.63065651668676], [8.866355430104342, 45.6282871489465], [8.864475019795586, 45.62603462892076], [8.862293556771498, 45.62391999329139], [8.859831444332178, 45.62196298873742], [8.846747623112789, 45.61252221607697], [8.844028880817172, 45.6107408805934], [8.841077935601303, 45.60915203270862], [8.837922351223064, 45.60777050348121], [8.83459159479164, 45.606609187738336], [8.831116762211751, 45.60567892415234], [8.827530288710864, 45.604988394467526], [8.82386564711286, 45.604544042799205], [8.820157036626455, 45.604350015743755], [8.816439064997539, 45.60440812384679], [8.81274642693102, 45.60471782478161], [8.809113581719318, 45.605276228391574], [8.805574433021505, 45.60607812354989], [8.770292781522299, 45.61540873433476], [8.766901393086892, 45.61643791371312], [8.763666166078892, 45.617690530511304], [8.760616906491858, 45.619155048593065], [8.75778171385185, 45.620817979351735], [8.755186722767295, 45.62266400551001], [8.752855862267284, 45.62467612174896], [8.750810635135233, 45.62683579089149], [8.72092206614406, 45.66191698347716], [8.719205989720594, 45.6641640703064], [8.717799618585193, 45.666514584648766], [8.716715517302747, 45.668947592805715], [8.715963384392953, 45.67144142366776], [8.715549964553427, 45.673973861493614], [8.715478987049396, 45.676522343636016], [8.715751130872508, 45.67906416146129], [8.716364017036327, 45.68157666267695], [8.717312228135992, 45.684037453265525], [8.718587355056112, 45.6864245972225], [8.72017807046657, 45.688716812311796], [8.722070228502583, 45.69089366008468], [8.731150271159946, 45.70030651219635], [8.733422541845952, 45.70242875620225], [8.735981252548575, 45.704384453367254], [8.738801706411957, 45.70615470537305], [8.74185666940468, 45.70772240419093], [8.745116633447328, 45.70907239794191], [8.748550101884412, 45.71019163784489], [8.752123894521633, 45.71106930480835], [8.75580346924629, 45.71169691441911], [8.785518759004772, 45.71568885426098]]]}}]", "buffer_5": "[{\"type\": \"Feature\", \"properties\": {}, \"geometry\": {\"type\": \"Polygon\", \"coordinates\": [[[8.78068215764432, 45.73336873905018], [8.787385513374266, 45.73401414083173], [8.794148682931203, 45.734161993747236], [8.800896510644124, 45.73381065450005], [8.807554012459553, 45.73296402694908], [8.814047215114199, 45.73163151843341], [8.82030398368086, 45.72982793451898], [8.834154643765741, 45.72522230268736], [8.83938506378335, 45.72327051982049], [8.84433608986514, 45.72098928291257], [8.848965554412175, 45.7183980374727], [8.853234046653425, 45.71551886874332], [8.857105248827134, 45.71237631242134], [8.860546245293934, 45.7089971444988], [8.86352780194775, 45.705410152059656], [8.86602461356923, 45.70164588703075], [8.891612746845682, 45.65785398567697], [8.89368297793127, 45.65375259538153], [8.895178549593515, 45.64953015782053], [8.896085606993621, 45.64522615799403], [8.89639580563771, 45.640880834569806], [8.896106384403906, 45.63653480330027], [8.895220186199266, 45.63222867725607], [8.89374562624576, 45.628002687431405], [8.891696608483363, 45.62389630725998], [8.889092391055378, 45.61994788453157], [8.885957402302514, 45.61619428411733], [8.882321009134003, 45.61267054480137], [8.878217240062861, 45.60940955337434], [8.865133243292064, 45.599970865400486], [8.860602138998491, 45.59700265953491], [8.855684406784727, 45.594355244873405], [8.850425967168626, 45.592053315104785], [8.84487589962287, 45.59011833859175], [8.839085986190883, 45.58856835935206], [8.83311023068766, 45.58741782985994], [8.827004357863206, 45.58667747717803], [8.820825297066774, 45.58635420362656], [8.814630655073787, 45.58645102288483], [8.808478182823082, 45.58696703209933], [8.802425240860279, 45.58789742024984], [8.796528268293272, 45.58923351269735], [8.761255696649085, 45.598561375559406], [8.755604734276002, 45.60027617920504], [8.750213743493369, 45.60236329775594], [8.745132362172633, 45.60480352545433], [8.740407396397506, 45.60757440462075], [8.736082390690544, 45.610650431133536], [8.732197227401395, 45.614003287906556], [8.728787758916303, 45.61760210427445], [8.69889041050624, 45.65267756963997], [8.696029214276171, 45.65642215130728], [8.693683908637658, 45.660339191366766], [8.691875482526573, 45.66439381753866], [8.690620156584382, 45.66854992510935], [8.689929234866227, 45.67277049773612], [8.689808999927996, 45.677017936634996], [8.69026065237518, 45.68125439524251], [8.69128029557061, 45.685442116382625], [8.692858965800607, 45.689543768938165], [8.694982707793088, 45.693522781019446], [8.697632695070357, 45.69734366664287], [8.700785394207431, 45.70097234298155], [8.709863479748872, 45.710386865351296], [8.713650024647972, 45.71392461113743], [8.717914359861355, 45.71718480523995], [8.72261533114335, 45.720135923493096], [8.727707540272306, 45.72274942555756], [8.733141783901951, 45.72500003239694], [8.73886553023708, 45.72686597219471], [8.74482342886799, 45.728329192264376], [8.750957848738027, 45.729375534840145], [8.78068215764432, 45.73336873905018]]]}}]", "centroid": "[{\"type\": \"Feature\", \"properties\": {}, \"geometry\": {\"type\": \"Point\", \"coordinates\": [8.794688552579629, 45.661139629783825]}}]", "Diesel High Quality": {"1": [{"Gestore": "SHKAJOTI BEJNAZE", "Bandiera": "Esso", "Tipo impianto": "Altro", "Indirizzo": "Via  Varese  12 21013", "Nome impianto": "S.BH di Shkajoti Bejnaze  via Varese 12", "Comune": "GALLARATE", "idImpianto": 48839, "points": [{"type": "Feature", "properties": {}, "geometry": {"type": "Point", "coordinates": [8.797228116567592, 45.67434612584493]}}], "price": 1.939, "ultima_rilevazione": "07/05/2022 08:12:43"}, {"Gestore": "BROMAR S.N.C. DI BROCCOLO SONIA E C.", "Bandiera": "Q8", "Tipo impianto": "Altro", "Indirizzo": "VIA TORINO, ANGOLO VIA CHECCHI 82 21013", "Nome impianto": "BROMAR S.N.C.", "Comune": "GALLARATE", "idImpianto": 10555, "points": [{"type": "Feature", "properties": {}, "geometry": {"type": "Point", "coordinates": [8.792936000123, 45.644901000123]}}], "price": 2.179, "ultima_rilevazione": "06/05/2022 08:54:56"}, {"Gestore": "BROMAR S.N.C. DI BROCCOLO SONIA E C.", "Bandiera": "Q8", "Tipo impianto": "Altro", "Indirizzo": "VIA TORINO, ANGOLO VIA CHECCHI 82 21013", "Nome impianto": "BROMAR S.N.C.", "Comune": "GALLARATE", "idImpianto": 10555, "points": [{"type": "Feature", "properties": {}, "geometry": {"type": "Point", "coordinates": [8.792936000123, 45.644901000123]}}], "price": 2.159, "ultima_rilevazione": "06/05/2022 08:54:56"}, {"Gestore": "IP SERVICES S.R.L.", "Bandiera": "Api-Ip", "Tipo impianto": "Altro", "Indirizzo": "via Sanzio 15 21013", "Nome impianto": "Gallarate Sanzio", "Comune": "GALLARATE", "idImpianto": 38380, "points": [{"type": "Feature", "properties": {}, "geometry": {"type": "Point", "coordinates": [8.795668647815774, 45.66804046676662]}}], "price": 1.829, "ultima_rilevazione": "06/05/2022 12:05:34"}], "3": [{"Gestore": "LEPRI MARCO", "Bandiera": "Esso", "Tipo impianto": "Strada Statale", "Indirizzo": "Statale 33 del Sempione, Km. 144, dir. NORD 21052", "Nome impianto": "ESSO SEMPIONE", "Comune": "BUSTO ARSIZIO", "idImpianto": 9058, "points": [{"type": "Feature", "properties": {}, "geometry": {"type": "Point", "coordinates": [8.841612339019775, 45.62873718186091]}}], "price": 1.986, "ultima_rilevazione": "06/05/2022 17:56:04"}, {"Gestore": "LEPRI MARCO", "Bandiera": "Esso", "Tipo impianto": "Altro", "Indirizzo": "CORSO ITALIA  21052", "Nome impianto": "ESSO ITALIA", "Comune": "BUSTO ARSIZIO", "idImpianto": 9059, "points": [{"type": "Feature", "properties": {}, "geometry": {"type": "Point", "coordinates": [8.83901059627533, 45.615347715796815]}}], "price": 1.986, "ultima_rilevazione": "06/05/2022 17:58:34"}, {"Gestore": "BOSATELLI BRUNO & C. - S.A.S.", "Bandiera": "Esso", "Tipo impianto": "Altro", "Indirizzo": "VIA PER FAGNANO 24 21052", "Nome impianto": "ESSO", "Comune": "BUSTO ARSIZIO", "idImpianto": 10021, "points": [{"type": "Feature", "properties": {}, "geometry": {"type": "Point", "coordinates": [8.857867866754532, 45.62548446746924]}}], "price": 1.986, "ultima_rilevazione": "06/05/2022 18:08:30"}, {"Gestore": "SERVIZI & GESTIONI ITALIA S.R.L.", "Bandiera": "Q8", "Tipo impianto": "Altro", "Indirizzo": "CORSO ITALIA 23 21052", "Nome impianto": "BUSTO ARSIZIO-CORSO ITALIA 23", "Comune": "BUSTO ARSIZIO", "idImpianto": 11922, "points": [{"type": "Feature", "properties": {}, "geometry": {"type": "Point", "coordinates": [8.846762449073822, 45.62081875947187]}}], "price": 2.179, "ultima_rilevazione": "09/05/2022 00:31:39"}, {"Gestore": "SERVIZI & GESTIONI ITALIA S.R.L.", "Bandiera": "Q8", "Tipo impianto": "Altro", "Indirizzo": "CORSO ITALIA 23 21052", "Nome impianto": "BUSTO ARSIZIO-CORSO ITALIA 23", "Comune": "BUSTO ARSIZIO", "idImpianto": 11922, "points": [{"type": "Feature", "properties": {}, "geometry": {"type": "Point", "coordinates": [8.846762449073822, 45.62081875947187]}}], "price": 2.159, "ultima_rilevazione": "09/05/2022 00:31:39"}, {"Gestore": "SERVIZI & GESTIONI ITALIA srl", "Bandiera": "Q8", "Tipo impianto": "Altro", "Indirizzo": "V.LE RIMEMBRANZE 53 21052", "Nome impianto": "BUSTO ARSIZIO V.LE RIMEMBRANZE  53", "Comune": "BUSTO ARSIZIO", "idImpianto": 6459, "points": [{"type": "Feature", "properties": {}, "geometry": {"type": "Point", "coordinates": [8.833518582942133, 45.60909492679454]}}], "price": 2.169, "ultima_rilevazione": "09/05/2022 00:31:39"}, {"Gestore": "SERVIZI & GESTIONI ITALIA srl", "Bandiera": "Q8", "Tipo impianto": "Altro", "Indirizzo": "V.LE RIMEMBRANZE 53 21052", "Nome impianto": "BUSTO ARSIZIO V.LE RIMEMBRANZE  53", "Comune": "BUSTO ARSIZIO", "idImpianto": 6459, "points": [{"type": "Feature", "properties": {}, "geometry": {"type": "Point", "coordinates": [8.833518582942133, 45.60909492679454]}}], "price": 2.159, "ultima_rilevazione": "09/05/2022 00:31:39"}], "5": [{"Gestore": "MARINO ROCCO", "Bandiera": "Api-Ip", "Tipo impianto": "Altro", "Indirizzo": "VIALE BOCCACCIO 42 21052", "Nome impianto": "IP", "Comune": "BUSTO ARSIZIO", "idImpianto": 22418, "points": [{"type": "Feature", "properties": {}, "geometry": {"type": "Point", "coordinates": [8.860757946968079, 45.59867244590827]}}], "price": 1.889, "ultima_rilevazione": "03/05/2022 10:30:27"}]}, "Blue Diesel": {"1": [{"Gestore": "BUSELLATO MASSIMO", "Bandiera": "Agip Eni", "Tipo impianto": "Altro", "Indirizzo": "VIA AMBROSOLI ANG. VIA MILANO 15 21013", "Nome impianto": "ENI BUSELLATO", "Comune": "GALLARATE", "idImpianto": 40509, "points": [{"type": "Feature", "properties": {}, "geometry": {"type": "Point", "coordinates": [8.807483911514282, 45.65049049417369]}}], "price": 1.989, "ultima_rilevazione": "05/05/2022 07:54:36"}, {"Gestore": "BUSELLATO MASSIMO", "Bandiera": "Agip Eni", "Tipo impianto": "Altro", "Indirizzo": "VIA AMBROSOLI ANG. VIA MILANO 15 21013", "Nome impianto": "ENI BUSELLATO", "Comune": "GALLARATE", "idImpianto": 40509, "points": [{"type": "Feature", "properties": {}, "geometry": {"type": "Point", "coordinates": [8.807483911514282, 45.65049049417369]}}], "price": 1.969, "ultima_rilevazione": "05/05/2022 07:54:36"}, {"Gestore": "LU.PI. DI LUCA PIVA", "Bandiera": "Agip Eni", "Tipo impianto": "Altro", "Indirizzo": "Via Carlo No\u00e8 48 21013", "Nome impianto": "Eni Station", "Comune": "GALLARATE", "idImpianto": 48492, "points": [{"type": "Feature", "properties": {}, "geometry": {"type": "Point", "coordinates": [8.782354151727843, 45.655678477844525]}}], "price": 1.964, "ultima_rilevazione": "05/05/2022 08:12:02"}, {"Gestore": "LU.PI. DI LUCA PIVA", "Bandiera": "Agip Eni", "Tipo impianto": "Altro", "Indirizzo": "Via Carlo No\u00e8 48 21013", "Nome impianto": "Eni Station", "Comune": "GALLARATE", "idImpianto": 48492, "points": [{"type": "Feature", "properties": {}, "geometry": {"type": "Point", "coordinates": [8.782354151727843, 45.655678477844525]}}], "price": 1.984, "ultima_rilevazione": "05/05/2022 08:12:02"}, {"Gestore": "ELLEPI SERVICE DI LUCA PULVIRENTI", "Bandiera": "Agip Eni", "Tipo impianto": "Altro", "Indirizzo": "via ercole ferrario 1 21013", "Nome impianto": "02908", "Comune": "GALLARATE", "idImpianto": 28790, "points": [{"type": "Feature", "properties": {}, "geometry": {"type": "Point", "coordinates": [8.792808172521973, 45.65281493830711]}}], "price": 1.964, "ultima_rilevazione": "05/05/2022 11:41:55"}, {"Gestore": "ELLEPI SERVICE DI LUCA PULVIRENTI", "Bandiera": "Agip Eni", "Tipo impianto": "Altro", "Indirizzo": "via ercole ferrario 1 21013", "Nome impianto": "02908", "Comune": "GALLARATE", "idImpianto": 28790, "points": [{"type": "Feature", "properties": {}, "geometry": {"type": "Point", "coordinates": [8.792808172521973, 45.65281493830711]}}], "price": 1.984, "ultima_rilevazione": "05/05/2022 11:41:55"}, {"Gestore": "COZZI ANDREA", "Bandiera": "Agip Eni", "Tipo impianto": "Altro", "Indirizzo": "VIA VARESE 14 21013", "Nome impianto": "ENI", "Comune": "GALLARATE", "idImpianto": 28889, "points": [{"type": "Feature", "properties": {}, "geometry": {"type": "Point", "coordinates": [8.797299733729574, 45.67431099042725]}}], "price": 1.964, "ultima_rilevazione": "05/05/2022 16:39:03"}, {"Gestore": "COZZI ANDREA", "Bandiera": "Agip Eni", "Tipo impianto": "Altro", "Indirizzo": "VIA VARESE 14 21013", "Nome impianto": "ENI", "Comune": "GALLARATE", "idImpianto": 28889, "points": [{"type": "Feature", "properties": {}, "geometry": {"type": "Point", "coordinates": [8.797299733729574, 45.67431099042725]}}], "price": 1.984, "ultima_rilevazione": "05/05/2022 16:39:03"}, {"Gestore": "GESTIONI INNOVATIVE ITALIA S.R.L.", "Bandiera": "Agip Eni", "Tipo impianto": "Altro", "Indirizzo": "VIA IV NOVEMBRE 16, 21012", "Nome impianto": "PV 2828", "Comune": "CASSANO MAGNAGO", "idImpianto": 25391, "points": [{"type": "Feature", "properties": {}, "geometry": {"type": "Point", "coordinates": [8.822863698005676, 45.67164085351821]}}], "price": 1.929, "ultima_rilevazione": "09/05/2022 00:12:08"}, {"Gestore": "C.R. S.N.C. DI CANDIANI SIMONE  &  RAVASI PAOLO", "Bandiera": "Agip Eni", "Tipo impianto": "Altro", "Indirizzo": "VIA TORINO 76 21013", "Nome impianto": "crsnc", "Comune": "GALLARATE", "idImpianto": 10817, "points": [{"type": "Feature", "properties": {}, "geometry": {"type": "Point", "coordinates": [8.793311690807286, 45.64576312759459]}}], "price": 1.969, "ultima_rilevazione": "09/05/2022 06:26:05"}], "3": [{"Gestore": "VINCI S.A.S. DI VINCI SALVATORE & C.", "Bandiera": "Agip Eni", "Tipo impianto": "Altro", "Indirizzo": "via busto fagnano 36 21057", "Nome impianto": "02874 OLGIATE OLONA", "Comune": "OLGIATE OLONA", "idImpianto": 7166, "points": [{"type": "Feature", "properties": {}, "geometry": {"type": "Point", "coordinates": [8.858649730682373, 45.631588145862736]}}], "price": 2.344, "ultima_rilevazione": "05/05/2022 19:32:31"}, {"Gestore": "VINCI S.A.S. DI VINCI SALVATORE & C.", "Bandiera": "Agip Eni", "Tipo impianto": "Altro", "Indirizzo": "via busto fagnano 36 21057", "Nome impianto": "02874 OLGIATE OLONA", "Comune": "OLGIATE OLONA", "idImpianto": 7166, "points": [{"type": "Feature", "properties": {}, "geometry": {"type": "Point", "coordinates": [8.858649730682373, 45.631588145862736]}}], "price": 2.364, "ultima_rilevazione": "05/05/2022 19:32:31"}, {"Gestore": "BEMA SAS DI ANDREA BERTOLASO & C.", "Bandiera": "Agip Eni", "Tipo impianto": "Altro", "Indirizzo": "VIA BONICALZA 127 21012", "Nome impianto": "Eni 02862 Cassano Magnago", "Comune": "CASSANO MAGNAGO", "idImpianto": 45389, "points": [{"type": "Feature", "properties": {}, "geometry": {"type": "Point", "coordinates": [8.843454000123, 45.660386000123]}}], "price": 1.964, "ultima_rilevazione": "05/05/2022 06:51:03"}, {"Gestore": "CEPPI ROBERTO", "Bandiera": "Agip Eni", "Tipo impianto": "Altro", "Indirizzo": "VIALE ARMANDO DIAZ 28 21052", "Nome impianto": "ENI PV 02805", "Comune": "BUSTO ARSIZIO", "idImpianto": 38949, "points": [{"type": "Feature", "properties": {}, "geometry": {"type": "Point", "coordinates": [8.852900235581956, 45.62159883144696]}}], "price": 1.964, "ultima_rilevazione": "05/05/2022 08:05:54"}, {"Gestore": "DEDA ASTRIT", "Bandiera": "Agip Eni", "Tipo impianto": "Altro", "Indirizzo": "VIA PER FAGNANO 32 21052", "Nome impianto": "eni 52359", "Comune": "BUSTO ARSIZIO", "idImpianto": 46044, "points": [{"type": "Feature", "properties": {}, "geometry": {"type": "Point", "coordinates": [8.857783000123, 45.626435000123]}}], "price": 1.969, "ultima_rilevazione": "05/05/2022 08:45:17"}, {"Gestore": "GARBINI S.R.L.", "Bandiera": "Agip Eni", "Tipo impianto": "Strada Statale", "Indirizzo": "Statale 336 dell'Aeroporto della Malpensa, Km. 8+500, dir. EST 21010", "Nome impianto": "MALPENSA EST", "Comune": "CARDANO AL CAMPO", "idImpianto": 4720, "points": [{"type": "Feature", "properties": {}, "geometry": {"type": "Point", "coordinates": [8.749292875674428, 45.64593014782805]}}], "price": 1.984, "ultima_rilevazione": "05/05/2022 09:54:51"}, {"Gestore": "GARBINI S.R.L.", "Bandiera": "Agip Eni", "Tipo impianto": "Strada Statale", "Indirizzo": "Statale 336 dell'Aeroporto della Malpensa, Km. 8+500, dir. EST 21010", "Nome impianto": "MALPENSA EST", "Comune": "CARDANO AL CAMPO", "idImpianto": 4720, "points": [{"type": "Feature", "properties": {}, "geometry": {"type": "Point", "coordinates": [8.749292875674428, 45.64593014782805]}}], "price": 1.984, "ultima_rilevazione": "05/05/2022 09:54:51"}], "5": [{"Gestore": "CEPPI ROBERTO", "Bandiera": "Agip Eni", "Tipo impianto": "Altro", "Indirizzo": "VIA GIUSTI 110 21019", "Nome impianto": "ENI 2890 ", "Comune": "SOMMA LOMBARDO", "idImpianto": 44186, "points": [{"type": "Feature", "properties": {}, "geometry": {"type": "Point", "coordinates": [8.704129001234, 45.657395001234]}}], "price": 1.964, "ultima_rilevazione": "05/05/2022 08:07:07"}, {"Gestore": "CEPPI ROBERTO", "Bandiera": "Agip Eni", "Tipo impianto": "Altro", "Indirizzo": "VIA GIUSTI 110 21019", "Nome impianto": "ENI 2890 ", "Comune": "SOMMA LOMBARDO", "idImpianto": 44186, "points": [{"type": "Feature", "properties": {}, "geometry": {"type": "Point", "coordinates": [8.704129001234, 45.657395001234]}}], "price": 1.984, "ultima_rilevazione": "05/05/2022 08:07:07"}, {"Gestore": "RAIMONDI MAURO", "Bandiera": "Agip Eni", "Tipo impianto": "Altro", "Indirizzo": "VIA ARMANDO DIAZ 1 21057", "Nome impianto": "RAIMONDI MAURO", "Comune": "OLGIATE OLONA", "idImpianto": 14944, "points": [{"type": "Feature", "properties": {}, "geometry": {"type": "Point", "coordinates": [8.888167440891266, 45.63324351402306]}}], "price": 1.969, "ultima_rilevazione": "06/05/2022 07:57:00"}, {"Gestore": "RAIMONDI MAURO", "Bandiera": "Agip Eni", "Tipo impianto": "Altro", "Indirizzo": "VIA ARMANDO DIAZ 1 21057", "Nome impianto": "RAIMONDI MAURO", "Comune": "OLGIATE OLONA", "idImpianto": 14944, "points": [{"type": "Feature", "properties": {}, "geometry": {"type": "Point", "coordinates": [8.888167440891266, 45.63324351402306]}}], "price": 1.989, "ultima_rilevazione": "06/05/2022 07:57:00"}, {"Gestore": "ENI FUEL S.P.A.", "Bandiera": "Agip Eni", "Tipo impianto": "Altro", "Indirizzo": "VIA XX SETTEMBRE, 60  21052", "Nome impianto": "2807 \u2013 Busto Arsizio", "Comune": "BUSTO ARSIZIO", "idImpianto": 49792, "points": [{"type": "Feature", "properties": {}, "geometry": {"type": "Point", "coordinates": [8.867198119656962, 45.61297865138692]}}], "price": 1.969, "ultima_rilevazione": "09/05/2022 06:52:09"}, {"Gestore": "ENI FUEL S.P.A.", "Bandiera": "Agip Eni", "Tipo impianto": "Altro", "Indirizzo": "VIA XX SETTEMBRE, 60  21052", "Nome impianto": "2807 \u2013 Busto Arsizio", "Comune": "BUSTO ARSIZIO", "idImpianto": 49792, "points": [{"type": "Feature", "properties": {}, "geometry": {"type": "Point", "coordinates": [8.867198119656962, 45.61297865138692]}}], "price": 1.989, "ultima_rilevazione": "09/05/2022 06:52:09"}, {"Gestore": "IAMETTI S.A.S. DI IAMETTI DANILO E MARCO", "Bandiera": "Agip Eni", "Tipo impianto": "Altro", "Indirizzo": "VIALE PIRANDELLO 2 21052", "Nome impianto": "IAMETTI SAS", "Comune": "BUSTO ARSIZIO", "idImpianto": 14390, "points": [{"type": "Feature", "properties": {}, "geometry": {"type": "Point", "coordinates": [8.847196151520507, 45.60283165537623]}}], "price": 1.989, "ultima_rilevazione": "09/05/2022 07:04:32"}, {"Gestore": "IAMETTI S.A.S. DI IAMETTI DANILO E MARCO", "Bandiera": "Agip Eni", "Tipo impianto": "Altro", "Indirizzo": "VIALE PIRANDELLO 2 21052", "Nome impianto": "IAMETTI SAS", "Comune": "BUSTO ARSIZIO", "idImpianto": 14390, "points": [{"type": "Feature", "properties": {}, "geometry": {"type": "Point", "coordinates": [8.847196151520507, 45.60283165537623]}}], "price": 1.969, "ultima_rilevazione": "09/05/2022 07:04:32"}]}, "Benzina": {"1": [{"Gestore": "SHKAJOTI BEJNAZE", "Bandiera": "Esso", "Tipo impianto": "Altro", "Indirizzo": "Via  Varese  12 21013", "Nome impianto": "S.BH di Shkajoti Bejnaze  via Varese 12", "Comune": "GALLARATE", "idImpianto": 48839, "points": [{"type": "Feature", "properties": {}, "geometry": {"type": "Point", "coordinates": [8.797228116567592, 45.67434612584493]}}], "price": 1.799, "ultima_rilevazione": "07/05/2022 08:12:43"}, {"Gestore": "SEVERO CARBURANTI DI SEVERO ALESSANDRO", "Bandiera": "Sommese Petroli", "Tipo impianto": "Altro", "Indirizzo": "via gramsci 94 21010", "Nome impianto": "Sommese Petroli", "Comune": "CARDANO AL CAMPO", "idImpianto": 41177, "points": [{"type": "Feature", "properties": {}, "geometry": {"type": "Point", "coordinates": [8.766267714120886, 45.65280249852187]}}], "price": 1.799, "ultima_rilevazione": "29/04/2022 15:21:52"}, {"Gestore": "BUSELLATO MASSIMO", "Bandiera": "Agip Eni", "Tipo impianto": "Altro", "Indirizzo": "VIA AMBROSOLI ANG. VIA MILANO 15 21013", "Nome impianto": "ENI BUSELLATO", "Comune": "GALLARATE", "idImpianto": 40509, "points": [{"type": "Feature", "properties": {}, "geometry": {"type": "Point", "coordinates": [8.807483911514282, 45.65049049417369]}}], "price": 1.839, "ultima_rilevazione": "05/05/2022 07:54:36"}, {"Gestore": "LU.PI. DI LUCA PIVA", "Bandiera": "Agip Eni", "Tipo impianto": "Altro", "Indirizzo": "Via Carlo No\u00e8 48 21013", "Nome impianto": "Eni Station", "Comune": "GALLARATE", "idImpianto": 48492, "points": [{"type": "Feature", "properties": {}, "geometry": {"type": "Point", "coordinates": [8.782354151727843, 45.655678477844525]}}], "price": 1.834, "ultima_rilevazione": "05/05/2022 08:12:02"}, {"Gestore": "ELLEPI SERVICE DI LUCA PULVIRENTI", "Bandiera": "Agip Eni", "Tipo impianto": "Altro", "Indirizzo": "via ercole ferrario 1 21013", "Nome impianto": "02908", "Comune": "GALLARATE", "idImpianto": 28790, "points": [{"type": "Feature", "properties": {}, "geometry": {"type": "Point", "coordinates": [8.792808172521973, 45.65281493830711]}}], "price": 1.834, "ultima_rilevazione": "05/05/2022 11:41:55"}, {"Gestore": "COZZI ANDREA", "Bandiera": "Agip Eni", "Tipo impianto": "Altro", "Indirizzo": "VIA VARESE 14 21013", "Nome impianto": "ENI", "Comune": "GALLARATE", "idImpianto": 28889, "points": [{"type": "Feature", "properties": {}, "geometry": {"type": "Point", "coordinates": [8.797299733729574, 45.67431099042725]}}], "price": 1.834, "ultima_rilevazione": "05/05/2022 16:39:03"}, {"Gestore": "BROMAR S.N.C. DI BROCCOLO SONIA E C.", "Bandiera": "Q8", "Tipo impianto": "Altro", "Indirizzo": "VIA TORINO, ANGOLO VIA CHECCHI 82 21013", "Nome impianto": "BROMAR S.N.C.", "Comune": "GALLARATE", "idImpianto": 10555, "points": [{"type": "Feature", "properties": {}, "geometry": {"type": "Point", "coordinates": [8.792936000123, 45.644901000123]}}], "price": 1.859, "ultima_rilevazione": "06/05/2022 08:54:56"}, {"Gestore": "PREALPINA DISTRIBUZIONE CARBURANTI S.R.L.", "Bandiera": "Pompe Bianche", "Tipo impianto": "Altro", "Indirizzo": "VIA ROMA, ANG. MEDAGLIE D'ORO  21011", "Nome impianto": "PREALPINA DISTRIBUZIONE CARBURANTI SRL_", "Comune": "CASORATE SEMPIONE", "idImpianto": 4185, "points": [{"type": "Feature", "properties": {}, "geometry": {"type": "Point", "coordinates": [8.749526739120483, 45.66520207437205]}}], "price": 1.818, "ultima_rilevazione": "06/05/2022 10:16:38"}, {"Gestore": "PREALPINA DISTRIBUZIONE CARBURANTI S.R.L.", "Bandiera": "Pompe Bianche", "Tipo impianto": "Altro", "Indirizzo": "VIA ASSISI  21013", "Nome impianto": "PREALPINA DISTRIBUZIONE CARBURANTI SRL", "Comune": "GALLARATE", "idImpianto": 41799, "points": [{"type": "Feature", "properties": {}, "geometry": {"type": "Point", "coordinates": [8.777800717782725, 45.67986173067121]}}], "price": 1.818, "ultima_rilevazione": "06/05/2022 10:21:11"}, {"Gestore": "PREALPINA DISTRIBUZIONE CARBURANTI S.R.L.", "Bandiera": "Pompe Bianche", "Tipo impianto": "Altro", "Indirizzo": "VIA MONTE SAN MARTINO 19 21013", "Nome impianto": "PREALPINA DISTRIBUZIONE CARBURANTI SRL", "Comune": "GALLARATE", "idImpianto": 41800, "points": [{"type": "Feature", "properties": {}, "geometry": {"type": "Point", "coordinates": [8.774024695158005, 45.66904496299664]}}], "price": 1.818, "ultima_rilevazione": "06/05/2022 10:22:00"}, {"Gestore": "IP SERVICES S.R.L.", "Bandiera": "Api-Ip", "Tipo impianto": "Altro", "Indirizzo": "VIA CARLO NOE' 35  21013", "Nome impianto": "GALLARATE  - CARLO NOE' 35", "Comune": "GALLARATE", "idImpianto": 24620, "points": [{"type": "Feature", "properties": {}, "geometry": {"type": "Point", "coordinates": [8.783059766864653, 45.66112624437493]}}], "price": 1.829, "ultima_rilevazione": "06/05/2022 12:01:53"}, {"Gestore": "IP SERVICES S.R.L.", "Bandiera": "Api-Ip", "Tipo impianto": "Strada Statale", "Indirizzo": "Statale 336 dell'Aeroporto della Malpensa, Km. KM. 1,850, dir. BUSTO ARSIZIO 21052", "Nome impianto": "BUSTO ARSIZIO", "Comune": "BUSTO ARSIZIO", "idImpianto": 24961, "points": [{"type": "Feature", "properties": {}, "geometry": {"type": "Point", "coordinates": [8.8329019239427, 45.63975625942259]}}], "price": 1.829, "ultima_rilevazione": "06/05/2022 12:03:36"}, {"Gestore": "IP SERVICES S.R.L.", "Bandiera": "Api-Ip", "Tipo impianto": "Altro", "Indirizzo": "via Sanzio 15 21013", "Nome impianto": "Gallarate Sanzio", "Comune": "GALLARATE", "idImpianto": 38380, "points": [{"type": "Feature", "properties": {}, "geometry": {"type": "Point", "coordinates": [8.795668647815774, 45.66804046676662]}}], "price": 1.799, "ultima_rilevazione": "06/05/2022 12:05:34"}, {"Gestore": "IP SERVICES S.R.L.", "Bandiera": "Api-Ip", "Tipo impianto": "Altro", "Indirizzo": "Via Torino   21013", "Nome impianto": "Gallarate via Torino", "Comune": "GALLARATE", "idImpianto": 10130, "points": [{"type": "Feature", "properties": {}, "geometry": {"type": "Point", "coordinates": [8.79481032023773, 45.65067258728234]}}], "price": 1.829, "ultima_rilevazione": "06/05/2022 12:07:46"}, {"Gestore": "LO TURCO BRUNO", "Bandiera": "Pompe Bianche", "Tipo impianto": "Altro", "Indirizzo": "Via.C.Noe 43 21013", "Nome impianto": "Distributore Lo Turco Bruno", "Comune": "GALLARATE", "idImpianto": 17205, "points": [{"type": "Feature", "properties": {}, "geometry": {"type": "Point", "coordinates": [8.782966448561638, 45.658904859555896]}}], "price": 1.819, "ultima_rilevazione": "06/05/2022 14:02:27"}, {"Gestore": "CASTELLANELLI S.N.C. DI CASTELLANELLI PIETRO & C.", "Bandiera": "Tamoil", "Tipo impianto": "Altro", "Indirizzo": "VIA TRIESTE 37 21011", "Nome impianto": "Castellanelli", "Comune": "CASORATE SEMPIONE", "idImpianto": 19081, "points": [{"type": "Feature", "properties": {}, "geometry": {"type": "Point", "coordinates": [8.754543108003986, 45.6713737257454]}}], "price": 1.849, "ultima_rilevazione": "08/05/2022 09:48:08"}, {"Gestore": "MAIORIELLO MARCO", "Bandiera": "Tamoil", "Tipo impianto": "Altro", "Indirizzo": "VIA RONCHETTI 30 21044", "Nome impianto": "TAMOIL DI MAIORIELLO  MARCO", "Comune": "CAVARIA CON PREMEZZO", "idImpianto": 33723, "points": [{"type": "Feature", "properties": {}, "geometry": {"type": "Point", "coordinates": [8.801982700824738, 45.69239708563681]}}], "price": 1.829, "ultima_rilevazione": "09/05/2022 07:14:09"}, {"Gestore": "SOMMESE CARBURANTE S.R.L.", "Bandiera": "Sommese Petroli", "Tipo impianto": "Strada Statale", "Indirizzo": "33 del Sempione, Km. 40+252, nord 21013", "Nome impianto": "SOMMESE - SEMPIONE", "Comune": "GALLARATE", "idImpianto": 43823, "points": [{"type": "Feature", "properties": {}, "geometry": {"type": "Point", "coordinates": [8.778295516967773, 45.66498502191534]}}], "price": 1.799, "ultima_rilevazione": "08/05/2022 14:06:10"}, {"Gestore": "VARGAS SRL", "Bandiera": "Pompe Bianche", "Tipo impianto": "Altro", "Indirizzo": "VIA OLONA 181 21013", "Nome impianto": "vargas s.r.l.", "Comune": "GALLARATE", "idImpianto": 4135, "points": [{"type": "Feature", "properties": {}, "geometry": {"type": "Point", "coordinates": [8.816686804893493, 45.64914025334275]}}], "price": 1.789, "ultima_rilevazione": "09/05/2022 00:10:15"}, {"Gestore": "GESTIONI INNOVATIVE ITALIA S.R.L.", "Bandiera": "Agip Eni", "Tipo impianto": "Altro", "Indirizzo": "VIA IV NOVEMBRE 16, 21012", "Nome impianto": "PV 2828", "Comune": "CASSANO MAGNAGO", "idImpianto": 25391, "points": [{"type": "Feature", "properties": {}, "geometry": {"type": "Point", "coordinates": [8.822863698005676, 45.67164085351821]}}], "price": 1.839, "ultima_rilevazione": "09/05/2022 00:12:08"}, {"Gestore": "SERVIZI & GESTIONI ITALIA srl", "Bandiera": "Q8", "Tipo impianto": "Altro", "Indirizzo": "VIA C. NOE' 79 21013", "Nome impianto": "GALLARATE VIA C. NOE' 79", "Comune": "GALLARATE", "idImpianto": 6458, "points": [{"type": "Feature", "properties": {}, "geometry": {"type": "Point", "coordinates": [8.782875680950951, 45.655528206039214]}}], "price": 1.819, "ultima_rilevazione": "09/05/2022 00:31:38"}, {"Gestore": "SERVIZI & GESTIONI ITALIA S.R.L.", "Bandiera": "Q8", "Tipo impianto": "Altro", "Indirizzo": "VIA ERCOLE FERRARIO 37 SS. 33 21013", "Nome impianto": "GALLARATE - VIA ERCOLE FERRARIO 37 SS.", "Comune": "GALLARATE", "idImpianto": 31851, "points": [{"type": "Feature", "properties": {}, "geometry": {"type": "Point", "coordinates": [8.785941079258919, 45.65343803154252]}}], "price": 1.819, "ultima_rilevazione": "09/05/2022 00:31:39"}, {"Gestore": "SOMMESE CARBURANTE S.R.L.", "Bandiera": "Sommese Petroli", "Tipo impianto": "Altro", "Indirizzo": "VIALE MILANO 33 21013", "Nome impianto": "SOMMESE CARBURANTE VIALE MILANO", "Comune": "GALLARATE", "idImpianto": 34333, "points": [{"type": "Feature", "properties": {}, "geometry": {"type": "Point", "coordinates": [8.801605022186209, 45.655140743708245]}}], "price": 1.799, "ultima_rilevazione": "09/05/2022 06:04:08"}, {"Gestore": "C.R. S.N.C. DI CANDIANI SIMONE  &  RAVASI PAOLO", "Bandiera": "Agip Eni", "Tipo impianto": "Altro", "Indirizzo": "VIA TORINO 76 21013", "Nome impianto": "crsnc", "Comune": "GALLARATE", "idImpianto": 10817, "points": [{"type": "Feature", "properties": {}, "geometry": {"type": "Point", "coordinates": [8.793311690807286, 45.64576312759459]}}], "price": 1.839, "ultima_rilevazione": "09/05/2022 06:26:05"}, {"Gestore": "GAVAZZI MARCO", "Bandiera": "Sommese Petroli", "Tipo impianto": "Altro", "Indirizzo": "VIA CAPPUCCINI 20 21013", "Nome impianto": "SOMMESE gallarate", "Comune": "GALLARATE", "idImpianto": 34446, "points": [{"type": "Feature", "properties": {}, "geometry": {"type": "Point", "coordinates": [8.78462332431286, 45.64854362799238]}}], "price": 1.819, "ultima_rilevazione": "09/05/2022 06:50:09"}, {"Gestore": "CAR-TEL S.N.C. DI TELESCA R.  &  CARTINI M. L.", "Bandiera": "Sommese Petroli", "Tipo impianto": "Altro", "Indirizzo": "Via Venegoni 14/16, 21012  21012", "Nome impianto": "Sommese Petroli ", "Comune": "CASSANO MAGNAGO", "idImpianto": 21271, "points": [{"type": "Feature", "properties": {}, "geometry": {"type": "Point", "coordinates": [8.816861055819686, 45.66864118622309]}}], "price": 1.819, "ultima_rilevazione": "09/05/2022 06:56:12"}, {"Gestore": "SOMMESE CARBURANTE S.R.L.", "Bandiera": "Sommese Petroli", "Tipo impianto": "Altro", "Indirizzo": "Via Luigi Riva 21 21013", "Nome impianto": "SOMMESE CARBURANTE VIA RIVA", "Comune": "GALLARATE", "idImpianto": 42778, "points": [{"type": "Feature", "properties": {}, "geometry": {"type": "Point", "coordinates": [8.79571833372961, 45.66626589283417]}}], "price": 1.819, "ultima_rilevazione": "09/05/2022 07:12:11"}], "3": [{"Gestore": "VINCI S.A.S. DI VINCI SALVATORE & C.", "Bandiera": "Agip Eni", "Tipo impianto": "Altro", "Indirizzo": "via busto fagnano 36 21057", "Nome impianto": "02874 OLGIATE OLONA", "Comune": "OLGIATE OLONA", "idImpianto": 7166, "points": [{"type": "Feature", "properties": {}, "geometry": {"type": "Point", "coordinates": [8.858649730682373, 45.631588145862736]}}], "price": 2.214, "ultima_rilevazione": "05/05/2022 19:32:31"}, {"Gestore": "BRUSAMOLIN CATIA", "Bandiera": "Esso", "Tipo impianto": "Altro", "Indirizzo": "via giuseppe verdi 49 21017", "Nome impianto": "stazione di servizio Esso", "Comune": "SAMARATE", "idImpianto": 16269, "points": [{"type": "Feature", "properties": {}, "geometry": {"type": "Point", "coordinates": [8.780278166570952, 45.62814871832988]}}], "price": 1.869, "ultima_rilevazione": "03/05/2022 08:22:53"}, {"Gestore": "DO & FA SNC DI CANNATA' DOMENICO E C.", "Bandiera": "Api-Ip", "Tipo impianto": "Altro", "Indirizzo": "VIA MARCONI 125 21012", "Nome impianto": "DO&FA SNC", "Comune": "CASSANO MAGNAGO", "idImpianto": 44282, "points": [{"type": "Feature", "properties": {}, "geometry": {"type": "Point", "coordinates": [8.821145000123, 45.690611000123]}}], "price": 1.829, "ultima_rilevazione": "03/05/2022 11:04:55"}, {"Gestore": "GARBINI S.P.A.", "Bandiera": "Pompe Bianche", "Tipo impianto": "Altro", "Indirizzo": "Via Giovanni Agusta 504 21017", "Nome impianto": "Agip", "Comune": "SAMARATE", "idImpianto": 45200, "points": [{"type": "Feature", "properties": {}, "geometry": {"type": "Point", "coordinates": [8.748867898147637, 45.63173604591536]}}], "price": 1.819, "ultima_rilevazione": "04/05/2022 12:26:48"}, {"Gestore": "BEMA SAS DI ANDREA BERTOLASO & C.", "Bandiera": "Agip Eni", "Tipo impianto": "Altro", "Indirizzo": "VIA BONICALZA 127 21012", "Nome impianto": "Eni 02862 Cassano Magnago", "Comune": "CASSANO MAGNAGO", "idImpianto": 45389, "points": [{"type": "Feature", "properties": {}, "geometry": {"type": "Point", "coordinates": [8.843454000123, 45.660386000123]}}], "price": 1.834, "ultima_rilevazione": "05/05/2022 06:51:03"}, {"Gestore": "CEPPI ROBERTO", "Bandiera": "Agip Eni", "Tipo impianto": "Altro", "Indirizzo": "VIALE ARMANDO DIAZ 28 21052", "Nome impianto": "ENI PV 02805", "Comune": "BUSTO ARSIZIO", "idImpianto": 38949, "points": [{"type": "Feature", "properties": {}, "geometry": {"type": "Point", "coordinates": [8.852900235581956, 45.62159883144696]}}], "price": 1.834, "ultima_rilevazione": "05/05/2022 08:05:54"}, {"Gestore": "DEDA ASTRIT", "Bandiera": "Agip Eni", "Tipo impianto": "Altro", "Indirizzo": "VIA PER FAGNANO 32 21052", "Nome impianto": "eni 52359", "Comune": "BUSTO ARSIZIO", "idImpianto": 46044, "points": [{"type": "Feature", "properties": {}, "geometry": {"type": "Point", "coordinates": [8.857783000123, 45.626435000123]}}], "price": 1.839, "ultima_rilevazione": "05/05/2022 08:45:17"}, {"Gestore": "GARBINI S.R.L.", "Bandiera": "Agip Eni", "Tipo impianto": "Strada Statale", "Indirizzo": "Statale 336 dell'Aeroporto della Malpensa, Km. 8+500, dir. EST 21010", "Nome impianto": "MALPENSA EST", "Comune": "CARDANO AL CAMPO", "idImpianto": 4720, "points": [{"type": "Feature", "properties": {}, "geometry": {"type": "Point", "coordinates": [8.749292875674428, 45.64593014782805]}}], "price": 1.833, "ultima_rilevazione": "05/05/2022 09:54:51"}, {"Gestore": "TURRI VERONICA", "Bandiera": "KEROPETROL", "Tipo impianto": "Altro", "Indirizzo": "VIA MILANO 3 21040", "Nome impianto": "Keropetrol", "Comune": "JERAGO CON ORAGO", "idImpianto": 29438, "points": [{"type": "Feature", "properties": {}, "geometry": {"type": "Point", "coordinates": [8.795823352184243, 45.70695030184689]}}], "price": 1.809, "ultima_rilevazione": "05/05/2022 12:11:56"}, {"Gestore": "IP SERVICES S.R.L.", "Bandiera": "Api-Ip", "Tipo impianto": "Altro", "Indirizzo": "S.P. 12 VIA COMO  21050", "Nome impianto": "CAIRATE - BOLLADELLO", "Comune": "CAIRATE", "idImpianto": 36260, "points": [{"type": "Feature", "properties": {}, "geometry": {"type": "Point", "coordinates": [8.844366107969336, 45.68073092003936]}}], "price": 1.829, "ultima_rilevazione": "06/05/2022 12:01:30"}, {"Gestore": "IP SERVICES S.R.L.", "Bandiera": "Api-Ip", "Tipo impianto": "Altro", "Indirizzo": "VIA PER FAGNANO 46 21057", "Nome impianto": "OLGIATE OLONA", "Comune": "OLGIATE OLONA", "idImpianto": 27295, "points": [{"type": "Feature", "properties": {}, "geometry": {"type": "Point", "coordinates": [8.85911206994058, 45.63571781676173]}}], "price": 1.839, "ultima_rilevazione": "06/05/2022 12:01:47"}, {"Gestore": "IP SERVICES S.R.L.", "Bandiera": "Api-Ip", "Tipo impianto": "Altro", "Indirizzo": "Via per Busto   21058", "Nome impianto": "SOLBIATE OLONA", "Comune": "SOLBIATE OLONA", "idImpianto": 10096, "points": [{"type": "Feature", "properties": {}, "geometry": {"type": "Point", "coordinates": [8.865092396736145, 45.64576541117171]}}], "price": 1.839, "ultima_rilevazione": "06/05/2022 12:07:24"}, {"Gestore": "PAGANINI ADELIO", "Bandiera": "Api-Ip", "Tipo impianto": "Autostradale", "Indirizzo": "DIRAMAZIONE A8/A26, Km. 6+100, Sud 21010", "Nome impianto": "VERBANO OVEST", "Comune": "ARSAGO SEPRIO", "idImpianto": 3934, "points": [{"type": "Feature", "properties": {}, "geometry": {"type": "Point", "coordinates": [8.735337853431702, 45.70280687466659]}}], "price": 1.934, "ultima_rilevazione": "06/05/2022 17:00:07"}, {"Gestore": "LEPRI MARCO", "Bandiera": "Esso", "Tipo impianto": "Strada Statale", "Indirizzo": "Statale 33 del Sempione, Km. 144, dir. NORD 21052", "Nome impianto": "ESSO SEMPIONE", "Comune": "BUSTO ARSIZIO", "idImpianto": 9058, "points": [{"type": "Feature", "properties": {}, "geometry": {"type": "Point", "coordinates": [8.841612339019775, 45.62873718186091]}}], "price": 1.849, "ultima_rilevazione": "06/05/2022 17:56:04"}, {"Gestore": "LEPRI MARCO", "Bandiera": "Esso", "Tipo impianto": "Altro", "Indirizzo": "CORSO ITALIA  21052", "Nome impianto": "ESSO ITALIA", "Comune": "BUSTO ARSIZIO", "idImpianto": 9059, "points": [{"type": "Feature", "properties": {}, "geometry": {"type": "Point", "coordinates": [8.83901059627533, 45.615347715796815]}}], "price": 1.849, "ultima_rilevazione": "06/05/2022 17:58:34"}, {"Gestore": "BOSATELLI BRUNO & C. - S.A.S.", "Bandiera": "Esso", "Tipo impianto": "Altro", "Indirizzo": "VIA PER FAGNANO 24 21052", "Nome impianto": "ESSO", "Comune": "BUSTO ARSIZIO", "idImpianto": 10021, "points": [{"type": "Feature", "properties": {}, "geometry": {"type": "Point", "coordinates": [8.857867866754532, 45.62548446746924]}}], "price": 1.849, "ultima_rilevazione": "06/05/2022 18:08:30"}, {"Gestore": "MAZZARELLO SABRINA", "Bandiera": "Api-Ip", "Tipo impianto": "Autostradale", "Indirizzo": "Autostrada DIRAMAZIONE A8/A26, Km. 6+100, dir. Nord 21010", "Nome impianto": "VERBANO EST", "Comune": "ARSAGO SEPRIO", "idImpianto": 27931, "points": [{"type": "Feature", "properties": {}, "geometry": {"type": "Point", "coordinates": [8.73545821586913, 45.70360452107339]}}], "price": 1.914, "ultima_rilevazione": "07/05/2022 13:15:30"}, {"Gestore": "SERVIZI & GESTIONI ITALIA S.R.L.", "Bandiera": "Q8", "Tipo impianto": "Altro", "Indirizzo": "CORSO ITALIA 23 21052", "Nome impianto": "BUSTO ARSIZIO-CORSO ITALIA 23", "Comune": "BUSTO ARSIZIO", "idImpianto": 11922, "points": [{"type": "Feature", "properties": {}, "geometry": {"type": "Point", "coordinates": [8.846762449073822, 45.62081875947187]}}], "price": 1.859, "ultima_rilevazione": "09/05/2022 00:31:39"}, {"Gestore": "SERVIZI & GESTIONI ITALIA srl", "Bandiera": "Q8", "Tipo impianto": "Altro", "Indirizzo": "V.LE RIMEMBRANZE 53 21052", "Nome impianto": "BUSTO ARSIZIO V.LE RIMEMBRANZE  53", "Comune": "BUSTO ARSIZIO", "idImpianto": 6459, "points": [{"type": "Feature", "properties": {}, "geometry": {"type": "Point", "coordinates": [8.833518582942133, 45.60909492679454]}}], "price": 1.859, "ultima_rilevazione": "09/05/2022 00:31:39"}, {"Gestore": "SERVIZI & GESTIONI ITALIA S.R.L.", "Bandiera": "Q8", "Tipo impianto": "Altro", "Indirizzo": "VIALE MALPENSA 19 21052", "Nome impianto": "BUSTO ARSIZIO VIALE MALPENSA 19", "Comune": "BUSTO ARSIZIO", "idImpianto": 23156, "points": [{"type": "Feature", "properties": {}, "geometry": {"type": "Point", "coordinates": [8.849781362951717, 45.63720059681254]}}], "price": 1.819, "ultima_rilevazione": "09/05/2022 00:31:40"}, {"Gestore": "SOMMESE CARBURANTE S.R.L.", "Bandiera": "Sommese Petroli", "Tipo impianto": "Altro", "Indirizzo": "Via Per Cassano 80 21052", "Nome impianto": "SOMMESE CARBURANTE BUSTO ", "Comune": "BUSTO ARSIZIO", "idImpianto": 39853, "points": [{"type": "Feature", "properties": {}, "geometry": {"type": "Point", "coordinates": [8.846336471163909, 45.636349970305154]}}], "price": 1.819, "ultima_rilevazione": "09/05/2022 07:22:05"}, {"Gestore": "KANT S.A.S. DI MASATO CHRISTIAN & C.", "Bandiera": "Tamoil", "Tipo impianto": "Altro", "Indirizzo": "VIA CASSANO MAGNAGO 60BIS 21052", "Nome impianto": "KANT SAS di Masato Christian", "Comune": "BUSTO ARSIZIO", "idImpianto": 14992, "points": [{"type": "Feature", "properties": {}, "geometry": {"type": "Point", "coordinates": [8.847899436950684, 45.63089004819352]}}], "price": 1.799, "ultima_rilevazione": "09/05/2022 07:28:07"}, {"Gestore": "SOMMESE CARBURANTE S.R.L.", "Bandiera": "Sommese Petroli", "Tipo impianto": "Altro", "Indirizzo": "VIA DON SELVA 16 21019", "Nome impianto": "SOMMESE CARBURANTE SOMMA", "Comune": "SOMMA LOMBARDO", "idImpianto": 13597, "points": [{"type": "Feature", "properties": {}, "geometry": {"type": "Point", "coordinates": [8.720258474349976, 45.687531263373096]}}], "price": 1.819, "ultima_rilevazione": "09/05/2022 07:40:07"}], "5": [{"Gestore": "MARINO ROCCO", "Bandiera": "Api-Ip", "Tipo impianto": "Altro", "Indirizzo": "VIALE BOCCACCIO 42 21052", "Nome impianto": "IP", "Comune": "BUSTO ARSIZIO", "idImpianto": 22418, "points": [{"type": "Feature", "properties": {}, "geometry": {"type": "Point", "coordinates": [8.860757946968079, 45.59867244590827]}}], "price": 1.869, "ultima_rilevazione": "03/05/2022 10:30:27"}, {"Gestore": "AMBROGIO MORO S.P.A.", "Bandiera": "Moro", "Tipo impianto": "Altro", "Indirizzo": "VIA DE GASPERI 15 21057", "Nome impianto": "Moro_Olgiate Olona", "Comune": "OLGIATE OLONA", "idImpianto": 29418, "points": [{"type": "Feature", "properties": {}, "geometry": {"type": "Point", "coordinates": [8.886073544774604, 45.62942081847766]}}], "price": 1.789, "ultima_rilevazione": "03/05/2022 16:57:48"}, {"Gestore": "V3 GARAGE S.A.S. DI VIGANO' PAOLO & C.", "Bandiera": "Esso", "Tipo impianto": "Altro", "Indirizzo": "VIA DEL LAVORO 26 21048", "Nome impianto": "V3 GARAGE SAS", "Comune": "SOLBIATE ARNO", "idImpianto": 26290, "points": [{"type": "Feature", "properties": {}, "geometry": {"type": "Point", "coordinates": [8.811409324407578, 45.71950060321544]}}], "price": 1.819, "ultima_rilevazione": "04/05/2022 17:06:51"}, {"Gestore": "CEPPI ROBERTO", "Bandiera": "Agip Eni", "Tipo impianto": "Altro", "Indirizzo": "VIA GIUSTI 110 21019", "Nome impianto": "ENI 2890 ", "Comune": "SOMMA LOMBARDO", "idImpianto": 44186, "points": [{"type": "Feature", "properties": {}, "geometry": {"type": "Point", "coordinates": [8.704129001234, 45.657395001234]}}], "price": 1.834, "ultima_rilevazione": "05/05/2022 08:07:07"}, {"Gestore": "RAIMONDI MAURO", "Bandiera": "Agip Eni", "Tipo impianto": "Altro", "Indirizzo": "VIA ARMANDO DIAZ 1 21057", "Nome impianto": "RAIMONDI MAURO", "Comune": "OLGIATE OLONA", "idImpianto": 14944, "points": [{"type": "Feature", "properties": {}, "geometry": {"type": "Point", "coordinates": [8.888167440891266, 45.63324351402306]}}], "price": 1.839, "ultima_rilevazione": "06/05/2022 07:57:00"}, {"Gestore": "TOTALERG DI GIUDICE LORENA", "Bandiera": "Api-Ip", "Tipo impianto": "Altro", "Indirizzo": "VIA XX SETTEMBRE 54 21052", "Nome impianto": "TotalErg ", "Comune": "BUSTO ARSIZIO", "idImpianto": 38454, "points": [{"type": "Feature", "properties": {}, "geometry": {"type": "Point", "coordinates": [8.866095088954921, 45.61281552864417]}}], "price": 1.839, "ultima_rilevazione": "06/05/2022 09:18:46"}, {"Gestore": "MENTASTI SERGIO", "Bandiera": "Api-Ip", "Tipo impianto": "Altro", "Indirizzo": "VIA CARONNO VARESINO 17 21048", "Nome impianto": "IP", "Comune": "SOLBIATE ARNO", "idImpianto": 45996, "points": [{"type": "Feature", "properties": {}, "geometry": {"type": "Point", "coordinates": [8.817383000123, 45.727061000123]}}], "price": 1.819, "ultima_rilevazione": "06/05/2022 09:51:54"}, {"Gestore": "ELDAGAS - S.R.L.", "Bandiera": "Pompe Bianche", "Tipo impianto": "Altro", "Indirizzo": "VIA MONTE ROSA 85 21050", "Nome impianto": "ELDA GAS 1", "Comune": "CAIRATE", "idImpianto": 47651, "points": [{"type": "Feature", "properties": {}, "geometry": {"type": "Point", "coordinates": [8.85530563558198, 45.68314771128692]}}], "price": 1.859, "ultima_rilevazione": "06/05/2022 11:57:37"}, {"Gestore": "IP SERVICES S.R.L.", "Bandiera": "Api-Ip", "Tipo impianto": "Altro", "Indirizzo": "VIALE BORRI 14 21052", "Nome impianto": "BUSTO ARSIZIO - BORRI 14", "Comune": "BUSTO ARSIZIO", "idImpianto": 29759, "points": [{"type": "Feature", "properties": {}, "geometry": {"type": "Point", "coordinates": [8.862762449073784, 45.606515011405214]}}], "price": 1.829, "ultima_rilevazione": "06/05/2022 12:04:37"}, {"Gestore": "IP SERVICES S.R.L.", "Bandiera": "Api-Ip", "Tipo impianto": "Altro", "Indirizzo": "Via Milano 98 21019", "Nome impianto": "SOMMA LOMBARDO", "Comune": "SOMMA LOMBARDO", "idImpianto": 5978, "points": [{"type": "Feature", "properties": {}, "geometry": {"type": "Point", "coordinates": [8.715226550926218, 45.6814719740126]}}], "price": 1.799, "ultima_rilevazione": "06/05/2022 12:05:28"}, {"Gestore": "GS SPA", "Bandiera": "Tamoil", "Tipo impianto": "Altro", "Indirizzo": "Corso XX settembre 91 21052", "Nome impianto": "Carrefour Tamoil Busto Arsizio", "Comune": "BUSTO ARSIZIO", "idImpianto": 48733, "points": [{"type": "Feature", "properties": {}, "geometry": {"type": "Point", "coordinates": [8.876524726736776, 45.61425777724803]}}], "price": 1.839, "ultima_rilevazione": "06/05/2022 16:23:39"}, {"Gestore": "GAIA S.A.S. DI GAIARIN DAVIDE & C.", "Bandiera": "Sommese Petroli", "Tipo impianto": "Altro", "Indirizzo": "VIA ARMANDO DIAZ 40 21054", "Nome impianto": "Gaia S.a.s.", "Comune": "FAGNANO OLONA", "idImpianto": 36188, "points": [{"type": "Feature", "properties": {}, "geometry": {"type": "Point", "coordinates": [8.867793474204973, 45.66553496346702]}}], "price": 1.819, "ultima_rilevazione": "08/05/2022 13:08:07"}, {"Gestore": "MAIORIELLO MARCO", "Bandiera": "Tamoil", "Tipo impianto": "Altro", "Indirizzo": "VIA  CARABELLI  4 21041", "Nome impianto": "MAIO  ALBIZZATE", "Comune": "ALBIZZATE", "idImpianto": 49086, "points": [{"type": "Feature", "properties": {}, "geometry": {"type": "Point", "coordinates": [8.799760626750434, 45.726971747716206]}}], "price": 1.859, "ultima_rilevazione": "08/05/2022 17:04:07"}, {"Gestore": "PAGANI ORNELLA", "Bandiera": "Tamoil", "Tipo impianto": "Altro", "Indirizzo": "via per carnago 3", "Nome impianto": "tamoil", "Comune": "SOLBIATE ARNO", "idImpianto": 15594, "points": [{"type": "Feature", "properties": {}, "geometry": {"type": "Point", "coordinates": [8.821405876721201, 45.71796479729656]}}], "price": 1.799, "ultima_rilevazione": "08/05/2022 18:02:11"}, {"Gestore": "SERVIZI & GESTIONI ITALIA S.R.L.", "Bandiera": "Q8", "Tipo impianto": "Altro", "Indirizzo": "VIALE BOCCACCIO 24 21052", "Nome impianto": "BUSTO ARSIZIO-VIALE BOCCACCIO 24", "Comune": "BUSTO ARSIZIO", "idImpianto": 11920, "points": [{"type": "Feature", "properties": {}, "geometry": {"type": "Point", "coordinates": [8.861526822090127, 45.60159704228577]}}], "price": 1.839, "ultima_rilevazione": "09/05/2022 00:31:39"}, {"Gestore": "SOMMESE CARBURANTE S.R.L.", "Bandiera": "Retitalia", "Tipo impianto": "Altro", "Indirizzo": "VIA ALCIDE DE GASPERI  126 21057", "Nome impianto": "SOMMESE CARBURANTE OLGIATE", "Comune": "OLGIATE OLONA", "idImpianto": 34089, "points": [{"type": "Feature", "properties": {}, "geometry": {"type": "Point", "coordinates": [8.88465194543835, 45.63889968669999]}}], "price": 1.799, "ultima_rilevazione": "09/05/2022 06:12:10"}, {"Gestore": "SOMMESE CARBURANTE S.R.L.", "Bandiera": "Sommese Petroli", "Tipo impianto": "Altro", "Indirizzo": "Via Giovanni Amendola 160 21052", "Nome impianto": "BUSTO VIA AMENDOLA", "Comune": "BUSTO ARSIZIO", "idImpianto": 50978, "points": [{"type": "Feature", "properties": {}, "geometry": {"type": "Point", "coordinates": [8.819097709966561, 45.60333064015385]}}], "price": 1.829, "ultima_rilevazione": "09/05/2022 07:32:09"}, {"Gestore": "ENI FUEL S.P.A.", "Bandiera": "Agip Eni", "Tipo impianto": "Altro", "Indirizzo": "VIA XX SETTEMBRE, 60  21052", "Nome impianto": "2807 \u2013 Busto Arsizio", "Comune": "BUSTO ARSIZIO", "idImpianto": 49792, "points": [{"type": "Feature", "properties": {}, "geometry": {"type": "Point", "coordinates": [8.867198119656962, 45.61297865138692]}}], "price": 1.839, "ultima_rilevazione": "09/05/2022 06:52:09"}, {"Gestore": "IAMETTI S.A.S. DI IAMETTI DANILO E MARCO", "Bandiera": "Agip Eni", "Tipo impianto": "Altro", "Indirizzo": "VIALE PIRANDELLO 2 21052", "Nome impianto": "IAMETTI SAS", "Comune": "BUSTO ARSIZIO", "idImpianto": 14390, "points": [{"type": "Feature", "properties": {}, "geometry": {"type": "Point", "coordinates": [8.847196151520507, 45.60283165537623]}}], "price": 1.839, "ultima_rilevazione": "09/05/2022 07:04:32"}]}, "Gasolio High Quality": {"1": [{"Gestore": "SEVERO CARBURANTI DI SEVERO ALESSANDRO", "Bandiera": "Sommese Petroli", "Tipo impianto": "Altro", "Indirizzo": "via gramsci 94 21010", "Nome impianto": "Sommese Petroli", "Comune": "CARDANO AL CAMPO", "idImpianto": 41177, "points": [{"type": "Feature", "properties": {}, "geometry": {"type": "Point", "coordinates": [8.766267714120886, 45.65280249852187]}}], "price": 1.929, "ultima_rilevazione": "29/04/2022 15:21:52"}], "3": [{"Gestore": "BRUSAMOLIN CATIA", "Bandiera": "Esso", "Tipo impianto": "Altro", "Indirizzo": "via giuseppe verdi 49 21017", "Nome impianto": "stazione di servizio Esso", "Comune": "SAMARATE", "idImpianto": 16269, "points": [{"type": "Feature", "properties": {}, "geometry": {"type": "Point", "coordinates": [8.780278166570952, 45.62814871832988]}}], "price": 1.979, "ultima_rilevazione": "03/05/2022 08:22:53"}, {"Gestore": "SOMMESE CARBURANTE S.R.L.", "Bandiera": "Sommese Petroli", "Tipo impianto": "Altro", "Indirizzo": "Via Per Cassano 80 21052", "Nome impianto": "SOMMESE CARBURANTE BUSTO ", "Comune": "BUSTO ARSIZIO", "idImpianto": 39853, "points": [{"type": "Feature", "properties": {}, "geometry": {"type": "Point", "coordinates": [8.846336471163909, 45.636349970305154]}}], "price": 1.949, "ultima_rilevazione": "09/05/2022 07:22:05"}], "5": [{"Gestore": "GAIA S.A.S. DI GAIARIN DAVIDE & C.", "Bandiera": "Sommese Petroli", "Tipo impianto": "Altro", "Indirizzo": "VIA ARMANDO DIAZ 40 21054", "Nome impianto": "Gaia S.a.s.", "Comune": "FAGNANO OLONA", "idImpianto": 36188, "points": [{"type": "Feature", "properties": {}, "geometry": {"type": "Point", "coordinates": [8.867793474204973, 45.66553496346702]}}], "price": 1.949, "ultima_rilevazione": "08/05/2022 13:08:07"}, {"Gestore": "SOMMESE CARBURANTE S.R.L.", "Bandiera": "Sommese Petroli", "Tipo impianto": "Altro", "Indirizzo": "Via Giovanni Amendola 160 21052", "Nome impianto": "BUSTO VIA AMENDOLA", "Comune": "BUSTO ARSIZIO", "idImpianto": 50978, "points": [{"type": "Feature", "properties": {}, "geometry": {"type": "Point", "coordinates": [8.819097709966561, 45.60333064015385]}}], "price": 1.949, "ultima_rilevazione": "09/05/2022 07:32:09"}]}, "null": {}, "GPL": {"1": [{"Gestore": "PREALPINA DISTRIBUZIONE CARBURANTI S.R.L.", "Bandiera": "Pompe Bianche", "Tipo impianto": "Altro", "Indirizzo": "VIA ROMA, ANG. MEDAGLIE D'ORO  21011", "Nome impianto": "PREALPINA DISTRIBUZIONE CARBURANTI SRL_", "Comune": "CASORATE SEMPIONE", "idImpianto": 4185, "points": [{"type": "Feature", "properties": {}, "geometry": {"type": "Point", "coordinates": [8.749526739120483, 45.66520207437205]}}], "price": 0.89, "ultima_rilevazione": "06/05/2022 10:16:38"}, {"Gestore": "PREALPINA DISTRIBUZIONE CARBURANTI S.R.L.", "Bandiera": "Pompe Bianche", "Tipo impianto": "Altro", "Indirizzo": "VIA ASSISI  21013", "Nome impianto": "PREALPINA DISTRIBUZIONE CARBURANTI SRL", "Comune": "GALLARATE", "idImpianto": 41799, "points": [{"type": "Feature", "properties": {}, "geometry": {"type": "Point", "coordinates": [8.777800717782725, 45.67986173067121]}}], "price": 0.89, "ultima_rilevazione": "06/05/2022 10:21:11"}, {"Gestore": "IP SERVICES S.R.L.", "Bandiera": "Api-Ip", "Tipo impianto": "Strada Statale", "Indirizzo": "Statale 336 dell'Aeroporto della Malpensa, Km. KM. 1,850, dir. BUSTO ARSIZIO 21052", "Nome impianto": "BUSTO ARSIZIO", "Comune": "BUSTO ARSIZIO", "idImpianto": 24961, "points": [{"type": "Feature", "properties": {}, "geometry": {"type": "Point", "coordinates": [8.8329019239427, 45.63975625942259]}}], "price": 0.799, "ultima_rilevazione": "06/05/2022 12:03:36"}, {"Gestore": "VARGAS SRL", "Bandiera": "Pompe Bianche", "Tipo impianto": "Altro", "Indirizzo": "VIA OLONA 181 21013", "Nome impianto": "vargas s.r.l.", "Comune": "GALLARATE", "idImpianto": 4135, "points": [{"type": "Feature", "properties": {}, "geometry": {"type": "Point", "coordinates": [8.816686804893493, 45.64914025334275]}}], "price": 0.869, "ultima_rilevazione": "09/05/2022 00:10:15"}], "3": [{"Gestore": "GARBINI S.R.L.", "Bandiera": "Agip Eni", "Tipo impianto": "Strada Statale", "Indirizzo": "Statale 336 dell'Aeroporto della Malpensa, Km. 8+500, dir. EST 21010", "Nome impianto": "MALPENSA EST", "Comune": "CARDANO AL CAMPO", "idImpianto": 4720, "points": [{"type": "Feature", "properties": {}, "geometry": {"type": "Point", "coordinates": [8.749292875674428, 45.64593014782805]}}], "price": 0.889, "ultima_rilevazione": "05/05/2022 09:54:51"}, {"Gestore": "PAGANINI ADELIO", "Bandiera": "Api-Ip", "Tipo impianto": "Autostradale", "Indirizzo": "DIRAMAZIONE A8/A26, Km. 6+100, Sud 21010", "Nome impianto": "VERBANO OVEST", "Comune": "ARSAGO SEPRIO", "idImpianto": 3934, "points": [{"type": "Feature", "properties": {}, "geometry": {"type": "Point", "coordinates": [8.735337853431702, 45.70280687466659]}}], "price": 0.894, "ultima_rilevazione": "06/05/2022 17:00:07"}], "5": [{"Gestore": "ELDAGAS - S.R.L.", "Bandiera": "Pompe Bianche", "Tipo impianto": "Altro", "Indirizzo": "VIA MONTE ROSA 85 21050", "Nome impianto": "ELDA GAS 1", "Comune": "CAIRATE", "idImpianto": 47651, "points": [{"type": "Feature", "properties": {}, "geometry": {"type": "Point", "coordinates": [8.85530563558198, 45.68314771128692]}}], "price": 0.809, "ultima_rilevazione": "06/05/2022 11:57:37"}]}, "Gasolio": {"1": [{"Gestore": "SHKAJOTI BEJNAZE", "Bandiera": "Esso", "Tipo impianto": "Altro", "Indirizzo": "Via  Varese  12 21013", "Nome impianto": "S.BH di Shkajoti Bejnaze  via Varese 12", "Comune": "GALLARATE", "idImpianto": 48839, "points": [{"type": "Feature", "properties": {}, "geometry": {"type": "Point", "coordinates": [8.797228116567592, 45.67434612584493]}}], "price": 1.789, "ultima_rilevazione": "07/05/2022 08:12:43"}, {"Gestore": "SEVERO CARBURANTI DI SEVERO ALESSANDRO", "Bandiera": "Sommese Petroli", "Tipo impianto": "Altro", "Indirizzo": "via gramsci 94 21010", "Nome impianto": "Sommese Petroli", "Comune": "CARDANO AL CAMPO", "idImpianto": 41177, "points": [{"type": "Feature", "properties": {}, "geometry": {"type": "Point", "coordinates": [8.766267714120886, 45.65280249852187]}}], "price": 1.829, "ultima_rilevazione": "29/04/2022 15:21:52"}, {"Gestore": "BUSELLATO MASSIMO", "Bandiera": "Agip Eni", "Tipo impianto": "Altro", "Indirizzo": "VIA AMBROSOLI ANG. VIA MILANO 15 21013", "Nome impianto": "ENI BUSELLATO", "Comune": "GALLARATE", "idImpianto": 40509, "points": [{"type": "Feature", "properties": {}, "geometry": {"type": "Point", "coordinates": [8.807483911514282, 45.65049049417369]}}], "price": 1.869, "ultima_rilevazione": "05/05/2022 07:54:36"}, {"Gestore": "LU.PI. DI LUCA PIVA", "Bandiera": "Agip Eni", "Tipo impianto": "Altro", "Indirizzo": "Via Carlo No\u00e8 48 21013", "Nome impianto": "Eni Station", "Comune": "GALLARATE", "idImpianto": 48492, "points": [{"type": "Feature", "properties": {}, "geometry": {"type": "Point", "coordinates": [8.782354151727843, 45.655678477844525]}}], "price": 1.864, "ultima_rilevazione": "05/05/2022 08:12:02"}, {"Gestore": "ELLEPI SERVICE DI LUCA PULVIRENTI", "Bandiera": "Agip Eni", "Tipo impianto": "Altro", "Indirizzo": "via ercole ferrario 1 21013", "Nome impianto": "02908", "Comune": "GALLARATE", "idImpianto": 28790, "points": [{"type": "Feature", "properties": {}, "geometry": {"type": "Point", "coordinates": [8.792808172521973, 45.65281493830711]}}], "price": 1.864, "ultima_rilevazione": "05/05/2022 11:41:55"}, {"Gestore": "COZZI ANDREA", "Bandiera": "Agip Eni", "Tipo impianto": "Altro", "Indirizzo": "VIA VARESE 14 21013", "Nome impianto": "ENI", "Comune": "GALLARATE", "idImpianto": 28889, "points": [{"type": "Feature", "properties": {}, "geometry": {"type": "Point", "coordinates": [8.797299733729574, 45.67431099042725]}}], "price": 1.864, "ultima_rilevazione": "05/05/2022 16:39:03"}, {"Gestore": "BROMAR S.N.C. DI BROCCOLO SONIA E C.", "Bandiera": "Q8", "Tipo impianto": "Altro", "Indirizzo": "VIA TORINO, ANGOLO VIA CHECCHI 82 21013", "Nome impianto": "BROMAR S.N.C.", "Comune": "GALLARATE", "idImpianto": 10555, "points": [{"type": "Feature", "properties": {}, "geometry": {"type": "Point", "coordinates": [8.792936000123, 45.644901000123]}}], "price": 1.889, "ultima_rilevazione": "06/05/2022 08:54:56"}, {"Gestore": "PREALPINA DISTRIBUZIONE CARBURANTI S.R.L.", "Bandiera": "Pompe Bianche", "Tipo impianto": "Altro", "Indirizzo": "VIA ROMA, ANG. MEDAGLIE D'ORO  21011", "Nome impianto": "PREALPINA DISTRIBUZIONE CARBURANTI SRL_", "Comune": "CASORATE SEMPIONE", "idImpianto": 4185, "points": [{"type": "Feature", "properties": {}, "geometry": {"type": "Point", "coordinates": [8.749526739120483, 45.66520207437205]}}], "price": 1.838, "ultima_rilevazione": "06/05/2022 10:16:38"}, {"Gestore": "PREALPINA DISTRIBUZIONE CARBURANTI S.R.L.", "Bandiera": "Pompe Bianche", "Tipo impianto": "Altro", "Indirizzo": "VIA ASSISI  21013", "Nome impianto": "PREALPINA DISTRIBUZIONE CARBURANTI SRL", "Comune": "GALLARATE", "idImpianto": 41799, "points": [{"type": "Feature", "properties": {}, "geometry": {"type": "Point", "coordinates": [8.777800717782725, 45.67986173067121]}}], "price": 1.838, "ultima_rilevazione": "06/05/2022 10:21:11"}, {"Gestore": "PREALPINA DISTRIBUZIONE CARBURANTI S.R.L.", "Bandiera": "Pompe Bianche", "Tipo impianto": "Altro", "Indirizzo": "VIA MONTE SAN MARTINO 19 21013", "Nome impianto": "PREALPINA DISTRIBUZIONE CARBURANTI SRL", "Comune": "GALLARATE", "idImpianto": 41800, "points": [{"type": "Feature", "properties": {}, "geometry": {"type": "Point", "coordinates": [8.774024695158005, 45.66904496299664]}}], "price": 1.838, "ultima_rilevazione": "06/05/2022 10:22:00"}, {"Gestore": "IP SERVICES S.R.L.", "Bandiera": "Api-Ip", "Tipo impianto": "Altro", "Indirizzo": "VIA CARLO NOE' 35  21013", "Nome impianto": "GALLARATE  - CARLO NOE' 35", "Comune": "GALLARATE", "idImpianto": 24620, "points": [{"type": "Feature", "properties": {}, "geometry": {"type": "Point", "coordinates": [8.783059766864653, 45.66112624437493]}}], "price": 1.849, "ultima_rilevazione": "06/05/2022 12:01:53"}, {"Gestore": "IP SERVICES S.R.L.", "Bandiera": "Api-Ip", "Tipo impianto": "Strada Statale", "Indirizzo": "Statale 336 dell'Aeroporto della Malpensa, Km. KM. 1,850, dir. BUSTO ARSIZIO 21052", "Nome impianto": "BUSTO ARSIZIO", "Comune": "BUSTO ARSIZIO", "idImpianto": 24961, "points": [{"type": "Feature", "properties": {}, "geometry": {"type": "Point", "coordinates": [8.8329019239427, 45.63975625942259]}}], "price": 1.859, "ultima_rilevazione": "06/05/2022 12:03:36"}, {"Gestore": "IP SERVICES S.R.L.", "Bandiera": "Api-Ip", "Tipo impianto": "Altro", "Indirizzo": "via Sanzio 15 21013", "Nome impianto": "Gallarate Sanzio", "Comune": "GALLARATE", "idImpianto": 38380, "points": [{"type": "Feature", "properties": {}, "geometry": {"type": "Point", "coordinates": [8.795668647815774, 45.66804046676662]}}], "price": 1.829, "ultima_rilevazione": "06/05/2022 12:05:34"}, {"Gestore": "IP SERVICES S.R.L.", "Bandiera": "Api-Ip", "Tipo impianto": "Altro", "Indirizzo": "Via Torino   21013", "Nome impianto": "Gallarate via Torino", "Comune": "GALLARATE", "idImpianto": 10130, "points": [{"type": "Feature", "properties": {}, "geometry": {"type": "Point", "coordinates": [8.79481032023773, 45.65067258728234]}}], "price": 1.859, "ultima_rilevazione": "06/05/2022 12:07:46"}, {"Gestore": "LO TURCO BRUNO", "Bandiera": "Pompe Bianche", "Tipo impianto": "Altro", "Indirizzo": "Via.C.Noe 43 21013", "Nome impianto": "Distributore Lo Turco Bruno", "Comune": "GALLARATE", "idImpianto": 17205, "points": [{"type": "Feature", "properties": {}, "geometry": {"type": "Point", "coordinates": [8.782966448561638, 45.658904859555896]}}], "price": 1.849, "ultima_rilevazione": "06/05/2022 14:02:27"}, {"Gestore": "CASTELLANELLI S.N.C. DI CASTELLANELLI PIETRO & C.", "Bandiera": "Tamoil", "Tipo impianto": "Altro", "Indirizzo": "VIA TRIESTE 37 21011", "Nome impianto": "Castellanelli", "Comune": "CASORATE SEMPIONE", "idImpianto": 19081, "points": [{"type": "Feature", "properties": {}, "geometry": {"type": "Point", "coordinates": [8.754543108003986, 45.6713737257454]}}], "price": 1.889, "ultima_rilevazione": "08/05/2022 09:48:08"}, {"Gestore": "MAIORIELLO MARCO", "Bandiera": "Tamoil", "Tipo impianto": "Altro", "Indirizzo": "VIA RONCHETTI 30 21044", "Nome impianto": "TAMOIL DI MAIORIELLO  MARCO", "Comune": "CAVARIA CON PREMEZZO", "idImpianto": 33723, "points": [{"type": "Feature", "properties": {}, "geometry": {"type": "Point", "coordinates": [8.801982700824738, 45.69239708563681]}}], "price": 1.849, "ultima_rilevazione": "09/05/2022 07:14:09"}, {"Gestore": "SOMMESE CARBURANTE S.R.L.", "Bandiera": "Sommese Petroli", "Tipo impianto": "Strada Statale", "Indirizzo": "33 del Sempione, Km. 40+252, nord 21013", "Nome impianto": "SOMMESE - SEMPIONE", "Comune": "GALLARATE", "idImpianto": 43823, "points": [{"type": "Feature", "properties": {}, "geometry": {"type": "Point", "coordinates": [8.778295516967773, 45.66498502191534]}}], "price": 1.829, "ultima_rilevazione": "08/05/2022 14:06:10"}, {"Gestore": "VARGAS SRL", "Bandiera": "Pompe Bianche", "Tipo impianto": "Altro", "Indirizzo": "VIA OLONA 181 21013", "Nome impianto": "vargas s.r.l.", "Comune": "GALLARATE", "idImpianto": 4135, "points": [{"type": "Feature", "properties": {}, "geometry": {"type": "Point", "coordinates": [8.816686804893493, 45.64914025334275]}}], "price": 1.799, "ultima_rilevazione": "09/05/2022 00:10:15"}, {"Gestore": "GESTIONI INNOVATIVE ITALIA S.R.L.", "Bandiera": "Agip Eni", "Tipo impianto": "Altro", "Indirizzo": "VIA IV NOVEMBRE 16, 21012", "Nome impianto": "PV 2828", "Comune": "CASSANO MAGNAGO", "idImpianto": 25391, "points": [{"type": "Feature", "properties": {}, "geometry": {"type": "Point", "coordinates": [8.822863698005676, 45.67164085351821]}}], "price": 1.829, "ultima_rilevazione": "09/05/2022 00:12:08"}, {"Gestore": "SERVIZI & GESTIONI ITALIA srl", "Bandiera": "Q8", "Tipo impianto": "Altro", "Indirizzo": "VIA C. NOE' 79 21013", "Nome impianto": "GALLARATE VIA C. NOE' 79", "Comune": "GALLARATE", "idImpianto": 6458, "points": [{"type": "Feature", "properties": {}, "geometry": {"type": "Point", "coordinates": [8.782875680950951, 45.655528206039214]}}], "price": 1.839, "ultima_rilevazione": "09/05/2022 00:31:38"}, {"Gestore": "SERVIZI & GESTIONI ITALIA S.R.L.", "Bandiera": "Q8", "Tipo impianto": "Altro", "Indirizzo": "VIA ERCOLE FERRARIO 37 SS. 33 21013", "Nome impianto": "GALLARATE - VIA ERCOLE FERRARIO 37 SS.", "Comune": "GALLARATE", "idImpianto": 31851, "points": [{"type": "Feature", "properties": {}, "geometry": {"type": "Point", "coordinates": [8.785941079258919, 45.65343803154252]}}], "price": 1.839, "ultima_rilevazione": "09/05/2022 00:31:39"}, {"Gestore": "SOMMESE CARBURANTE S.R.L.", "Bandiera": "Sommese Petroli", "Tipo impianto": "Altro", "Indirizzo": "VIALE MILANO 33 21013", "Nome impianto": "SOMMESE CARBURANTE VIALE MILANO", "Comune": "GALLARATE", "idImpianto": 34333, "points": [{"type": "Feature", "properties": {}, "geometry": {"type": "Point", "coordinates": [8.801605022186209, 45.655140743708245]}}], "price": 1.829, "ultima_rilevazione": "09/05/2022 06:04:08"}, {"Gestore": "C.R. S.N.C. DI CANDIANI SIMONE  &  RAVASI PAOLO", "Bandiera": "Agip Eni", "Tipo impianto": "Altro", "Indirizzo": "VIA TORINO 76 21013", "Nome impianto": "crsnc", "Comune": "GALLARATE", "idImpianto": 10817, "points": [{"type": "Feature", "properties": {}, "geometry": {"type": "Point", "coordinates": [8.793311690807286, 45.64576312759459]}}], "price": 1.869, "ultima_rilevazione": "09/05/2022 06:26:05"}, {"Gestore": "GAVAZZI MARCO", "Bandiera": "Sommese Petroli", "Tipo impianto": "Altro", "Indirizzo": "VIA CAPPUCCINI 20 21013", "Nome impianto": "SOMMESE gallarate", "Comune": "GALLARATE", "idImpianto": 34446, "points": [{"type": "Feature", "properties": {}, "geometry": {"type": "Point", "coordinates": [8.78462332431286, 45.64854362799238]}}], "price": 1.849, "ultima_rilevazione": "09/05/2022 06:50:09"}, {"Gestore": "CAR-TEL S.N.C. DI TELESCA R.  &  CARTINI M. L.", "Bandiera": "Sommese Petroli", "Tipo impianto": "Altro", "Indirizzo": "Via Venegoni 14/16, 21012  21012", "Nome impianto": "Sommese Petroli ", "Comune": "CASSANO MAGNAGO", "idImpianto": 21271, "points": [{"type": "Feature", "properties": {}, "geometry": {"type": "Point", "coordinates": [8.816861055819686, 45.66864118622309]}}], "price": 1.839, "ultima_rilevazione": "09/05/2022 06:56:12"}, {"Gestore": "SOMMESE CARBURANTE S.R.L.", "Bandiera": "Sommese Petroli", "Tipo impianto": "Altro", "Indirizzo": "Via Luigi Riva 21 21013", "Nome impianto": "SOMMESE CARBURANTE VIA RIVA", "Comune": "GALLARATE", "idImpianto": 42778, "points": [{"type": "Feature", "properties": {}, "geometry": {"type": "Point", "coordinates": [8.79571833372961, 45.66626589283417]}}], "price": 1.849, "ultima_rilevazione": "09/05/2022 07:12:11"}], "3": [{"Gestore": "VINCI S.A.S. DI VINCI SALVATORE & C.", "Bandiera": "Agip Eni", "Tipo impianto": "Altro", "Indirizzo": "via busto fagnano 36 21057", "Nome impianto": "02874 OLGIATE OLONA", "Comune": "OLGIATE OLONA", "idImpianto": 7166, "points": [{"type": "Feature", "properties": {}, "geometry": {"type": "Point", "coordinates": [8.858649730682373, 45.631588145862736]}}], "price": 2.244, "ultima_rilevazione": "05/05/2022 19:32:31"}, {"Gestore": "BRUSAMOLIN CATIA", "Bandiera": "Esso", "Tipo impianto": "Altro", "Indirizzo": "via giuseppe verdi 49 21017", "Nome impianto": "stazione di servizio Esso", "Comune": "SAMARATE", "idImpianto": 16269, "points": [{"type": "Feature", "properties": {}, "geometry": {"type": "Point", "coordinates": [8.780278166570952, 45.62814871832988]}}], "price": 1.829, "ultima_rilevazione": "03/05/2022 08:22:53"}, {"Gestore": "DO & FA SNC DI CANNATA' DOMENICO E C.", "Bandiera": "Api-Ip", "Tipo impianto": "Altro", "Indirizzo": "VIA MARCONI 125 21012", "Nome impianto": "DO&FA SNC", "Comune": "CASSANO MAGNAGO", "idImpianto": 44282, "points": [{"type": "Feature", "properties": {}, "geometry": {"type": "Point", "coordinates": [8.821145000123, 45.690611000123]}}], "price": 1.799, "ultima_rilevazione": "03/05/2022 11:04:55"}, {"Gestore": "GARBINI S.P.A.", "Bandiera": "Pompe Bianche", "Tipo impianto": "Altro", "Indirizzo": "Via Giovanni Agusta 504 21017", "Nome impianto": "Agip", "Comune": "SAMARATE", "idImpianto": 45200, "points": [{"type": "Feature", "properties": {}, "geometry": {"type": "Point", "coordinates": [8.748867898147637, 45.63173604591536]}}], "price": 1.849, "ultima_rilevazione": "04/05/2022 12:26:48"}, {"Gestore": "BEMA SAS DI ANDREA BERTOLASO & C.", "Bandiera": "Agip Eni", "Tipo impianto": "Altro", "Indirizzo": "VIA BONICALZA 127 21012", "Nome impianto": "Eni 02862 Cassano Magnago", "Comune": "CASSANO MAGNAGO", "idImpianto": 45389, "points": [{"type": "Feature", "properties": {}, "geometry": {"type": "Point", "coordinates": [8.843454000123, 45.660386000123]}}], "price": 1.864, "ultima_rilevazione": "05/05/2022 06:51:03"}, {"Gestore": "CEPPI ROBERTO", "Bandiera": "Agip Eni", "Tipo impianto": "Altro", "Indirizzo": "VIALE ARMANDO DIAZ 28 21052", "Nome impianto": "ENI PV 02805", "Comune": "BUSTO ARSIZIO", "idImpianto": 38949, "points": [{"type": "Feature", "properties": {}, "geometry": {"type": "Point", "coordinates": [8.852900235581956, 45.62159883144696]}}], "price": 1.864, "ultima_rilevazione": "05/05/2022 08:05:54"}, {"Gestore": "DEDA ASTRIT", "Bandiera": "Agip Eni", "Tipo impianto": "Altro", "Indirizzo": "VIA PER FAGNANO 32 21052", "Nome impianto": "eni 52359", "Comune": "BUSTO ARSIZIO", "idImpianto": 46044, "points": [{"type": "Feature", "properties": {}, "geometry": {"type": "Point", "coordinates": [8.857783000123, 45.626435000123]}}], "price": 1.869, "ultima_rilevazione": "05/05/2022 08:45:17"}, {"Gestore": "GARBINI S.R.L.", "Bandiera": "Agip Eni", "Tipo impianto": "Strada Statale", "Indirizzo": "Statale 336 dell'Aeroporto della Malpensa, Km. 8+500, dir. EST 21010", "Nome impianto": "MALPENSA EST", "Comune": "CARDANO AL CAMPO", "idImpianto": 4720, "points": [{"type": "Feature", "properties": {}, "geometry": {"type": "Point", "coordinates": [8.749292875674428, 45.64593014782805]}}], "price": 1.884, "ultima_rilevazione": "05/05/2022 09:54:51"}, {"Gestore": "TURRI VERONICA", "Bandiera": "KEROPETROL", "Tipo impianto": "Altro", "Indirizzo": "VIA MILANO 3 21040", "Nome impianto": "Keropetrol", "Comune": "JERAGO CON ORAGO", "idImpianto": 29438, "points": [{"type": "Feature", "properties": {}, "geometry": {"type": "Point", "coordinates": [8.795823352184243, 45.70695030184689]}}], "price": 1.839, "ultima_rilevazione": "05/05/2022 12:11:56"}, {"Gestore": "IP SERVICES S.R.L.", "Bandiera": "Api-Ip", "Tipo impianto": "Altro", "Indirizzo": "S.P. 12 VIA COMO  21050", "Nome impianto": "CAIRATE - BOLLADELLO", "Comune": "CAIRATE", "idImpianto": 36260, "points": [{"type": "Feature", "properties": {}, "geometry": {"type": "Point", "coordinates": [8.844366107969336, 45.68073092003936]}}], "price": 1.819, "ultima_rilevazione": "06/05/2022 12:01:30"}, {"Gestore": "IP SERVICES S.R.L.", "Bandiera": "Api-Ip", "Tipo impianto": "Altro", "Indirizzo": "VIA PER FAGNANO 46 21057", "Nome impianto": "OLGIATE OLONA", "Comune": "OLGIATE OLONA", "idImpianto": 27295, "points": [{"type": "Feature", "properties": {}, "geometry": {"type": "Point", "coordinates": [8.85911206994058, 45.63571781676173]}}], "price": 1.869, "ultima_rilevazione": "06/05/2022 12:01:47"}, {"Gestore": "IP SERVICES S.R.L.", "Bandiera": "Api-Ip", "Tipo impianto": "Altro", "Indirizzo": "Via per Busto   21058", "Nome impianto": "SOLBIATE OLONA", "Comune": "SOLBIATE OLONA", "idImpianto": 10096, "points": [{"type": "Feature", "properties": {}, "geometry": {"type": "Point", "coordinates": [8.865092396736145, 45.64576541117171]}}], "price": 1.869, "ultima_rilevazione": "06/05/2022 12:07:24"}, {"Gestore": "PAGANINI ADELIO", "Bandiera": "Api-Ip", "Tipo impianto": "Autostradale", "Indirizzo": "DIRAMAZIONE A8/A26, Km. 6+100, Sud 21010", "Nome impianto": "VERBANO OVEST", "Comune": "ARSAGO SEPRIO", "idImpianto": 3934, "points": [{"type": "Feature", "properties": {}, "geometry": {"type": "Point", "coordinates": [8.735337853431702, 45.70280687466659]}}], "price": 1.949, "ultima_rilevazione": "06/05/2022 17:00:07"}, {"Gestore": "LEPRI MARCO", "Bandiera": "Esso", "Tipo impianto": "Strada Statale", "Indirizzo": "Statale 33 del Sempione, Km. 144, dir. NORD 21052", "Nome impianto": "ESSO SEMPIONE", "Comune": "BUSTO ARSIZIO", "idImpianto": 9058, "points": [{"type": "Feature", "properties": {}, "geometry": {"type": "Point", "coordinates": [8.841612339019775, 45.62873718186091]}}], "price": 1.829, "ultima_rilevazione": "06/05/2022 17:56:04"}, {"Gestore": "LEPRI MARCO", "Bandiera": "Esso", "Tipo impianto": "Altro", "Indirizzo": "CORSO ITALIA  21052", "Nome impianto": "ESSO ITALIA", "Comune": "BUSTO ARSIZIO", "idImpianto": 9059, "points": [{"type": "Feature", "properties": {}, "geometry": {"type": "Point", "coordinates": [8.83901059627533, 45.615347715796815]}}], "price": 1.829, "ultima_rilevazione": "06/05/2022 17:58:34"}, {"Gestore": "BOSATELLI BRUNO & C. - S.A.S.", "Bandiera": "Esso", "Tipo impianto": "Altro", "Indirizzo": "VIA PER FAGNANO 24 21052", "Nome impianto": "ESSO", "Comune": "BUSTO ARSIZIO", "idImpianto": 10021, "points": [{"type": "Feature", "properties": {}, "geometry": {"type": "Point", "coordinates": [8.857867866754532, 45.62548446746924]}}], "price": 1.829, "ultima_rilevazione": "06/05/2022 18:08:30"}, {"Gestore": "MAZZARELLO SABRINA", "Bandiera": "Api-Ip", "Tipo impianto": "Autostradale", "Indirizzo": "Autostrada DIRAMAZIONE A8/A26, Km. 6+100, dir. Nord 21010", "Nome impianto": "VERBANO EST", "Comune": "ARSAGO SEPRIO", "idImpianto": 27931, "points": [{"type": "Feature", "properties": {}, "geometry": {"type": "Point", "coordinates": [8.73545821586913, 45.70360452107339]}}], "price": 1.929, "ultima_rilevazione": "07/05/2022 13:15:30"}, {"Gestore": "SERVIZI & GESTIONI ITALIA S.R.L.", "Bandiera": "Q8", "Tipo impianto": "Altro", "Indirizzo": "CORSO ITALIA 23 21052", "Nome impianto": "BUSTO ARSIZIO-CORSO ITALIA 23", "Comune": "BUSTO ARSIZIO", "idImpianto": 11922, "points": [{"type": "Feature", "properties": {}, "geometry": {"type": "Point", "coordinates": [8.846762449073822, 45.62081875947187]}}], "price": 1.879, "ultima_rilevazione": "09/05/2022 00:31:39"}, {"Gestore": "SERVIZI & GESTIONI ITALIA srl", "Bandiera": "Q8", "Tipo impianto": "Altro", "Indirizzo": "V.LE RIMEMBRANZE 53 21052", "Nome impianto": "BUSTO ARSIZIO V.LE RIMEMBRANZE  53", "Comune": "BUSTO ARSIZIO", "idImpianto": 6459, "points": [{"type": "Feature", "properties": {}, "geometry": {"type": "Point", "coordinates": [8.833518582942133, 45.60909492679454]}}], "price": 1.869, "ultima_rilevazione": "09/05/2022 00:31:39"}, {"Gestore": "SERVIZI & GESTIONI ITALIA S.R.L.", "Bandiera": "Q8", "Tipo impianto": "Altro", "Indirizzo": "VIALE MALPENSA 19 21052", "Nome impianto": "BUSTO ARSIZIO VIALE MALPENSA 19", "Comune": "BUSTO ARSIZIO", "idImpianto": 23156, "points": [{"type": "Feature", "properties": {}, "geometry": {"type": "Point", "coordinates": [8.849781362951717, 45.63720059681254]}}], "price": 1.849, "ultima_rilevazione": "09/05/2022 00:31:40"}, {"Gestore": "SOMMESE CARBURANTE S.R.L.", "Bandiera": "Sommese Petroli", "Tipo impianto": "Altro", "Indirizzo": "Via Per Cassano 80 21052", "Nome impianto": "SOMMESE CARBURANTE BUSTO ", "Comune": "BUSTO ARSIZIO", "idImpianto": 39853, "points": [{"type": "Feature", "properties": {}, "geometry": {"type": "Point", "coordinates": [8.846336471163909, 45.636349970305154]}}], "price": 1.849, "ultima_rilevazione": "09/05/2022 07:22:05"}, {"Gestore": "KANT S.A.S. DI MASATO CHRISTIAN & C.", "Bandiera": "Tamoil", "Tipo impianto": "Altro", "Indirizzo": "VIA CASSANO MAGNAGO 60BIS 21052", "Nome impianto": "KANT SAS di Masato Christian", "Comune": "BUSTO ARSIZIO", "idImpianto": 14992, "points": [{"type": "Feature", "properties": {}, "geometry": {"type": "Point", "coordinates": [8.847899436950684, 45.63089004819352]}}], "price": 1.839, "ultima_rilevazione": "09/05/2022 07:28:07"}, {"Gestore": "SOMMESE CARBURANTE S.R.L.", "Bandiera": "Sommese Petroli", "Tipo impianto": "Altro", "Indirizzo": "VIA DON SELVA 16 21019", "Nome impianto": "SOMMESE CARBURANTE SOMMA", "Comune": "SOMMA LOMBARDO", "idImpianto": 13597, "points": [{"type": "Feature", "properties": {}, "geometry": {"type": "Point", "coordinates": [8.720258474349976, 45.687531263373096]}}], "price": 1.849, "ultima_rilevazione": "09/05/2022 07:40:07"}], "5": [{"Gestore": "MARINO ROCCO", "Bandiera": "Api-Ip", "Tipo impianto": "Altro", "Indirizzo": "VIALE BOCCACCIO 42 21052", "Nome impianto": "IP", "Comune": "BUSTO ARSIZIO", "idImpianto": 22418, "points": [{"type": "Feature", "properties": {}, "geometry": {"type": "Point", "coordinates": [8.860757946968079, 45.59867244590827]}}], "price": 1.889, "ultima_rilevazione": "03/05/2022 10:30:27"}, {"Gestore": "AMBROGIO MORO S.P.A.", "Bandiera": "Moro", "Tipo impianto": "Altro", "Indirizzo": "VIA DE GASPERI 15 21057", "Nome impianto": "Moro_Olgiate Olona", "Comune": "OLGIATE OLONA", "idImpianto": 29418, "points": [{"type": "Feature", "properties": {}, "geometry": {"type": "Point", "coordinates": [8.886073544774604, 45.62942081847766]}}], "price": 1.829, "ultima_rilevazione": "03/05/2022 16:57:48"}, {"Gestore": "V3 GARAGE S.A.S. DI VIGANO' PAOLO & C.", "Bandiera": "Esso", "Tipo impianto": "Altro", "Indirizzo": "VIA DEL LAVORO 26 21048", "Nome impianto": "V3 GARAGE SAS", "Comune": "SOLBIATE ARNO", "idImpianto": 26290, "points": [{"type": "Feature", "properties": {}, "geometry": {"type": "Point", "coordinates": [8.811409324407578, 45.71950060321544]}}], "price": 1.869, "ultima_rilevazione": "04/05/2022 17:06:51"}, {"Gestore": "CEPPI ROBERTO", "Bandiera": "Agip Eni", "Tipo impianto": "Altro", "Indirizzo": "VIA GIUSTI 110 21019", "Nome impianto": "ENI 2890 ", "Comune": "SOMMA LOMBARDO", "idImpianto": 44186, "points": [{"type": "Feature", "properties": {}, "geometry": {"type": "Point", "coordinates": [8.704129001234, 45.657395001234]}}], "price": 1.864, "ultima_rilevazione": "05/05/2022 08:07:07"}, {"Gestore": "RAIMONDI MAURO", "Bandiera": "Agip Eni", "Tipo impianto": "Altro", "Indirizzo": "VIA ARMANDO DIAZ 1 21057", "Nome impianto": "RAIMONDI MAURO", "Comune": "OLGIATE OLONA", "idImpianto": 14944, "points": [{"type": "Feature", "properties": {}, "geometry": {"type": "Point", "coordinates": [8.888167440891266, 45.63324351402306]}}], "price": 1.869, "ultima_rilevazione": "06/05/2022 07:57:00"}, {"Gestore": "TOTALERG DI GIUDICE LORENA", "Bandiera": "Api-Ip", "Tipo impianto": "Altro", "Indirizzo": "VIA XX SETTEMBRE 54 21052", "Nome impianto": "TotalErg ", "Comune": "BUSTO ARSIZIO", "idImpianto": 38454, "points": [{"type": "Feature", "properties": {}, "geometry": {"type": "Point", "coordinates": [8.866095088954921, 45.61281552864417]}}], "price": 1.869, "ultima_rilevazione": "06/05/2022 09:18:46"}, {"Gestore": "MENTASTI SERGIO", "Bandiera": "Api-Ip", "Tipo impianto": "Altro", "Indirizzo": "VIA CARONNO VARESINO 17 21048", "Nome impianto": "IP", "Comune": "SOLBIATE ARNO", "idImpianto": 45996, "points": [{"type": "Feature", "properties": {}, "geometry": {"type": "Point", "coordinates": [8.817383000123, 45.727061000123]}}], "price": 1.859, "ultima_rilevazione": "06/05/2022 09:51:54"}, {"Gestore": "ELDAGAS - S.R.L.", "Bandiera": "Pompe Bianche", "Tipo impianto": "Altro", "Indirizzo": "VIA MONTE ROSA 85 21050", "Nome impianto": "ELDA GAS 1", "Comune": "CAIRATE", "idImpianto": 47651, "points": [{"type": "Feature", "properties": {}, "geometry": {"type": "Point", "coordinates": [8.85530563558198, 45.68314771128692]}}], "price": 1.849, "ultima_rilevazione": "06/05/2022 11:57:37"}, {"Gestore": "IP SERVICES S.R.L.", "Bandiera": "Api-Ip", "Tipo impianto": "Altro", "Indirizzo": "VIALE BORRI 14 21052", "Nome impianto": "BUSTO ARSIZIO - BORRI 14", "Comune": "BUSTO ARSIZIO", "idImpianto": 29759, "points": [{"type": "Feature", "properties": {}, "geometry": {"type": "Point", "coordinates": [8.862762449073784, 45.606515011405214]}}], "price": 1.859, "ultima_rilevazione": "06/05/2022 12:04:37"}, {"Gestore": "IP SERVICES S.R.L.", "Bandiera": "Api-Ip", "Tipo impianto": "Altro", "Indirizzo": "Via Milano 98 21019", "Nome impianto": "SOMMA LOMBARDO", "Comune": "SOMMA LOMBARDO", "idImpianto": 5978, "points": [{"type": "Feature", "properties": {}, "geometry": {"type": "Point", "coordinates": [8.715226550926218, 45.6814719740126]}}], "price": 1.819, "ultima_rilevazione": "06/05/2022 12:05:28"}, {"Gestore": "GS SPA", "Bandiera": "Tamoil", "Tipo impianto": "Altro", "Indirizzo": "Corso XX settembre 91 21052", "Nome impianto": "Carrefour Tamoil Busto Arsizio", "Comune": "BUSTO ARSIZIO", "idImpianto": 48733, "points": [{"type": "Feature", "properties": {}, "geometry": {"type": "Point", "coordinates": [8.876524726736776, 45.61425777724803]}}], "price": 1.859, "ultima_rilevazione": "06/05/2022 16:23:39"}, {"Gestore": "GAIA S.A.S. DI GAIARIN DAVIDE & C.", "Bandiera": "Sommese Petroli", "Tipo impianto": "Altro", "Indirizzo": "VIA ARMANDO DIAZ 40 21054", "Nome impianto": "Gaia S.a.s.", "Comune": "FAGNANO OLONA", "idImpianto": 36188, "points": [{"type": "Feature", "properties": {}, "geometry": {"type": "Point", "coordinates": [8.867793474204973, 45.66553496346702]}}], "price": 1.849, "ultima_rilevazione": "08/05/2022 13:08:07"}, {"Gestore": "MAIORIELLO MARCO", "Bandiera": "Tamoil", "Tipo impianto": "Altro", "Indirizzo": "VIA  CARABELLI  4 21041", "Nome impianto": "MAIO  ALBIZZATE", "Comune": "ALBIZZATE", "idImpianto": 49086, "points": [{"type": "Feature", "properties": {}, "geometry": {"type": "Point", "coordinates": [8.799760626750434, 45.726971747716206]}}], "price": 1.879, "ultima_rilevazione": "08/05/2022 17:04:07"}, {"Gestore": "PAGANI ORNELLA", "Bandiera": "Tamoil", "Tipo impianto": "Altro", "Indirizzo": "via per carnago 3", "Nome impianto": "tamoil", "Comune": "SOLBIATE ARNO", "idImpianto": 15594, "points": [{"type": "Feature", "properties": {}, "geometry": {"type": "Point", "coordinates": [8.821405876721201, 45.71796479729656]}}], "price": 1.849, "ultima_rilevazione": "08/05/2022 18:02:11"}, {"Gestore": "SERVIZI & GESTIONI ITALIA S.R.L.", "Bandiera": "Q8", "Tipo impianto": "Altro", "Indirizzo": "VIALE BOCCACCIO 24 21052", "Nome impianto": "BUSTO ARSIZIO-VIALE BOCCACCIO 24", "Comune": "BUSTO ARSIZIO", "idImpianto": 11920, "points": [{"type": "Feature", "properties": {}, "geometry": {"type": "Point", "coordinates": [8.861526822090127, 45.60159704228577]}}], "price": 1.859, "ultima_rilevazione": "09/05/2022 00:31:39"}, {"Gestore": "SOMMESE CARBURANTE S.R.L.", "Bandiera": "Retitalia", "Tipo impianto": "Altro", "Indirizzo": "VIA ALCIDE DE GASPERI  126 21057", "Nome impianto": "SOMMESE CARBURANTE OLGIATE", "Comune": "OLGIATE OLONA", "idImpianto": 34089, "points": [{"type": "Feature", "properties": {}, "geometry": {"type": "Point", "coordinates": [8.88465194543835, 45.63889968669999]}}], "price": 1.819, "ultima_rilevazione": "09/05/2022 06:12:10"}, {"Gestore": "SOMMESE CARBURANTE S.R.L.", "Bandiera": "Sommese Petroli", "Tipo impianto": "Altro", "Indirizzo": "Via Giovanni Amendola 160 21052", "Nome impianto": "BUSTO VIA AMENDOLA", "Comune": "BUSTO ARSIZIO", "idImpianto": 50978, "points": [{"type": "Feature", "properties": {}, "geometry": {"type": "Point", "coordinates": [8.819097709966561, 45.60333064015385]}}], "price": 1.849, "ultima_rilevazione": "09/05/2022 07:32:09"}, {"Gestore": "ENI FUEL S.P.A.", "Bandiera": "Agip Eni", "Tipo impianto": "Altro", "Indirizzo": "VIA XX SETTEMBRE, 60  21052", "Nome impianto": "2807 \u2013 Busto Arsizio", "Comune": "BUSTO ARSIZIO", "idImpianto": 49792, "points": [{"type": "Feature", "properties": {}, "geometry": {"type": "Point", "coordinates": [8.867198119656962, 45.61297865138692]}}], "price": 1.869, "ultima_rilevazione": "09/05/2022 06:52:09"}, {"Gestore": "IAMETTI S.A.S. DI IAMETTI DANILO E MARCO", "Bandiera": "Agip Eni", "Tipo impianto": "Altro", "Indirizzo": "VIALE PIRANDELLO 2 21052", "Nome impianto": "IAMETTI SAS", "Comune": "BUSTO ARSIZIO", "idImpianto": 14390, "points": [{"type": "Feature", "properties": {}, "geometry": {"type": "Point", "coordinates": [8.847196151520507, 45.60283165537623]}}], "price": 1.869, "ultima_rilevazione": "09/05/2022 07:04:32"}]}, "Metano": {"1": [{"Gestore": "COZZI ANDREA", "Bandiera": "Agip Eni", "Tipo impianto": "Altro", "Indirizzo": "VIA VARESE 14 21013", "Nome impianto": "ENI", "Comune": "GALLARATE", "idImpianto": 28889, "points": [{"type": "Feature", "properties": {}, "geometry": {"type": "Point", "coordinates": [8.797299733729574, 45.67431099042725]}}], "price": 2.241, "ultima_rilevazione": "05/05/2022 16:39:03"}, {"Gestore": "PREALPINA DISTRIBUZIONE CARBURANTI S.R.L.", "Bandiera": "Pompe Bianche", "Tipo impianto": "Altro", "Indirizzo": "VIA ROMA, ANG. MEDAGLIE D'ORO  21011", "Nome impianto": "PREALPINA DISTRIBUZIONE CARBURANTI SRL_", "Comune": "CASORATE SEMPIONE", "idImpianto": 4185, "points": [{"type": "Feature", "properties": {}, "geometry": {"type": "Point", "coordinates": [8.749526739120483, 45.66520207437205]}}], "price": 1.995, "ultima_rilevazione": "06/05/2022 10:16:38"}, {"Gestore": "X3CNG ITALIA S.R.L.", "Bandiera": "Pompe Bianche", "Tipo impianto": "Altro", "Indirizzo": "VIA ALEARDI 70 21013", "Nome impianto": "X3Energy", "Comune": "GALLARATE", "idImpianto": 49482, "points": [{"type": "Feature", "properties": {}, "geometry": {"type": "Point", "coordinates": [8.808332565641415, 45.64173781089698]}}], "price": 1.715, "ultima_rilevazione": "08/05/2022 23:00:15"}], "3": [{"Gestore": "DO & FA SNC DI CANNATA' DOMENICO E C.", "Bandiera": "Api-Ip", "Tipo impianto": "Altro", "Indirizzo": "VIA MARCONI 125 21012", "Nome impianto": "DO&FA SNC", "Comune": "CASSANO MAGNAGO", "idImpianto": 44282, "points": [{"type": "Feature", "properties": {}, "geometry": {"type": "Point", "coordinates": [8.821145000123, 45.690611000123]}}], "price": 2.399, "ultima_rilevazione": "03/05/2022 11:04:55"}, {"Gestore": "GARBINI S.R.L.", "Bandiera": "Agip Eni", "Tipo impianto": "Strada Statale", "Indirizzo": "Statale 336 dell'Aeroporto della Malpensa, Km. 8+500, dir. EST 21010", "Nome impianto": "MALPENSA EST", "Comune": "CARDANO AL CAMPO", "idImpianto": 4720, "points": [{"type": "Feature", "properties": {}, "geometry": {"type": "Point", "coordinates": [8.749292875674428, 45.64593014782805]}}], "price": 2.099, "ultima_rilevazione": "05/05/2022 09:54:51"}], "5": [{"Gestore": "SOMMESE CARBURANTE S.R.L.", "Bandiera": "Sommese Petroli", "Tipo impianto": "Altro", "Indirizzo": "Via Giovanni Amendola 160 21052", "Nome impianto": "BUSTO VIA AMENDOLA", "Comune": "BUSTO ARSIZIO", "idImpianto": 50978, "points": [{"type": "Feature", "properties": {}, "geometry": {"type": "Point", "coordinates": [8.819097709966561, 45.60333064015385]}}], "price": 1.025, "ultima_rilevazione": "09/05/2022 07:32:09"}]}}