{"area_comune": "[{\"type\": \"Feature\", \"properties\": {}, \"geometry\": {\"type\": \"Polygon\", \"coordinates\": [[[9.420328397083773, 45.548661010994316], [9.419352453786948, 45.54834956156938], [9.418457804798004, 45.54690366826293], [9.4188736403718, 45.54597504157945], [9.419964410823395, 45.54451288432477], [9.426138888318427, 45.5428428234378], [9.430674874343097, 45.541358664105346], [9.43177681144007, 45.53973431513309], [9.429040297889282, 45.53864650787578], [9.429409123830295, 45.5298871231826], [9.430083091985347, 45.52253975614036], [9.432416718098574, 45.521279785263346], [9.431452218774771, 45.51906018291405], [9.427072496342118, 45.52065182090135], [9.425589844158127, 45.51760600714265], [9.427214423656407, 45.51571871915392], [9.427345715279529, 45.51445808893043], [9.426999447489273, 45.512686164427954], [9.421914477525503, 45.51065282342507], [9.416110788434642, 45.51006204221395], [9.416402904945752, 45.511483135281644], [9.416045071057999, 45.51156545912974], [9.411018107193714, 45.51215972393107], [9.409122677937003, 45.51206751865398], [9.408030600863105, 45.511531360245506], [9.408281300043459, 45.514329783656436], [9.407913711330432, 45.51484417223316], [9.394755680765382, 45.522658289657144], [9.387792662812998, 45.52492339807677], [9.37880664917726, 45.52350439030042], [9.378506695071486, 45.52460350450366], [9.378304693318134, 45.52694443848348], [9.380750917949085, 45.52888953421199], [9.383483622657584, 45.529627490912446], [9.383924464246455, 45.534189517044695], [9.383402266287973, 45.53838574078289], [9.393521310864354, 45.53845035863162], [9.393900528677653, 45.53929782986184], [9.397578394850616, 45.5415236460596], [9.400193472352932, 45.54282866034853], [9.408075224816738, 45.54426794345502], [9.413399939032852, 45.54545493830343], [9.414231279284307, 45.548764282722566], [9.420328397083773, 45.548661010994316]]]}}]", "comune": "gorgonzola", "buffer_1": "[{\"type\": \"Feature\", \"properties\": {}, \"geometry\": {\"type\": \"Polygon\", \"coordinates\": [[[9.415613769992595, 45.557030315978565], [9.416841145632292, 45.557322086653585], [9.41810420327556, 45.55752526341752], [9.419390019337438, 45.5576377673501], [9.42068543704128, 45.55765844730346], [9.421977201229707, 45.5575870916966], [9.423252094189177, 45.55742443068244], [9.424497071088373, 45.55717212866535], [9.425699393634895, 45.556832767246014], [9.426846760573387, 45.5564098187696], [9.427927433681555, 45.55590761074969], [9.428930357967882, 45.55533128153437], [9.429845274835808, 45.55468672767097], [9.441293391788035, 45.545759088508426], [9.442111540976056, 45.545051987908856], [9.442823722228294, 45.544290377171], [9.4434226377408, 45.543482065345195], [9.443902151876893, 45.54263533997846], [9.444257353911727, 45.541758882088274], [9.444484608181218, 45.5408616771148], [9.44458159112903, 45.5399529227674], [9.445217312162345, 45.521498337649184], [9.445181747665472, 45.520575691291924], [9.445011963587962, 45.51966045571044], [9.444709751558795, 45.51876225403029], [9.444278295207836, 45.51789052982877], [9.44372213644423, 45.51705444787919], [9.443047127483025, 45.51626279784344], [9.442260369133587, 45.515523901922684], [9.44137013600594, 45.51484552743411], [9.425064304363486, 45.503629049530126], [9.424148423180872, 45.503056540983366], [9.423158902610721, 45.502548233913515], [9.422104810173627, 45.502108785299285], [9.420995804268065, 45.50174222116017], [9.419842045743781, 45.501451899716265], [9.418654104900874, 45.501240480661494], [9.41744286476238, 45.501109900829384], [9.416219421501332, 45.50106135647342], [9.414994982928597, 45.501095292322724], [9.41378076596509, 45.501211397513025], [9.412587894030901, 45.501408608429735], [9.411427295284764, 45.50168511843744], [9.410309602639556, 45.50203839440716], [9.409245056463929, 45.502465199891134], [9.371441965749293, 45.51934533679354], [9.370390408683008, 45.51986852734862], [9.369418941551311, 45.520463344538946], [9.368537398143461, 45.52112376889555], [9.367754703155901, 45.52184311678982], [9.367078781826509, 45.52261410800796], [9.36651647963719, 45.523428939368], [9.36607349290036, 45.52427936363744], [9.365754310936595, 45.5251567729557], [9.365562170435068, 45.52605228591978], [9.36549902246658, 45.52695683745351], [9.365565512492012, 45.52786127055251], [9.36576097357823, 45.52875642897695], [9.366083432900275, 45.52963324995414], [9.371178777261248, 45.54107509924847], [9.371616262071125, 45.54191004845559], [9.372168933453594, 45.54271056407289], [9.37283139470267, 45.5434688223734], [9.37359717533514, 45.544177412325276], [9.374458794212462, 45.54482940807916], [9.37540783258051, 45.54541843672025], [9.3764350163159, 45.54593874061996], [9.377530306575812, 45.5463852337751], [9.37868299796447, 45.5467535515805], [9.415613769992595, 45.557030315978565]]]}}]", "buffer_3": "[{\"type\": \"Feature\", \"properties\": {}, \"geometry\": {\"type\": \"Polygon\", \"coordinates\": [[[9.406180337310253, 45.57376831975379], [9.409863453263005, 45.574643890264035], [9.413653745517442, 45.57525360433989], [9.417512397597928, 45.575591217707434], [9.42139988999389, 45.57565327277049], [9.425276406604663, 45.575439134164256], [9.42910224428445, 45.57495099528197], [9.43283822120329, 45.57419385570713], [9.436446079753312, 45.5731754697874], [9.439888879790361, 45.57190626688806], [9.443131378108689, 45.570399244158885], [9.446140390199274, 45.56866983293453], [9.448885130538418, 45.5667357401621], [9.460332649539657, 45.55780621394123], [9.462786836978687, 45.555684490684804], [9.4649228818314, 45.55339926433971], [9.466718911148586, 45.55097397818298], [9.468156547411763, 45.548433509198716], [9.469221095559442, 45.54580391241266], [9.469901691911144, 45.54311215326034], [9.470191413532964, 45.540385830754865], [9.470818762906791, 45.52193113789168], [9.470710817131215, 45.51916322745983], [9.470200254325192, 45.51641763750615], [9.469292500135063, 45.5137232324925], [9.46799715231464, 45.51110833474741], [9.466327877598095, 45.508600427053274], [9.464302266064609, 45.50622586420883], [9.461941644606586, 45.504009596576815], [9.459270851528244, 45.50197490849553], [9.442965219441758, 45.490760959985685], [9.440217719310507, 45.489043838346014], [9.437249519346752, 45.48751930382957], [9.434087808865034, 45.486201313247186], [9.430761542326383, 45.48510193168218], [9.427301174817005, 45.484231222443285], [9.423738384049003, 45.483597155297794], [9.420105781389923, 45.483205533808736], [9.416436614519903, 45.48305994242831], [9.412764464385273, 45.48316171382223], [9.409122939165115, 45.483509916717814], [9.405545367992216, 45.48410136438525], [9.402064497171951, 45.484930643676016], [9.398712191621852, 45.48599016435849], [9.395519144211287, 45.487270228308795], [9.35772206361076, 45.50414584933834], [9.354567796693003, 45.50571501587334], [9.351653559132105, 45.50749904270944], [9.349008845646404, 45.50947988857577], [9.346660433643308, 45.51163751982592], [9.344632111992128, 45.51395011246634], [9.34294443960534, 45.51639427233558], [9.341614536295829, 45.51894527123601], [9.34065590806783, 45.52157729665565], [9.34007830866628, 45.52426371257702], [9.339887638855297, 45.52697732875277], [9.340085884525092, 45.529690675737754], [9.340671094340863, 45.53237628290225], [9.341637397250516, 45.53500695661506], [9.3467282813365, 45.54644989864931], [9.348039817093177, 45.54895502214504], [9.349697085481582, 45.55135690208101], [9.3516839255149, 45.553632054290006], [9.353980946997996, 45.55575823096048], [9.356565719059562, 45.557714638672536], [9.359412988777802, 45.559482142273545], [9.362494927785322, 45.561043452574175], [9.365781404449745, 45.56238329600274], [9.369240278960596, 45.56348856453176], [9.406180337310253, 45.57376831975379]]]}}]", "buffer_5": "[{\"type\": \"Feature\", \"properties\": {}, \"geometry\": {\"type\": \"Polygon\", \"coordinates\": [[[9.39674132745889, 45.59050551414032], [9.402881503531354, 45.59196522962375], [9.409200524358846, 45.592981726430885], [9.415633619474077, 45.593544584878416], [9.422114840891538, 45.59364803536299], [9.428577743884027, 45.59329101790274], [9.434956073026136, 45.592477193058244], [9.441184446221394, 45.591214904117685], [9.447199029453738, 45.589517090948824], [9.452938195113118, 45.587401156432506], [9.458343156937719, 45.58488878689408], [9.463358574888334, 45.58200572843501], [9.467933123619765, 45.57878152152888], [9.479380040474654, 45.56985010764296], [9.483469917591478, 45.56631319965283], [9.48702915891329, 45.562503832267], [9.490021343805777, 45.55846110449918], [9.492415892234842, 45.55422650188409], [9.494188374448374, 45.54984346939173], [9.495320756630148, 45.54535696456208], [9.495801580204809, 45.54081299550246], [9.496420557381331, 45.52235819856381], [9.496238560783397, 45.517745063157754], [9.495385605908194, 45.51316927541499], [9.49387082002728, 45.50867893451855], [9.491710277384158, 45.5043212302923], [9.48892682405671, 45.50014194810751], [9.485549832387514, 45.496184988965375], [9.481614887786158, 45.49249190973724], [9.47716341137676, 45.4891014883189], [9.460857983523598, 45.47789006800685], [9.456279056712603, 45.47502887155684], [9.451332660259254, 45.47248862470181], [9.44606408756207, 45.47029256529956], [9.440521561494254, 45.468460780248556], [9.434755794799395, 45.467010022860606], [9.428819528428667, 45.46595356060151], [9.422767051936646, 45.46530105454853], [9.416653710194083, 45.46505847163119], [9.410535400782942, 45.465228030431355], [9.404468066511798, 45.4658081810221], [9.398507187527692, 45.466793619023015], [9.392707277503863, 45.46817533374977], [9.387121388351305, 45.46994069003229], [9.381800627835977, 45.4720735429803], [9.344009559088303, 45.488944651951094], [9.338753121894046, 45.49155925480918], [9.333896333412124, 45.494531925392835], [9.329488340328085, 45.497832623427755], [9.325573777049303, 45.50142798819864], [9.322192313455293, 45.50528167410801], [9.319378251670297, 45.50935471652423], [9.317160176004078, 45.513605924299505], [9.315560659715718, 45.51799229506241], [9.314596031722928, 45.522469449149696], [9.314276205809358, 45.526992077841655], [9.314604574279075, 45.531514401405616], [9.315577967375495, 45.53599063233753], [9.317186679127284, 45.54037543912056], [9.32227309886368, 45.551819472226676], [9.324457459006014, 45.555995137311164], [9.327218328191117, 45.55999882533732], [9.33052882015576, 45.563791374397006], [9.334356653498428, 45.567335680274766], [9.338664464495848, 45.57059706079805], [9.343410170642848, 45.57354359666422], [9.34854738142573, 45.57614644533861], [9.354025852333562, 45.578380124877505], [9.359791977644408, 45.58022276482481], [9.39674132745889, 45.59050551414032]]]}}]", "centroid": "[{\"type\": \"Feature\", \"properties\": {}, \"geometry\": {\"type\": \"Point\", \"coordinates\": [9.408548725827236, 45.52993472502582]}}]", "Benzina": {"1": [{"Gestore": "CAMEL EXPRESS S.R.L.", "Bandiera": "Api-Ip", "Tipo impianto": "Altro", "Indirizzo": "STRADA PROVINCIALE 13 MELZO MONZA SNC 20060", "Nome impianto": "IP", "Comune": "PESSANO CON BORNAGO", "idImpianto": 49859, "points": [{"type": "Feature", "properties": {}, "geometry": {"type": "Point", "coordinates": [9.393047021881292, 45.54667299908384]}}], "price": 1.869, "ultima_rilevazione": "16/05/2022 18:20:44"}, {"Gestore": "BOKTOR MAHDY ZEIDAN MEHANNY", "Bandiera": "Api-Ip", "Tipo impianto": "Altro", "Indirizzo": "S.P. 13 MONZA-MELZO KM. 12+700 SNC 20060", "Nome impianto": "IP ", "Comune": "CASSINA DE' PECCHI", "idImpianto": 50040, "points": [{"type": "Feature", "properties": {}, "geometry": {"type": "Point", "coordinates": [9.40695726716632, 45.51445066165029]}}], "price": 1.899, "ultima_rilevazione": "27/05/2022 18:45:13"}, {"Gestore": "EFFEMME SAS DI MERONI FULVIO GASPARE E C.", "Bandiera": "Api-Ip", "Tipo impianto": "Altro", "Indirizzo": "VIA MICHELANGELO BUONARROTI 63 20064", "Nome impianto": " punto vendita IP Effemme sas di Meroni F & c.", "Comune": "GORGONZOLA", "idImpianto": 15816, "points": [{"type": "Feature", "properties": {}, "geometry": {"type": "Point", "coordinates": [9.401620445790629, 45.52463732468525]}}], "price": 1.919, "ultima_rilevazione": "30/05/2022 09:57:48"}, {"Gestore": "LOMBARDI SALVATORE", "Bandiera": "Esso", "Tipo impianto": "Altro", "Indirizzo": "Via Provinciale 68 20060", "Nome impianto": "ESSO", "Comune": "PESSANO CON BORNAGO", "idImpianto": 49119, "points": [{"type": "Feature", "properties": {}, "geometry": {"type": "Point", "coordinates": [9.39207043498754, 45.5397446156316]}}], "price": 1.999, "ultima_rilevazione": "01/06/2022 09:00:24"}, {"Gestore": "CHIAPPINELLI NICOLA", "Bandiera": "Api-Ip", "Tipo impianto": "Altro", "Indirizzo": "S.P.13 km12+120  ", "Nome impianto": "API-IP ", "Comune": "GORGONZOLA", "idImpianto": 25397, "points": [{"type": "Feature", "properties": {}, "geometry": {"type": "Point", "coordinates": [9.402837753295898, 45.5191846639186]}}], "price": 1.979, "ultima_rilevazione": "01/06/2022 16:52:54"}, {"Gestore": "ZACCHI RENATO", "Bandiera": "Agip Eni", "Tipo impianto": "Altro", "Indirizzo": "VIALE EUROPA 13 BIS 20060", "Nome impianto": "ENI BUSSERO", "Comune": "BUSSERO", "idImpianto": 41033, "points": [{"type": "Feature", "properties": {}, "geometry": {"type": "Point", "coordinates": [9.374386614749938, 45.530786489777256]}}], "price": 1.974, "ultima_rilevazione": "01/06/2022 22:15:12"}, {"Gestore": "SERVIZI & GESTIONI ITALIA srl", "Bandiera": "Q8", "Tipo impianto": "Altro", "Indirizzo": "VIA MILANO 4/6 20064", "Nome impianto": "GORGONZOLA VIA MILANO 4/6", "Comune": "GORGONZOLA", "idImpianto": 6430, "points": [{"type": "Feature", "properties": {}, "geometry": {"type": "Point", "coordinates": [9.396399528836128, 45.52720696738999]}}], "price": 2.019, "ultima_rilevazione": "02/06/2022 01:40:18"}, {"Gestore": "SERVIZI & GESTIONI ITALIA S.R.L.", "Bandiera": "Q8", "Tipo impianto": "Altro", "Indirizzo": "S.P. 13 KM 13+600  20066", "Nome impianto": "MELZO - S.P. 13 KM 13+600", "Comune": "MELZO", "idImpianto": 30795, "points": [{"type": "Feature", "properties": {}, "geometry": {"type": "Point", "coordinates": [9.41143329325405, 45.506879572830464]}}], "price": 1.969, "ultima_rilevazione": "02/06/2022 01:40:32"}, {"Gestore": "SERVIZI & GESTIONI ITALIA srl", "Bandiera": "Q8", "Tipo impianto": "Altro", "Indirizzo": "VIA PROVINCIALE 83 DISTR.Q8 SNC 20060", "Nome impianto": "PESSANO CON BORNAGO VIA PROVINCIALE 83 DISTR.Q8", "Comune": "PESSANO CON BORNAGO", "idImpianto": 6443, "points": [{"type": "Feature", "properties": {}, "geometry": {"type": "Point", "coordinates": [9.39170405396726, 45.54389870287802]}}], "price": 1.989, "ultima_rilevazione": "02/06/2022 01:40:49"}, {"Gestore": "SERVIZI & GESTIONI ITALIA S.R.L.", "Bandiera": "Q8", "Tipo impianto": "Altro", "Indirizzo": "VIA GAVAZZI 47 20066", "Nome impianto": "MELZO-VIA GAVAZZI 47", "Comune": "MELZO", "idImpianto": 11682, "points": [{"type": "Feature", "properties": {}, "geometry": {"type": "Point", "coordinates": [9.423860932540949, 45.50700826571132]}}], "price": 1.999, "ultima_rilevazione": "02/06/2022 07:10:58"}, {"Gestore": "SERVIZI & GESTIONI ITALIA S.R.L.", "Bandiera": "Q8", "Tipo impianto": "Altro", "Indirizzo": "S.P 242 KM 4+578 S/N  20060", "Nome impianto": "PESSANO CON BORNAGO -S.P 242 KM 4+578", "Comune": "PESSANO CON BORNAGO", "idImpianto": 11711, "points": [{"type": "Feature", "properties": {}, "geometry": {"type": "Point", "coordinates": [9.389155568122874, 45.549163863694574]}}], "price": 1.999, "ultima_rilevazione": "02/06/2022 07:11:01"}, {"Gestore": "IP SERVICES S.R.L.", "Bandiera": "Api-Ip", "Tipo impianto": "Altro", "Indirizzo": "VIA TRIESTE  20064", "Nome impianto": "GORGONZOLA - TRIESTE", "Comune": "GORGONZOLA", "idImpianto": 31060, "points": [{"type": "Feature", "properties": {}, "geometry": {"type": "Point", "coordinates": [9.412570495700834, 45.53279436333076]}}], "price": 1.979, "ultima_rilevazione": "02/06/2022 12:02:25"}, {"Gestore": "L.A. SNC DI LAINO NICODEMO & C.", "Bandiera": "Api-Ip", "Tipo impianto": "Strada Statale", "Indirizzo": "11 Padana Superiore, Km. 163+450, sud 20864", "Nome impianto": "IP", "Comune": "GORGONZOLA", "idImpianto": 40432, "points": [{"type": "Feature", "properties": {}, "geometry": {"type": "Point", "coordinates": [9.4075208902359, 45.52394258704885]}}], "price": 1.979, "ultima_rilevazione": "02/06/2022 16:43:41"}], "3": [{"Gestore": "GALLI CRISTIANO", "Bandiera": "Api-Ip", "Tipo impianto": "Altro", "Indirizzo": "STRADA CONSORTILE 631 -MOLINA- SNC 20060", "Nome impianto": "IP di Galli Cristiano", "Comune": "VIGNATE", "idImpianto": 21484, "points": [{"type": "Feature", "properties": {}, "geometry": {"type": "Point", "coordinates": [9.385899603366852, 45.50236088885581]}}], "price": 1.899, "ultima_rilevazione": "27/05/2022 14:42:14"}, {"Gestore": "M. & F. S.N.C. DI DOMENICO E FELICE OTTANA'", "Bandiera": "Agip Eni", "Tipo impianto": "Altro", "Indirizzo": "S.P. 13 (Monza-Melzo) Km. 15+860  20066", "Nome impianto": "ENI-M. & F. S.N.C. DI DOMENICO E FELICE OTTANA'", "Comune": "MELZO", "idImpianto": 45572, "points": [{"type": "Feature", "properties": {}, "geometry": {"type": "Point", "coordinates": [9.421616373016375, 45.493594489221046]}}], "price": 1.929, "ultima_rilevazione": "30/05/2022 16:22:27"}, {"Gestore": "GENERAL OIL DI MASSIMO FARINOTTI E C. S.A.S.", "Bandiera": "Pompe Bianche", "Tipo impianto": "Altro", "Indirizzo": "SP 103 DIR KM 2.500 SNC 20060", "Nome impianto": "GENERAL OIL", "Comune": "POZZUOLO MARTESANA", "idImpianto": 44993, "points": [{"type": "Feature", "properties": {}, "geometry": {"type": "Point", "coordinates": [9.464120864868164, 45.52359305745107]}}], "price": 1.929, "ultima_rilevazione": "31/05/2022 13:32:46"}, {"Gestore": "AUTOSERVICE DI GIOVANNI D'ALOIA S.A.S.", "Bandiera": "Pompe Bianche", "Tipo impianto": "Altro", "Indirizzo": "VIA MOLINA  20060", "Nome impianto": "DALOIL 1971", "Comune": "VIGNATE", "idImpianto": 47341, "points": [{"type": "Feature", "properties": {}, "geometry": {"type": "Point", "coordinates": [9.385025809582404, 45.49972986406563]}}], "price": 1.949, "ultima_rilevazione": "01/06/2022 09:07:09"}, {"Gestore": "FERRO MAURO", "Bandiera": "Agip Eni", "Tipo impianto": "Strada Statale", "Indirizzo": "Strada Statale, Km. 1+280, melzo 20867", "Nome impianto": "stazione eni ferro mauro", "Comune": "CAPONAGO", "idImpianto": 45069, "points": [{"type": "Feature", "properties": {}, "geometry": {"type": "Point", "coordinates": [9.376779000123, 45.560100000123]}}], "price": 1.974, "ultima_rilevazione": "01/06/2022 09:57:25"}, {"Gestore": "VINPE SERVIZI S.P.A.", "Bandiera": "Agip Eni", "Tipo impianto": "Altro", "Indirizzo": "S.P. 103 ANTICA CASSANESE SNC,  20060   ", "Nome impianto": "VIGNATE", "Comune": "VIGNATE", "idImpianto": 12143, "points": [{"type": "Feature", "properties": {}, "geometry": {"type": "Point", "coordinates": [9.378164112567902, 45.50568972852001]}}], "price": 1.974, "ultima_rilevazione": "01/06/2022 10:43:45"}, {"Gestore": "AUTOMARKET DI FUMAGALLI & BRAMBILLA S.N.C.", "Bandiera": "Agip Eni", "Tipo impianto": "Altro", "Indirizzo": "VIA PROVINCIALE 15 20060", "Nome impianto": "ENI AUTOMARKET SNC", "Comune": "PESSANO CON BORNAGO", "idImpianto": 14598, "points": [{"type": "Feature", "properties": {}, "geometry": {"type": "Point", "coordinates": [9.38745020163242, 45.55289646788714]}}], "price": 1.979, "ultima_rilevazione": "01/06/2022 15:38:06"}, {"Gestore": "AG SAS DI ABBATTISTA GIOVANNI", "Bandiera": "Agip Eni", "Tipo impianto": "Strada Statale", "Indirizzo": "Statale 11 Padana Superiore, Km. 158+082, dir. SUD 20060", "Nome impianto": "STAZIONE SERVIZIO ENI", "Comune": "CASSINA DE' PECCHI", "idImpianto": 6164, "points": [{"type": "Feature", "properties": {}, "geometry": {"type": "Point", "coordinates": [9.357555359601974, 45.51818409200797]}}], "price": 1.974, "ultima_rilevazione": "01/06/2022 18:50:23"}, {"Gestore": "REGAZZETTI GIANNI", "Bandiera": "Api-Ip", "Tipo impianto": "Altro", "Indirizzo": "sp 103  20060", "Nome impianto": "TotalErg", "Comune": "CASSINA DE' PECCHI", "idImpianto": 13404, "points": [{"type": "Feature", "properties": {}, "geometry": {"type": "Point", "coordinates": [9.389531314373016, 45.50753114572307]}}], "price": 1.969, "ultima_rilevazione": "01/06/2022 19:15:57"}, {"Gestore": "SERVIZI & GESTIONI ITALIA S.R.L.", "Bandiera": "Q8", "Tipo impianto": "Altro", "Indirizzo": "FZ.VILLA FORNACI VIA PADANA SUP.148 S/N 20060", "Nome impianto": "BELLINZAGO-FZ.VILLA FORNACI VIA PADANA SUP.148", "Comune": "BELLINZAGO LOMBARDO", "idImpianto": 11663, "points": [{"type": "Feature", "properties": {}, "geometry": {"type": "Point", "coordinates": [9.450908804893515, 45.54661270580155]}}], "price": 1.999, "ultima_rilevazione": "02/06/2022 01:40:20"}, {"Gestore": "SERVIZI & GESTIONI ITALIA S.R.L.", "Bandiera": "Q8", "Tipo impianto": "Altro", "Indirizzo": "VIA ROMA 70 20060", "Nome impianto": "CASSINA DE' PECCHI-VIA ROMA 70", "Comune": "CASSINA DE' PECCHI", "idImpianto": 11688, "points": [{"type": "Feature", "properties": {}, "geometry": {"type": "Point", "coordinates": [9.365186645507832, 45.51936083416594]}}], "price": 1.989, "ultima_rilevazione": "02/06/2022 01:40:23"}, {"Gestore": "SERVIZI & GESTIONI ITALIA S.R.L.", "Bandiera": "Q8", "Tipo impianto": "Altro", "Indirizzo": "CASSANESE SP 103 C/O CC ACQUARIO S/N 20060", "Nome impianto": "VIGNATE-CASSANESE SP 103 C/O CC ACQUARIO", "Comune": "VIGNATE", "idImpianto": 11707, "points": [{"type": "Feature", "properties": {}, "geometry": {"type": "Point", "coordinates": [9.372512698173525, 45.50462086686203]}}], "price": 1.969, "ultima_rilevazione": "02/06/2022 01:41:08"}, {"Gestore": "SERVIZI & GESTIONI ITALIA S.R.L.", "Bandiera": "Q8", "Tipo impianto": "Altro", "Indirizzo": "PIAZZA CASTELLO 43 20060", "Nome impianto": "PESSANO CON BORNAGO-PIAZZA CASTELLO 43", "Comune": "PESSANO CON BORNAGO", "idImpianto": 11654, "points": [{"type": "Feature", "properties": {}, "geometry": {"type": "Point", "coordinates": [9.383887171793049, 45.55137231340641]}}], "price": 2.049, "ultima_rilevazione": "02/06/2022 07:11:01"}, {"Gestore": "IP SERVICES S.R.L.", "Bandiera": "Api-Ip", "Tipo impianto": "Altro", "Indirizzo": "strada provinciale 103 smc 20060", "Nome impianto": "Pozzuolo", "Comune": "POZZUOLO MARTESANA", "idImpianto": 35216, "points": [{"type": "Feature", "properties": {}, "geometry": {"type": "Point", "coordinates": [9.449320435523989, 45.51968268788503]}}], "price": 1.899, "ultima_rilevazione": "02/06/2022 12:03:51"}, {"Gestore": "RACO DI RANTUCCIO GIUSEPPE E CONTI CARLUCCIO S.N.C.", "Bandiera": "Moro", "Tipo impianto": "Altro", "Indirizzo": "bivio villa fornaci  20065", "Nome impianto": "DISTRIBUTORE RACO snc \"MORO\"", "Comune": "INZAGO", "idImpianto": 34825, "points": [{"type": "Feature", "properties": {}, "geometry": {"type": "Point", "coordinates": [9.453352466225624, 45.54755410650007]}}], "price": 1.949, "ultima_rilevazione": "03/06/2022 00:16:05"}, {"Gestore": "NUOVA SIDAP  S.R.L.", "Bandiera": "Esso", "Tipo impianto": "Altro", "Indirizzo": "VIA C. COLOMBO 5 20066", "Nome impianto": "Melzo", "Comune": "MELZO", "idImpianto": 43741, "points": [{"type": "Feature", "properties": {}, "geometry": {"type": "Point", "coordinates": [9.411189556121826, 45.49404320362122]}}], "price": 2.009, "ultima_rilevazione": "03/06/2022 04:47:57"}], "5": [{"Gestore": "3 C S.R.L.", "Bandiera": "Agip Eni", "Tipo impianto": "Autostradale", "Indirizzo": "Autostrada A4 MILANO-BRESCIA, Km. 148+470, dir. Ovest 20864", "Nome impianto": "BRIANZA NORD", "Comune": "CAPONAGO", "idImpianto": 3630, "points": [{"type": "Feature", "properties": {}, "geometry": {"type": "Point", "coordinates": [9.39446, 45.5753]}}], "price": 1.854, "ultima_rilevazione": "01/06/2022 11:18:09"}, {"Gestore": "SPECIAL ONE S.N.C. DI CARTA MARIA GIUSEPPINA & DE LUCA LEONARDO", "Bandiera": "Q8", "Tipo impianto": "Altro", "Indirizzo": "strada provinciale 13 monza melegnano km 13 + 639  20060", "Nome impianto": "Special one snc di carta e de luca ", "Comune": "LISCATE", "idImpianto": 41778, "points": [{"type": "Feature", "properties": {}, "geometry": {"type": "Point", "coordinates": [9.426529705524445, 45.4822686259588]}}], "price": 2.004, "ultima_rilevazione": "28/05/2022 08:35:14"}, {"Gestore": "U.M.A. S.A.S. DI MARCO CELARI E C.", "Bandiera": "Esso", "Tipo impianto": "Altro", "Indirizzo": "via antica cassanese km 8,5  20060", "Nome impianto": "esso", "Comune": "CASSINA DE' PECCHI", "idImpianto": 33725, "points": [{"type": "Feature", "properties": {}, "geometry": {"type": "Point", "coordinates": [9.35478463768959, 45.50391517393423]}}], "price": 1.959, "ultima_rilevazione": "30/05/2022 08:24:47"}, {"Gestore": "CHIUMMO NICOLA", "Bandiera": "Api-Ip", "Tipo impianto": "Altro", "Indirizzo": "STRADA PROVINCIALE 14 RIVOLTANA KM 11  20060", "Nome impianto": "IP", "Comune": "LISCATE", "idImpianto": 24429, "points": [{"type": "Feature", "properties": {}, "geometry": {"type": "Point", "coordinates": [9.402365684509276, 45.48396864218163]}}], "price": 1.899, "ultima_rilevazione": "31/05/2022 08:46:56"}, {"Gestore": "LOVINO MARCO", "Bandiera": "Esso", "Tipo impianto": "Altro", "Indirizzo": "VIA GIUSEPPE VERDI 47 20063", "Nome impianto": "STAZIONE DI SERVIZIO ESSO VIA VERDI 47", "Comune": "CERNUSCO SUL NAVIGLIO", "idImpianto": 49049, "points": [{"type": "Feature", "properties": {}, "geometry": {"type": "Point", "coordinates": [9.337236285209656, 45.52923583950437]}}], "price": 1.906, "ultima_rilevazione": "31/05/2022 09:37:05"}, {"Gestore": "SUPERSERVICE SNC DEI F.LLI CANTARELLI", "Bandiera": "Agip Eni", "Tipo impianto": "Autostradale", "Indirizzo": "Autostrada A4 MILANO-BRESCIA, Km. 24, dir. BERGAMO", "Nome impianto": "BRIANZA SUD", "Comune": "CAPONAGO", "idImpianto": 24292, "points": [{"type": "Feature", "properties": {}, "geometry": {"type": "Point", "coordinates": [9.394437074661257, 45.574416646651166]}}], "price": 2.064, "ultima_rilevazione": "01/06/2022 09:03:18"}, {"Gestore": "DUELLE S.N.C. DI MARCO E SIMONE LEVATI", "Bandiera": "Agip Eni", "Tipo impianto": "Altro", "Indirizzo": "VIA TORINO S.P.121 KM. 2+400  20063", "Nome impianto": "DUELLE SNC DI SIMONE E MARCO LEVATI", "Comune": "CERNUSCO SUL NAVIGLIO", "idImpianto": 11293, "points": [{"type": "Feature", "properties": {}, "geometry": {"type": "Point", "coordinates": [9.338799389162205, 45.504134696116026]}}], "price": 1.979, "ultima_rilevazione": "01/06/2022 09:20:07"}, {"Gestore": "R.A.M.M. DI CREMONESI MARIO VITTORIO", "Bandiera": "Pompe Bianche", "Tipo impianto": "Altro", "Indirizzo": "VIA DEI MILLE 151 20861", "Nome impianto": "PETROL OUTLET", "Comune": "BRUGHERIO", "idImpianto": 38614, "points": [{"type": "Feature", "properties": {}, "geometry": {"type": "Point", "coordinates": [9.322085827589037, 45.548317481746224]}}], "price": 1.939, "ultima_rilevazione": "01/06/2022 09:31:35"}, {"Gestore": "PNEUSCARS 2 S.A.S. DI TERRANE FABIO & C.", "Bandiera": "Agip Eni", "Tipo impianto": "Altro", "Indirizzo": "VIA MILANO 9 20096", "Nome impianto": "Eni", "Comune": "PIOLTELLO", "idImpianto": 12081, "points": [{"type": "Feature", "properties": {}, "geometry": {"type": "Point", "coordinates": [9.331360636840031, 45.50138514073774]}}], "price": 1.979, "ultima_rilevazione": "01/06/2022 11:44:48"}, {"Gestore": "ENERGON SNC DI COLOMBO HIAELE & C.", "Bandiera": "Api-Ip", "Tipo impianto": "Altro", "Indirizzo": "strada provinciale 179 20060", "Nome impianto": "IP", "Comune": "MASATE", "idImpianto": 48262, "points": [{"type": "Feature", "properties": {}, "geometry": {"type": "Point", "coordinates": [9.4693946585544, 45.56803790707382]}}], "price": 1.899, "ultima_rilevazione": "01/06/2022 12:07:50"}, {"Gestore": "IEVA MICHELE", "Bandiera": "Agip Eni", "Tipo impianto": "Altro", "Indirizzo": "VIA SP 121 POBBIANO/CAVENAGO  20061", "Nome impianto": "stazione di servizio Agip di Ieva michele", "Comune": "CARUGATE", "idImpianto": 7530, "points": [{"type": "Feature", "properties": {}, "geometry": {"type": "Point", "coordinates": [9.333864748477936, 45.55165355778144]}}], "price": 1.979, "ultima_rilevazione": "01/06/2022 14:09:04"}, {"Gestore": "PREMOLI MAURIZIO", "Bandiera": "Api-Ip", "Tipo impianto": "Altro", "Indirizzo": "str.prov.nuova rivoltana 54 20060", "Nome impianto": "totalerg", "Comune": "VIGNATE", "idImpianto": 16905, "points": [{"type": "Feature", "properties": {}, "geometry": {"type": "Point", "coordinates": [9.382855296134949, 45.48370010302824]}}], "price": 1.949, "ultima_rilevazione": "01/06/2022 15:03:40"}, {"Gestore": "CALOR SYSTEMS S.R.L.", "Bandiera": "Api-Ip", "Tipo impianto": "Altro", "Indirizzo": "Via Mantegna 12 20096", "Nome impianto": "PIOLTELLO MANTEGNA", "Comune": "PIOLTELLO", "idImpianto": 48073, "points": [{"type": "Feature", "properties": {}, "geometry": {"type": "Point", "coordinates": [9.330787259507195, 45.50368496110519]}}], "price": 1.919, "ultima_rilevazione": "01/06/2022 15:04:54"}, {"Gestore": "PAINI ARNALDO", "Bandiera": "Api-Ip", "Tipo impianto": "Altro", "Indirizzo": "strada provinciale 176 km 015 + 075  20873", "Nome impianto": "IP ", "Comune": "CAVENAGO DI BRIANZA", "idImpianto": 8387, "points": [{"type": "Feature", "properties": {}, "geometry": {"type": "Point", "coordinates": [9.409189224243164, 45.58349925138629]}}], "price": 1.969, "ultima_rilevazione": "01/06/2022 15:47:00"}, {"Gestore": "GS SPA", "Bandiera": "Q8", "Tipo impianto": "Altro", "Indirizzo": "Strada Provinciale  208 20061", "Nome impianto": "Carrefour Q8 Carugate", "Comune": "CARUGATE", "idImpianto": 48741, "points": [{"type": "Feature", "properties": {}, "geometry": {"type": "Point", "coordinates": [9.331401268583818, 45.54816345136025]}}], "price": 1.929, "ultima_rilevazione": "01/06/2022 16:12:54"}, {"Gestore": "ULLOA MONICA YESENIA", "Bandiera": "Agip Eni", "Tipo impianto": "Altro", "Indirizzo": "S.P.14 RIVOLTANA KM 14+500  20060", "Nome impianto": "ENI TRUCCAZZANO", "Comune": "TRUCCAZZANO", "idImpianto": 48200, "points": [{"type": "Feature", "properties": {}, "geometry": {"type": "Point", "coordinates": [9.446825981140137, 45.48075361266587]}}], "price": 1.939, "ultima_rilevazione": "01/06/2022 16:23:15"}, {"Gestore": "SERVIZI & GESTIONI ITALIA S.R.L.", "Bandiera": "Q8", "Tipo impianto": "Altro", "Indirizzo": "VIA NUOVA RIVOLTANA KM 16 S/N 20060", "Nome impianto": "TRUCCAZZANO-VIA NUOVA RIVOLTANA KM 16", "Comune": "TRUCCAZZANO", "idImpianto": 11670, "points": [{"type": "Feature", "properties": {}, "geometry": {"type": "Point", "coordinates": [9.465873177909884, 45.48188495528274]}}], "price": 2.019, "ultima_rilevazione": "02/06/2022 07:11:03"}, {"Gestore": "SERVIZI & GESTIONI ITALIA S.R.L.", "Bandiera": "Q8", "Tipo impianto": "Altro", "Indirizzo": "S.P. 121 - KM. 8+070  20063", "Nome impianto": "CERNUSCO SUL NAVIGLIO - S.P. 121 - KM. 8+070", "Comune": "CERNUSCO SUL NAVIGLIO", "idImpianto": 30796, "points": [{"type": "Feature", "properties": {}, "geometry": {"type": "Point", "coordinates": [9.336739286508193, 45.5403700891952]}}], "price": 1.969, "ultima_rilevazione": "02/06/2022 07:11:04"}, {"Gestore": "PACEKO S.R.L.", "Bandiera": "Pompe Bianche", "Tipo impianto": "Altro", "Indirizzo": "Via delle industrie  16 20864", "Nome impianto": "EKOPOINT", "Comune": "AGRATE BRIANZA", "idImpianto": 44517, "points": [{"type": "Feature", "properties": {}, "geometry": {"type": "Point", "coordinates": [9.35416730855468, 45.56791207197751]}}], "price": 1.939, "ultima_rilevazione": "02/06/2022 08:18:56"}, {"Gestore": "IP SERVICES S.R.L.", "Bandiera": "Api-Ip", "Tipo impianto": "Altro", "Indirizzo": "S.P.121  KM.6+250 20063", "Nome impianto": "Cernusco sul Naviglio", "Comune": "CERNUSCO SUL NAVIGLIO", "idImpianto": 37970, "points": [{"type": "Feature", "properties": {}, "geometry": {"type": "Point", "coordinates": [9.334397882212215, 45.54543517250591]}}], "price": 1.949, "ultima_rilevazione": "02/06/2022 12:04:12"}, {"Gestore": "DELLA BASSA ALESSANDRO", "Bandiera": "Q8", "Tipo impianto": "Altro", "Indirizzo": "STRADA P. CERCA 39 KM. 13,900 SNC 20060", "Nome impianto": "STAZIONE DI SERVIZIO Q8 di DELLA BASSA ALESSANDRO", "Comune": "LISCATE", "idImpianto": 10111, "points": [{"type": "Feature", "properties": {}, "geometry": {"type": "Point", "coordinates": [9.413228631019592, 45.46788789854411]}}], "price": 1.999, "ultima_rilevazione": "02/06/2022 20:19:13"}, {"Gestore": "RACO DI RANTUCCIO GIUSEPPE E CONTI CARLUCCIO S.N.C.", "Bandiera": "Pompe Bianche", "Tipo impianto": "Altro", "Indirizzo": "VIALE DELLE INDUSTRIE 1 20040", "Nome impianto": "AREA DI SERVIZIO RACO", "Comune": "CAMBIAGO", "idImpianto": 4612, "points": [{"type": "Feature", "properties": {}, "geometry": {"type": "Point", "coordinates": [9.41773831003411, 45.57724081192453]}}], "price": 1.929, "ultima_rilevazione": "03/06/2022 07:16:03"}, {"Gestore": "SERVICE CAR DI FACCHINETTI GIORGIO & C. S.A.S.", "Bandiera": "Api-Ip", "Tipo impianto": "Altro", "Indirizzo": "VIA PADANA SUPERIORE 1 20065", "Nome impianto": "IP DI INZAGO", "Comune": "INZAGO", "idImpianto": 13397, "points": [{"type": "Feature", "properties": {}, "geometry": {"type": "Point", "coordinates": [9.485035389661787, 45.535736810233736]}}], "price": 1.949, "ultima_rilevazione": "03/06/2022 07:36:04"}, {"Gestore": "ENI FUEL S.P.A.", "Bandiera": "Agip Eni", "Tipo impianto": "Altro", "Indirizzo": "Via Matteotti 133 20041", "Nome impianto": "PV 02151 Agrate Brianza", "Comune": "AGRATE BRIANZA", "idImpianto": 47365, "points": [{"type": "Feature", "properties": {}, "geometry": {"type": "Point", "coordinates": [9.356548000123, 45.572168000123]}}], "price": 1.979, "ultima_rilevazione": "03/06/2022 07:42:05"}, {"Gestore": "STAZIONE DI SERVIZIO DI APA SALVATORE & C. SNC", "Bandiera": "Api-Ip", "Tipo impianto": "Altro", "Indirizzo": "inzago-via marconi (mi)  20065", "Nome impianto": "stazione di servizo di apa salvatore & c snc", "Comune": "INZAGO", "idImpianto": 36263, "points": [{"type": "Feature", "properties": {}, "geometry": {"type": "Point", "coordinates": [9.490151575363145, 45.53806018876075]}}], "price": 1.949, "ultima_rilevazione": "03/06/2022 06:45:25"}, {"Gestore": "GAZZONI ROBERTO E MOTTA IVANO S.N.C.", "Bandiera": "Tamoil", "Tipo impianto": "Altro", "Indirizzo": "STRADA PROVINC.14/RIVOLTANA KM12.600  20060", "Nome impianto": "TAMOIL", "Comune": "LISCATE", "idImpianto": 7495, "points": [{"type": "Feature", "properties": {}, "geometry": {"type": "Point", "coordinates": [9.42442148923874, 45.48016459700467]}}], "price": 1.969, "ultima_rilevazione": "03/06/2022 07:26:09"}]}, "Gasolio": {"1": [{"Gestore": "CAMEL EXPRESS S.R.L.", "Bandiera": "Api-Ip", "Tipo impianto": "Altro", "Indirizzo": "STRADA PROVINCIALE 13 MELZO MONZA SNC 20060", "Nome impianto": "IP", "Comune": "PESSANO CON BORNAGO", "idImpianto": 49859, "points": [{"type": "Feature", "properties": {}, "geometry": {"type": "Point", "coordinates": [9.393047021881292, 45.54667299908384]}}], "price": 1.869, "ultima_rilevazione": "16/05/2022 18:20:44"}, {"Gestore": "BOKTOR MAHDY ZEIDAN MEHANNY", "Bandiera": "Api-Ip", "Tipo impianto": "Altro", "Indirizzo": "S.P. 13 MONZA-MELZO KM. 12+700 SNC 20060", "Nome impianto": "IP ", "Comune": "CASSINA DE' PECCHI", "idImpianto": 50040, "points": [{"type": "Feature", "properties": {}, "geometry": {"type": "Point", "coordinates": [9.40695726716632, 45.51445066165029]}}], "price": 1.859, "ultima_rilevazione": "27/05/2022 18:45:13"}, {"Gestore": "EFFEMME SAS DI MERONI FULVIO GASPARE E C.", "Bandiera": "Api-Ip", "Tipo impianto": "Altro", "Indirizzo": "VIA MICHELANGELO BUONARROTI 63 20064", "Nome impianto": " punto vendita IP Effemme sas di Meroni F & c.", "Comune": "GORGONZOLA", "idImpianto": 15816, "points": [{"type": "Feature", "properties": {}, "geometry": {"type": "Point", "coordinates": [9.401620445790629, 45.52463732468525]}}], "price": 1.869, "ultima_rilevazione": "30/05/2022 09:57:48"}, {"Gestore": "LOMBARDI SALVATORE", "Bandiera": "Esso", "Tipo impianto": "Altro", "Indirizzo": "Via Provinciale 68 20060", "Nome impianto": "ESSO", "Comune": "PESSANO CON BORNAGO", "idImpianto": 49119, "points": [{"type": "Feature", "properties": {}, "geometry": {"type": "Point", "coordinates": [9.39207043498754, 45.5397446156316]}}], "price": 1.909, "ultima_rilevazione": "01/06/2022 09:00:24"}, {"Gestore": "CHIAPPINELLI NICOLA", "Bandiera": "Api-Ip", "Tipo impianto": "Altro", "Indirizzo": "S.P.13 km12+120  ", "Nome impianto": "API-IP ", "Comune": "GORGONZOLA", "idImpianto": 25397, "points": [{"type": "Feature", "properties": {}, "geometry": {"type": "Point", "coordinates": [9.402837753295898, 45.5191846639186]}}], "price": 1.899, "ultima_rilevazione": "01/06/2022 16:52:54"}, {"Gestore": "ZACCHI RENATO", "Bandiera": "Agip Eni", "Tipo impianto": "Altro", "Indirizzo": "VIALE EUROPA 13 BIS 20060", "Nome impianto": "ENI BUSSERO", "Comune": "BUSSERO", "idImpianto": 41033, "points": [{"type": "Feature", "properties": {}, "geometry": {"type": "Point", "coordinates": [9.374386614749938, 45.530786489777256]}}], "price": 1.914, "ultima_rilevazione": "01/06/2022 22:15:12"}, {"Gestore": "SERVIZI & GESTIONI ITALIA srl", "Bandiera": "Q8", "Tipo impianto": "Altro", "Indirizzo": "VIA MILANO 4/6 20064", "Nome impianto": "GORGONZOLA VIA MILANO 4/6", "Comune": "GORGONZOLA", "idImpianto": 6430, "points": [{"type": "Feature", "properties": {}, "geometry": {"type": "Point", "coordinates": [9.396399528836128, 45.52720696738999]}}], "price": 1.919, "ultima_rilevazione": "02/06/2022 01:40:18"}, {"Gestore": "SERVIZI & GESTIONI ITALIA S.R.L.", "Bandiera": "Q8", "Tipo impianto": "Altro", "Indirizzo": "S.P. 13 KM 13+600  20066", "Nome impianto": "MELZO - S.P. 13 KM 13+600", "Comune": "MELZO", "idImpianto": 30795, "points": [{"type": "Feature", "properties": {}, "geometry": {"type": "Point", "coordinates": [9.41143329325405, 45.506879572830464]}}], "price": 1.939, "ultima_rilevazione": "02/06/2022 01:40:32"}, {"Gestore": "SERVIZI & GESTIONI ITALIA srl", "Bandiera": "Q8", "Tipo impianto": "Altro", "Indirizzo": "VIA PROVINCIALE 83 DISTR.Q8 SNC 20060", "Nome impianto": "PESSANO CON BORNAGO VIA PROVINCIALE 83 DISTR.Q8", "Comune": "PESSANO CON BORNAGO", "idImpianto": 6443, "points": [{"type": "Feature", "properties": {}, "geometry": {"type": "Point", "coordinates": [9.39170405396726, 45.54389870287802]}}], "price": 1.939, "ultima_rilevazione": "02/06/2022 01:40:49"}, {"Gestore": "SERVIZI & GESTIONI ITALIA S.R.L.", "Bandiera": "Q8", "Tipo impianto": "Altro", "Indirizzo": "VIA GAVAZZI 47 20066", "Nome impianto": "MELZO-VIA GAVAZZI 47", "Comune": "MELZO", "idImpianto": 11682, "points": [{"type": "Feature", "properties": {}, "geometry": {"type": "Point", "coordinates": [9.423860932540949, 45.50700826571132]}}], "price": 1.959, "ultima_rilevazione": "02/06/2022 07:10:58"}, {"Gestore": "SERVIZI & GESTIONI ITALIA S.R.L.", "Bandiera": "Q8", "Tipo impianto": "Altro", "Indirizzo": "S.P 242 KM 4+578 S/N  20060", "Nome impianto": "PESSANO CON BORNAGO -S.P 242 KM 4+578", "Comune": "PESSANO CON BORNAGO", "idImpianto": 11711, "points": [{"type": "Feature", "properties": {}, "geometry": {"type": "Point", "coordinates": [9.389155568122874, 45.549163863694574]}}], "price": 1.949, "ultima_rilevazione": "02/06/2022 07:11:01"}, {"Gestore": "IP SERVICES S.R.L.", "Bandiera": "Api-Ip", "Tipo impianto": "Altro", "Indirizzo": "VIA TRIESTE  20064", "Nome impianto": "GORGONZOLA - TRIESTE", "Comune": "GORGONZOLA", "idImpianto": 31060, "points": [{"type": "Feature", "properties": {}, "geometry": {"type": "Point", "coordinates": [9.412570495700834, 45.53279436333076]}}], "price": 1.899, "ultima_rilevazione": "02/06/2022 12:02:25"}, {"Gestore": "L.A. SNC DI LAINO NICODEMO & C.", "Bandiera": "Api-Ip", "Tipo impianto": "Strada Statale", "Indirizzo": "11 Padana Superiore, Km. 163+450, sud 20864", "Nome impianto": "IP", "Comune": "GORGONZOLA", "idImpianto": 40432, "points": [{"type": "Feature", "properties": {}, "geometry": {"type": "Point", "coordinates": [9.4075208902359, 45.52394258704885]}}], "price": 1.899, "ultima_rilevazione": "02/06/2022 16:43:41"}], "3": [{"Gestore": "GALLI CRISTIANO", "Bandiera": "Api-Ip", "Tipo impianto": "Altro", "Indirizzo": "STRADA CONSORTILE 631 -MOLINA- SNC 20060", "Nome impianto": "IP di Galli Cristiano", "Comune": "VIGNATE", "idImpianto": 21484, "points": [{"type": "Feature", "properties": {}, "geometry": {"type": "Point", "coordinates": [9.385899603366852, 45.50236088885581]}}], "price": 1.839, "ultima_rilevazione": "27/05/2022 14:42:14"}, {"Gestore": "M. & F. S.N.C. DI DOMENICO E FELICE OTTANA'", "Bandiera": "Agip Eni", "Tipo impianto": "Altro", "Indirizzo": "S.P. 13 (Monza-Melzo) Km. 15+860  20066", "Nome impianto": "ENI-M. & F. S.N.C. DI DOMENICO E FELICE OTTANA'", "Comune": "MELZO", "idImpianto": 45572, "points": [{"type": "Feature", "properties": {}, "geometry": {"type": "Point", "coordinates": [9.421616373016375, 45.493594489221046]}}], "price": 1.899, "ultima_rilevazione": "30/05/2022 16:22:27"}, {"Gestore": "GENERAL OIL DI MASSIMO FARINOTTI E C. S.A.S.", "Bandiera": "Pompe Bianche", "Tipo impianto": "Altro", "Indirizzo": "SP 103 DIR KM 2.500 SNC 20060", "Nome impianto": "GENERAL OIL", "Comune": "POZZUOLO MARTESANA", "idImpianto": 44993, "points": [{"type": "Feature", "properties": {}, "geometry": {"type": "Point", "coordinates": [9.464120864868164, 45.52359305745107]}}], "price": 1.829, "ultima_rilevazione": "31/05/2022 13:32:46"}, {"Gestore": "AUTOSERVICE DI GIOVANNI D'ALOIA S.A.S.", "Bandiera": "Pompe Bianche", "Tipo impianto": "Altro", "Indirizzo": "VIA MOLINA  20060", "Nome impianto": "DALOIL 1971", "Comune": "VIGNATE", "idImpianto": 47341, "points": [{"type": "Feature", "properties": {}, "geometry": {"type": "Point", "coordinates": [9.385025809582404, 45.49972986406563]}}], "price": 1.849, "ultima_rilevazione": "01/06/2022 09:07:09"}, {"Gestore": "FERRO MAURO", "Bandiera": "Agip Eni", "Tipo impianto": "Strada Statale", "Indirizzo": "Strada Statale, Km. 1+280, melzo 20867", "Nome impianto": "stazione eni ferro mauro", "Comune": "CAPONAGO", "idImpianto": 45069, "points": [{"type": "Feature", "properties": {}, "geometry": {"type": "Point", "coordinates": [9.376779000123, 45.560100000123]}}], "price": 1.854, "ultima_rilevazione": "01/06/2022 09:57:25"}, {"Gestore": "VINPE SERVIZI S.P.A.", "Bandiera": "Agip Eni", "Tipo impianto": "Altro", "Indirizzo": "S.P. 103 ANTICA CASSANESE SNC,  20060   ", "Nome impianto": "VIGNATE", "Comune": "VIGNATE", "idImpianto": 12143, "points": [{"type": "Feature", "properties": {}, "geometry": {"type": "Point", "coordinates": [9.378164112567902, 45.50568972852001]}}], "price": 1.914, "ultima_rilevazione": "01/06/2022 10:43:45"}, {"Gestore": "AUTOMARKET DI FUMAGALLI & BRAMBILLA S.N.C.", "Bandiera": "Agip Eni", "Tipo impianto": "Altro", "Indirizzo": "VIA PROVINCIALE 15 20060", "Nome impianto": "ENI AUTOMARKET SNC", "Comune": "PESSANO CON BORNAGO", "idImpianto": 14598, "points": [{"type": "Feature", "properties": {}, "geometry": {"type": "Point", "coordinates": [9.38745020163242, 45.55289646788714]}}], "price": 1.919, "ultima_rilevazione": "01/06/2022 15:38:06"}, {"Gestore": "AG SAS DI ABBATTISTA GIOVANNI", "Bandiera": "Agip Eni", "Tipo impianto": "Strada Statale", "Indirizzo": "Statale 11 Padana Superiore, Km. 158+082, dir. SUD 20060", "Nome impianto": "STAZIONE SERVIZIO ENI", "Comune": "CASSINA DE' PECCHI", "idImpianto": 6164, "points": [{"type": "Feature", "properties": {}, "geometry": {"type": "Point", "coordinates": [9.357555359601974, 45.51818409200797]}}], "price": 1.914, "ultima_rilevazione": "01/06/2022 18:50:23"}, {"Gestore": "REGAZZETTI GIANNI", "Bandiera": "Api-Ip", "Tipo impianto": "Altro", "Indirizzo": "sp 103  20060", "Nome impianto": "TotalErg", "Comune": "CASSINA DE' PECCHI", "idImpianto": 13404, "points": [{"type": "Feature", "properties": {}, "geometry": {"type": "Point", "coordinates": [9.389531314373016, 45.50753114572307]}}], "price": 1.859, "ultima_rilevazione": "01/06/2022 19:15:57"}, {"Gestore": "SERVIZI & GESTIONI ITALIA S.R.L.", "Bandiera": "Q8", "Tipo impianto": "Altro", "Indirizzo": "FZ.VILLA FORNACI VIA PADANA SUP.148 S/N 20060", "Nome impianto": "BELLINZAGO-FZ.VILLA FORNACI VIA PADANA SUP.148", "Comune": "BELLINZAGO LOMBARDO", "idImpianto": 11663, "points": [{"type": "Feature", "properties": {}, "geometry": {"type": "Point", "coordinates": [9.450908804893515, 45.54661270580155]}}], "price": 1.899, "ultima_rilevazione": "02/06/2022 01:40:20"}, {"Gestore": "SERVIZI & GESTIONI ITALIA S.R.L.", "Bandiera": "Q8", "Tipo impianto": "Altro", "Indirizzo": "VIA ROMA 70 20060", "Nome impianto": "CASSINA DE' PECCHI-VIA ROMA 70", "Comune": "CASSINA DE' PECCHI", "idImpianto": 11688, "points": [{"type": "Feature", "properties": {}, "geometry": {"type": "Point", "coordinates": [9.365186645507832, 45.51936083416594]}}], "price": 1.919, "ultima_rilevazione": "02/06/2022 01:40:23"}, {"Gestore": "SERVIZI & GESTIONI ITALIA S.R.L.", "Bandiera": "Q8", "Tipo impianto": "Altro", "Indirizzo": "CASSANESE SP 103 C/O CC ACQUARIO S/N 20060", "Nome impianto": "VIGNATE-CASSANESE SP 103 C/O CC ACQUARIO", "Comune": "VIGNATE", "idImpianto": 11707, "points": [{"type": "Feature", "properties": {}, "geometry": {"type": "Point", "coordinates": [9.372512698173525, 45.50462086686203]}}], "price": 1.869, "ultima_rilevazione": "02/06/2022 01:41:08"}, {"Gestore": "SERVIZI & GESTIONI ITALIA S.R.L.", "Bandiera": "Q8", "Tipo impianto": "Altro", "Indirizzo": "PIAZZA CASTELLO 43 20060", "Nome impianto": "PESSANO CON BORNAGO-PIAZZA CASTELLO 43", "Comune": "PESSANO CON BORNAGO", "idImpianto": 11654, "points": [{"type": "Feature", "properties": {}, "geometry": {"type": "Point", "coordinates": [9.383887171793049, 45.55137231340641]}}], "price": 1.989, "ultima_rilevazione": "02/06/2022 07:11:01"}, {"Gestore": "IP SERVICES S.R.L.", "Bandiera": "Api-Ip", "Tipo impianto": "Altro", "Indirizzo": "strada provinciale 103 smc 20060", "Nome impianto": "Pozzuolo", "Comune": "POZZUOLO MARTESANA", "idImpianto": 35216, "points": [{"type": "Feature", "properties": {}, "geometry": {"type": "Point", "coordinates": [9.449320435523989, 45.51968268788503]}}], "price": 1.799, "ultima_rilevazione": "02/06/2022 12:03:51"}, {"Gestore": "RACO DI RANTUCCIO GIUSEPPE E CONTI CARLUCCIO S.N.C.", "Bandiera": "Moro", "Tipo impianto": "Altro", "Indirizzo": "bivio villa fornaci  20065", "Nome impianto": "DISTRIBUTORE RACO snc \"MORO\"", "Comune": "INZAGO", "idImpianto": 34825, "points": [{"type": "Feature", "properties": {}, "geometry": {"type": "Point", "coordinates": [9.453352466225624, 45.54755410650007]}}], "price": 1.839, "ultima_rilevazione": "03/06/2022 00:16:05"}, {"Gestore": "NUOVA SIDAP  S.R.L.", "Bandiera": "Esso", "Tipo impianto": "Altro", "Indirizzo": "VIA C. COLOMBO 5 20066", "Nome impianto": "Melzo", "Comune": "MELZO", "idImpianto": 43741, "points": [{"type": "Feature", "properties": {}, "geometry": {"type": "Point", "coordinates": [9.411189556121826, 45.49404320362122]}}], "price": 1.979, "ultima_rilevazione": "03/06/2022 04:47:57"}], "5": [{"Gestore": "3 C S.R.L.", "Bandiera": "Agip Eni", "Tipo impianto": "Autostradale", "Indirizzo": "Autostrada A4 MILANO-BRESCIA, Km. 148+470, dir. Ovest 20864", "Nome impianto": "BRIANZA NORD", "Comune": "CAPONAGO", "idImpianto": 3630, "points": [{"type": "Feature", "properties": {}, "geometry": {"type": "Point", "coordinates": [9.39446, 45.5753]}}], "price": 1.852, "ultima_rilevazione": "01/06/2022 11:18:09"}, {"Gestore": "SPECIAL ONE S.N.C. DI CARTA MARIA GIUSEPPINA & DE LUCA LEONARDO", "Bandiera": "Q8", "Tipo impianto": "Altro", "Indirizzo": "strada provinciale 13 monza melegnano km 13 + 639  20060", "Nome impianto": "Special one snc di carta e de luca ", "Comune": "LISCATE", "idImpianto": 41778, "points": [{"type": "Feature", "properties": {}, "geometry": {"type": "Point", "coordinates": [9.426529705524445, 45.4822686259588]}}], "price": 1.919, "ultima_rilevazione": "28/05/2022 08:35:14"}, {"Gestore": "U.M.A. S.A.S. DI MARCO CELARI E C.", "Bandiera": "Esso", "Tipo impianto": "Altro", "Indirizzo": "via antica cassanese km 8,5  20060", "Nome impianto": "esso", "Comune": "CASSINA DE' PECCHI", "idImpianto": 33725, "points": [{"type": "Feature", "properties": {}, "geometry": {"type": "Point", "coordinates": [9.35478463768959, 45.50391517393423]}}], "price": 1.869, "ultima_rilevazione": "30/05/2022 08:24:47"}, {"Gestore": "CHIUMMO NICOLA", "Bandiera": "Api-Ip", "Tipo impianto": "Altro", "Indirizzo": "STRADA PROVINCIALE 14 RIVOLTANA KM 11  20060", "Nome impianto": "IP", "Comune": "LISCATE", "idImpianto": 24429, "points": [{"type": "Feature", "properties": {}, "geometry": {"type": "Point", "coordinates": [9.402365684509276, 45.48396864218163]}}], "price": 1.839, "ultima_rilevazione": "31/05/2022 08:46:56"}, {"Gestore": "LOVINO MARCO", "Bandiera": "Esso", "Tipo impianto": "Altro", "Indirizzo": "VIA GIUSEPPE VERDI 47 20063", "Nome impianto": "STAZIONE DI SERVIZIO ESSO VIA VERDI 47", "Comune": "CERNUSCO SUL NAVIGLIO", "idImpianto": 49049, "points": [{"type": "Feature", "properties": {}, "geometry": {"type": "Point", "coordinates": [9.337236285209656, 45.52923583950437]}}], "price": 1.806, "ultima_rilevazione": "31/05/2022 09:37:05"}, {"Gestore": "SUPERSERVICE SNC DEI F.LLI CANTARELLI", "Bandiera": "Agip Eni", "Tipo impianto": "Autostradale", "Indirizzo": "Autostrada A4 MILANO-BRESCIA, Km. 24, dir. BERGAMO", "Nome impianto": "BRIANZA SUD", "Comune": "CAPONAGO", "idImpianto": 24292, "points": [{"type": "Feature", "properties": {}, "geometry": {"type": "Point", "coordinates": [9.394437074661257, 45.574416646651166]}}], "price": 2.004, "ultima_rilevazione": "01/06/2022 09:03:18"}, {"Gestore": "DUELLE S.N.C. DI MARCO E SIMONE LEVATI", "Bandiera": "Agip Eni", "Tipo impianto": "Altro", "Indirizzo": "VIA TORINO S.P.121 KM. 2+400  20063", "Nome impianto": "DUELLE SNC DI SIMONE E MARCO LEVATI", "Comune": "CERNUSCO SUL NAVIGLIO", "idImpianto": 11293, "points": [{"type": "Feature", "properties": {}, "geometry": {"type": "Point", "coordinates": [9.338799389162205, 45.504134696116026]}}], "price": 1.919, "ultima_rilevazione": "01/06/2022 09:20:07"}, {"Gestore": "R.A.M.M. DI CREMONESI MARIO VITTORIO", "Bandiera": "Pompe Bianche", "Tipo impianto": "Altro", "Indirizzo": "VIA DEI MILLE 151 20861", "Nome impianto": "PETROL OUTLET", "Comune": "BRUGHERIO", "idImpianto": 38614, "points": [{"type": "Feature", "properties": {}, "geometry": {"type": "Point", "coordinates": [9.322085827589037, 45.548317481746224]}}], "price": 1.819, "ultima_rilevazione": "01/06/2022 09:31:35"}, {"Gestore": "PNEUSCARS 2 S.A.S. DI TERRANE FABIO & C.", "Bandiera": "Agip Eni", "Tipo impianto": "Altro", "Indirizzo": "VIA MILANO 9 20096", "Nome impianto": "Eni", "Comune": "PIOLTELLO", "idImpianto": 12081, "points": [{"type": "Feature", "properties": {}, "geometry": {"type": "Point", "coordinates": [9.331360636840031, 45.50138514073774]}}], "price": 1.919, "ultima_rilevazione": "01/06/2022 11:44:48"}, {"Gestore": "ENERGON SNC DI COLOMBO HIAELE & C.", "Bandiera": "Api-Ip", "Tipo impianto": "Altro", "Indirizzo": "strada provinciale 179 20060", "Nome impianto": "IP", "Comune": "MASATE", "idImpianto": 48262, "points": [{"type": "Feature", "properties": {}, "geometry": {"type": "Point", "coordinates": [9.4693946585544, 45.56803790707382]}}], "price": 1.849, "ultima_rilevazione": "01/06/2022 12:07:50"}, {"Gestore": "IEVA MICHELE", "Bandiera": "Agip Eni", "Tipo impianto": "Altro", "Indirizzo": "VIA SP 121 POBBIANO/CAVENAGO  20061", "Nome impianto": "stazione di servizio Agip di Ieva michele", "Comune": "CARUGATE", "idImpianto": 7530, "points": [{"type": "Feature", "properties": {}, "geometry": {"type": "Point", "coordinates": [9.333864748477936, 45.55165355778144]}}], "price": 1.919, "ultima_rilevazione": "01/06/2022 14:09:04"}, {"Gestore": "PREMOLI MAURIZIO", "Bandiera": "Api-Ip", "Tipo impianto": "Altro", "Indirizzo": "str.prov.nuova rivoltana 54 20060", "Nome impianto": "totalerg", "Comune": "VIGNATE", "idImpianto": 16905, "points": [{"type": "Feature", "properties": {}, "geometry": {"type": "Point", "coordinates": [9.382855296134949, 45.48370010302824]}}], "price": 1.859, "ultima_rilevazione": "01/06/2022 15:03:40"}, {"Gestore": "CALOR SYSTEMS S.R.L.", "Bandiera": "Api-Ip", "Tipo impianto": "Altro", "Indirizzo": "Via Mantegna 12 20096", "Nome impianto": "PIOLTELLO MANTEGNA", "Comune": "PIOLTELLO", "idImpianto": 48073, "points": [{"type": "Feature", "properties": {}, "geometry": {"type": "Point", "coordinates": [9.330787259507195, 45.50368496110519]}}], "price": 1.889, "ultima_rilevazione": "01/06/2022 15:04:54"}, {"Gestore": "PAINI ARNALDO", "Bandiera": "Api-Ip", "Tipo impianto": "Altro", "Indirizzo": "strada provinciale 176 km 015 + 075  20873", "Nome impianto": "IP ", "Comune": "CAVENAGO DI BRIANZA", "idImpianto": 8387, "points": [{"type": "Feature", "properties": {}, "geometry": {"type": "Point", "coordinates": [9.409189224243164, 45.58349925138629]}}], "price": 1.919, "ultima_rilevazione": "01/06/2022 15:47:00"}, {"Gestore": "GS SPA", "Bandiera": "Q8", "Tipo impianto": "Altro", "Indirizzo": "Strada Provinciale  208 20061", "Nome impianto": "Carrefour Q8 Carugate", "Comune": "CARUGATE", "idImpianto": 48741, "points": [{"type": "Feature", "properties": {}, "geometry": {"type": "Point", "coordinates": [9.331401268583818, 45.54816345136025]}}], "price": 1.799, "ultima_rilevazione": "01/06/2022 16:12:54"}, {"Gestore": "ULLOA MONICA YESENIA", "Bandiera": "Agip Eni", "Tipo impianto": "Altro", "Indirizzo": "S.P.14 RIVOLTANA KM 14+500  20060", "Nome impianto": "ENI TRUCCAZZANO", "Comune": "TRUCCAZZANO", "idImpianto": 48200, "points": [{"type": "Feature", "properties": {}, "geometry": {"type": "Point", "coordinates": [9.446825981140137, 45.48075361266587]}}], "price": 1.869, "ultima_rilevazione": "01/06/2022 16:23:15"}, {"Gestore": "SERVIZI & GESTIONI ITALIA S.R.L.", "Bandiera": "Q8", "Tipo impianto": "Altro", "Indirizzo": "VIA NUOVA RIVOLTANA KM 16 S/N 20060", "Nome impianto": "TRUCCAZZANO-VIA NUOVA RIVOLTANA KM 16", "Comune": "TRUCCAZZANO", "idImpianto": 11670, "points": [{"type": "Feature", "properties": {}, "geometry": {"type": "Point", "coordinates": [9.465873177909884, 45.48188495528274]}}], "price": 1.989, "ultima_rilevazione": "02/06/2022 07:11:03"}, {"Gestore": "SERVIZI & GESTIONI ITALIA S.R.L.", "Bandiera": "Q8", "Tipo impianto": "Altro", "Indirizzo": "S.P. 121 - KM. 8+070  20063", "Nome impianto": "CERNUSCO SUL NAVIGLIO - S.P. 121 - KM. 8+070", "Comune": "CERNUSCO SUL NAVIGLIO", "idImpianto": 30796, "points": [{"type": "Feature", "properties": {}, "geometry": {"type": "Point", "coordinates": [9.336739286508193, 45.5403700891952]}}], "price": 1.869, "ultima_rilevazione": "02/06/2022 07:11:04"}, {"Gestore": "PACEKO S.R.L.", "Bandiera": "Pompe Bianche", "Tipo impianto": "Altro", "Indirizzo": "Via delle industrie  16 20864", "Nome impianto": "EKOPOINT", "Comune": "AGRATE BRIANZA", "idImpianto": 44517, "points": [{"type": "Feature", "properties": {}, "geometry": {"type": "Point", "coordinates": [9.35416730855468, 45.56791207197751]}}], "price": 1.839, "ultima_rilevazione": "02/06/2022 08:18:56"}, {"Gestore": "IP SERVICES S.R.L.", "Bandiera": "Api-Ip", "Tipo impianto": "Altro", "Indirizzo": "S.P.121  KM.6+250 20063", "Nome impianto": "Cernusco sul Naviglio", "Comune": "CERNUSCO SUL NAVIGLIO", "idImpianto": 37970, "points": [{"type": "Feature", "properties": {}, "geometry": {"type": "Point", "coordinates": [9.334397882212215, 45.54543517250591]}}], "price": 1.819, "ultima_rilevazione": "02/06/2022 12:04:12"}, {"Gestore": "DELLA BASSA ALESSANDRO", "Bandiera": "Q8", "Tipo impianto": "Altro", "Indirizzo": "STRADA P. CERCA 39 KM. 13,900 SNC 20060", "Nome impianto": "STAZIONE DI SERVIZIO Q8 di DELLA BASSA ALESSANDRO", "Comune": "LISCATE", "idImpianto": 10111, "points": [{"type": "Feature", "properties": {}, "geometry": {"type": "Point", "coordinates": [9.413228631019592, 45.46788789854411]}}], "price": 1.899, "ultima_rilevazione": "02/06/2022 20:19:13"}, {"Gestore": "RACO DI RANTUCCIO GIUSEPPE E CONTI CARLUCCIO S.N.C.", "Bandiera": "Pompe Bianche", "Tipo impianto": "Altro", "Indirizzo": "VIALE DELLE INDUSTRIE 1 20040", "Nome impianto": "AREA DI SERVIZIO RACO", "Comune": "CAMBIAGO", "idImpianto": 4612, "points": [{"type": "Feature", "properties": {}, "geometry": {"type": "Point", "coordinates": [9.41773831003411, 45.57724081192453]}}], "price": 1.859, "ultima_rilevazione": "03/06/2022 07:16:03"}, {"Gestore": "SERVICE CAR DI FACCHINETTI GIORGIO & C. S.A.S.", "Bandiera": "Api-Ip", "Tipo impianto": "Altro", "Indirizzo": "VIA PADANA SUPERIORE 1 20065", "Nome impianto": "IP DI INZAGO", "Comune": "INZAGO", "idImpianto": 13397, "points": [{"type": "Feature", "properties": {}, "geometry": {"type": "Point", "coordinates": [9.485035389661787, 45.535736810233736]}}], "price": 1.819, "ultima_rilevazione": "03/06/2022 07:36:04"}, {"Gestore": "ENI FUEL S.P.A.", "Bandiera": "Agip Eni", "Tipo impianto": "Altro", "Indirizzo": "Via Matteotti 133 20041", "Nome impianto": "PV 02151 Agrate Brianza", "Comune": "AGRATE BRIANZA", "idImpianto": 47365, "points": [{"type": "Feature", "properties": {}, "geometry": {"type": "Point", "coordinates": [9.356548000123, 45.572168000123]}}], "price": 1.859, "ultima_rilevazione": "03/06/2022 07:42:05"}, {"Gestore": "STAZIONE DI SERVIZIO DI APA SALVATORE & C. SNC", "Bandiera": "Api-Ip", "Tipo impianto": "Altro", "Indirizzo": "inzago-via marconi (mi)  20065", "Nome impianto": "stazione di servizo di apa salvatore & c snc", "Comune": "INZAGO", "idImpianto": 36263, "points": [{"type": "Feature", "properties": {}, "geometry": {"type": "Point", "coordinates": [9.490151575363145, 45.53806018876075]}}], "price": 1.859, "ultima_rilevazione": "03/06/2022 06:45:25"}, {"Gestore": "GAZZONI ROBERTO E MOTTA IVANO S.N.C.", "Bandiera": "Tamoil", "Tipo impianto": "Altro", "Indirizzo": "STRADA PROVINC.14/RIVOLTANA KM12.600  20060", "Nome impianto": "TAMOIL", "Comune": "LISCATE", "idImpianto": 7495, "points": [{"type": "Feature", "properties": {}, "geometry": {"type": "Point", "coordinates": [9.42442148923874, 45.48016459700467]}}], "price": 1.919, "ultima_rilevazione": "03/06/2022 07:26:09"}]}, "Metano": {"1": [], "3": [{"Gestore": "AUTOSERVICE DI GIOVANNI D'ALOIA S.A.S.", "Bandiera": "Pompe Bianche", "Tipo impianto": "Altro", "Indirizzo": "VIA MOLINA  20060", "Nome impianto": "DALOIL 1971", "Comune": "VIGNATE", "idImpianto": 47341, "points": [{"type": "Feature", "properties": {}, "geometry": {"type": "Point", "coordinates": [9.385025809582404, 45.49972986406563]}}], "price": 2.798, "ultima_rilevazione": "01/06/2022 09:07:09"}, {"Gestore": "GENERAL OIL DI MASSIMO FARINOTTI E C. S.A.S.", "Bandiera": "Pompe Bianche", "Tipo impianto": "Altro", "Indirizzo": "SP 103 DIR KM 2.500 SNC 20060", "Nome impianto": "GENERAL OIL", "Comune": "POZZUOLO MARTESANA", "idImpianto": 44993, "points": [{"type": "Feature", "properties": {}, "geometry": {"type": "Point", "coordinates": [9.464120864868164, 45.52359305745107]}}], "price": 2.399, "ultima_rilevazione": "31/05/2022 13:32:46"}, {"Gestore": "IP SERVICES S.R.L.", "Bandiera": "Api-Ip", "Tipo impianto": "Altro", "Indirizzo": "strada provinciale 103 smc 20060", "Nome impianto": "Pozzuolo", "Comune": "POZZUOLO MARTESANA", "idImpianto": 35216, "points": [{"type": "Feature", "properties": {}, "geometry": {"type": "Point", "coordinates": [9.449320435523989, 45.51968268788503]}}], "price": 2.399, "ultima_rilevazione": "02/06/2022 12:03:51"}], "5": [{"Gestore": "SUPERSERVICE SNC DEI F.LLI CANTARELLI", "Bandiera": "Agip Eni", "Tipo impianto": "Autostradale", "Indirizzo": "Autostrada A4 MILANO-BRESCIA, Km. 24, dir. BERGAMO", "Nome impianto": "BRIANZA SUD", "Comune": "CAPONAGO", "idImpianto": 24292, "points": [{"type": "Feature", "properties": {}, "geometry": {"type": "Point", "coordinates": [9.394437074661257, 45.574416646651166]}}], "price": 2.094, "ultima_rilevazione": "01/06/2022 09:03:18"}, {"Gestore": "R.A.M.M. DI CREMONESI MARIO VITTORIO", "Bandiera": "Pompe Bianche", "Tipo impianto": "Altro", "Indirizzo": "VIA DEI MILLE 151 20861", "Nome impianto": "PETROL OUTLET", "Comune": "BRUGHERIO", "idImpianto": 38614, "points": [{"type": "Feature", "properties": {}, "geometry": {"type": "Point", "coordinates": [9.322085827589037, 45.548317481746224]}}], "price": 1.899, "ultima_rilevazione": "01/06/2022 09:31:35"}, {"Gestore": "SERVICE CAR DI FACCHINETTI GIORGIO & C. S.A.S.", "Bandiera": "Api-Ip", "Tipo impianto": "Altro", "Indirizzo": "VIA PADANA SUPERIORE 1 20065", "Nome impianto": "IP DI INZAGO", "Comune": "INZAGO", "idImpianto": 13397, "points": [{"type": "Feature", "properties": {}, "geometry": {"type": "Point", "coordinates": [9.485035389661787, 45.535736810233736]}}], "price": 2.199, "ultima_rilevazione": "03/06/2022 07:36:04"}]}, "GPL": {"1": [{"Gestore": "CHIAPPINELLI NICOLA", "Bandiera": "Api-Ip", "Tipo impianto": "Altro", "Indirizzo": "S.P.13 km12+120  ", "Nome impianto": "API-IP ", "Comune": "GORGONZOLA", "idImpianto": 25397, "points": [{"type": "Feature", "properties": {}, "geometry": {"type": "Point", "coordinates": [9.402837753295898, 45.5191846639186]}}], "price": 0.889, "ultima_rilevazione": "01/06/2022 16:52:54"}], "3": [{"Gestore": "GENERAL OIL DI MASSIMO FARINOTTI E C. S.A.S.", "Bandiera": "Pompe Bianche", "Tipo impianto": "Altro", "Indirizzo": "SP 103 DIR KM 2.500 SNC 20060", "Nome impianto": "GENERAL OIL", "Comune": "POZZUOLO MARTESANA", "idImpianto": 44993, "points": [{"type": "Feature", "properties": {}, "geometry": {"type": "Point", "coordinates": [9.464120864868164, 45.52359305745107]}}], "price": 0.839, "ultima_rilevazione": "31/05/2022 13:32:46"}, {"Gestore": "FERRO MAURO", "Bandiera": "Agip Eni", "Tipo impianto": "Strada Statale", "Indirizzo": "Strada Statale, Km. 1+280, melzo 20867", "Nome impianto": "stazione eni ferro mauro", "Comune": "CAPONAGO", "idImpianto": 45069, "points": [{"type": "Feature", "properties": {}, "geometry": {"type": "Point", "coordinates": [9.376779000123, 45.560100000123]}}], "price": 0.86, "ultima_rilevazione": "01/06/2022 09:57:25"}], "5": [{"Gestore": "3 C S.R.L.", "Bandiera": "Agip Eni", "Tipo impianto": "Autostradale", "Indirizzo": "Autostrada A4 MILANO-BRESCIA, Km. 148+470, dir. Ovest 20864", "Nome impianto": "BRIANZA NORD", "Comune": "CAPONAGO", "idImpianto": 3630, "points": [{"type": "Feature", "properties": {}, "geometry": {"type": "Point", "coordinates": [9.39446, 45.5753]}}], "price": 0.877, "ultima_rilevazione": "01/06/2022 11:18:09"}, {"Gestore": "U.M.A. S.A.S. DI MARCO CELARI E C.", "Bandiera": "Esso", "Tipo impianto": "Altro", "Indirizzo": "via antica cassanese km 8,5  20060", "Nome impianto": "esso", "Comune": "CASSINA DE' PECCHI", "idImpianto": 33725, "points": [{"type": "Feature", "properties": {}, "geometry": {"type": "Point", "coordinates": [9.35478463768959, 45.50391517393423]}}], "price": 0.869, "ultima_rilevazione": "30/05/2022 08:24:47"}, {"Gestore": "SUPERSERVICE SNC DEI F.LLI CANTARELLI", "Bandiera": "Agip Eni", "Tipo impianto": "Autostradale", "Indirizzo": "Autostrada A4 MILANO-BRESCIA, Km. 24, dir. BERGAMO", "Nome impianto": "BRIANZA SUD", "Comune": "CAPONAGO", "idImpianto": 24292, "points": [{"type": "Feature", "properties": {}, "geometry": {"type": "Point", "coordinates": [9.394437074661257, 45.574416646651166]}}], "price": 0.887, "ultima_rilevazione": "01/06/2022 09:03:18"}, {"Gestore": "R.A.M.M. DI CREMONESI MARIO VITTORIO", "Bandiera": "Pompe Bianche", "Tipo impianto": "Altro", "Indirizzo": "VIA DEI MILLE 151 20861", "Nome impianto": "PETROL OUTLET", "Comune": "BRUGHERIO", "idImpianto": 38614, "points": [{"type": "Feature", "properties": {}, "geometry": {"type": "Point", "coordinates": [9.322085827589037, 45.548317481746224]}}], "price": 0.799, "ultima_rilevazione": "01/06/2022 09:31:35"}, {"Gestore": "ULLOA MONICA YESENIA", "Bandiera": "Agip Eni", "Tipo impianto": "Altro", "Indirizzo": "S.P.14 RIVOLTANA KM 14+500  20060", "Nome impianto": "ENI TRUCCAZZANO", "Comune": "TRUCCAZZANO", "idImpianto": 48200, "points": [{"type": "Feature", "properties": {}, "geometry": {"type": "Point", "coordinates": [9.446825981140137, 45.48075361266587]}}], "price": 0.839, "ultima_rilevazione": "01/06/2022 16:23:15"}, {"Gestore": "PACEKO S.R.L.", "Bandiera": "Pompe Bianche", "Tipo impianto": "Altro", "Indirizzo": "Via delle industrie  16 20864", "Nome impianto": "EKOPOINT", "Comune": "AGRATE BRIANZA", "idImpianto": 44517, "points": [{"type": "Feature", "properties": {}, "geometry": {"type": "Point", "coordinates": [9.35416730855468, 45.56791207197751]}}], "price": 0.799, "ultima_rilevazione": "02/06/2022 08:18:56"}, {"Gestore": "DELLA BASSA ALESSANDRO", "Bandiera": "Q8", "Tipo impianto": "Altro", "Indirizzo": "STRADA P. CERCA 39 KM. 13,900 SNC 20060", "Nome impianto": "STAZIONE DI SERVIZIO Q8 di DELLA BASSA ALESSANDRO", "Comune": "LISCATE", "idImpianto": 10111, "points": [{"type": "Feature", "properties": {}, "geometry": {"type": "Point", "coordinates": [9.413228631019592, 45.46788789854411]}}], "price": 0.839, "ultima_rilevazione": "02/06/2022 20:19:13"}, {"Gestore": "SERVICE CAR DI FACCHINETTI GIORGIO & C. S.A.S.", "Bandiera": "Api-Ip", "Tipo impianto": "Altro", "Indirizzo": "VIA PADANA SUPERIORE 1 20065", "Nome impianto": "IP DI INZAGO", "Comune": "INZAGO", "idImpianto": 13397, "points": [{"type": "Feature", "properties": {}, "geometry": {"type": "Point", "coordinates": [9.485035389661787, 45.535736810233736]}}], "price": 0.839, "ultima_rilevazione": "03/06/2022 07:36:04"}, {"Gestore": "RACO DI RANTUCCIO GIUSEPPE E CONTI CARLUCCIO S.N.C.", "Bandiera": "Pompe Bianche", "Tipo impianto": "Altro", "Indirizzo": "VIALE DELLE INDUSTRIE 1 20040", "Nome impianto": "AREA DI SERVIZIO RACO", "Comune": "CAMBIAGO", "idImpianto": 4612, "points": [{"type": "Feature", "properties": {}, "geometry": {"type": "Point", "coordinates": [9.41773831003411, 45.57724081192453]}}], "price": 0.839, "ultima_rilevazione": "03/06/2022 07:16:03"}]}, "Blue Diesel": {"1": [{"Gestore": "ZACCHI RENATO", "Bandiera": "Agip Eni", "Tipo impianto": "Altro", "Indirizzo": "VIALE EUROPA 13 BIS 20060", "Nome impianto": "ENI BUSSERO", "Comune": "BUSSERO", "idImpianto": 41033, "points": [{"type": "Feature", "properties": {}, "geometry": {"type": "Point", "coordinates": [9.374386614749938, 45.530786489777256]}}], "price": 2.124, "ultima_rilevazione": "01/06/2022 22:15:12"}, {"Gestore": "ZACCHI RENATO", "Bandiera": "Agip Eni", "Tipo impianto": "Altro", "Indirizzo": "VIALE EUROPA 13 BIS 20060", "Nome impianto": "ENI BUSSERO", "Comune": "BUSSERO", "idImpianto": 41033, "points": [{"type": "Feature", "properties": {}, "geometry": {"type": "Point", "coordinates": [9.374386614749938, 45.530786489777256]}}], "price": 2.104, "ultima_rilevazione": "01/06/2022 22:15:12"}], "3": [{"Gestore": "M. & F. S.N.C. DI DOMENICO E FELICE OTTANA'", "Bandiera": "Agip Eni", "Tipo impianto": "Altro", "Indirizzo": "S.P. 13 (Monza-Melzo) Km. 15+860  20066", "Nome impianto": "ENI-M. & F. S.N.C. DI DOMENICO E FELICE OTTANA'", "Comune": "MELZO", "idImpianto": 45572, "points": [{"type": "Feature", "properties": {}, "geometry": {"type": "Point", "coordinates": [9.421616373016375, 45.493594489221046]}}], "price": 2.079, "ultima_rilevazione": "30/05/2022 16:22:27"}, {"Gestore": "FERRO MAURO", "Bandiera": "Agip Eni", "Tipo impianto": "Strada Statale", "Indirizzo": "Strada Statale, Km. 1+280, melzo 20867", "Nome impianto": "stazione eni ferro mauro", "Comune": "CAPONAGO", "idImpianto": 45069, "points": [{"type": "Feature", "properties": {}, "geometry": {"type": "Point", "coordinates": [9.376779000123, 45.560100000123]}}], "price": 2.124, "ultima_rilevazione": "01/06/2022 09:57:25"}, {"Gestore": "AUTOMARKET DI FUMAGALLI & BRAMBILLA S.N.C.", "Bandiera": "Agip Eni", "Tipo impianto": "Altro", "Indirizzo": "VIA PROVINCIALE 15 20060", "Nome impianto": "ENI AUTOMARKET SNC", "Comune": "PESSANO CON BORNAGO", "idImpianto": 14598, "points": [{"type": "Feature", "properties": {}, "geometry": {"type": "Point", "coordinates": [9.38745020163242, 45.55289646788714]}}], "price": 2.129, "ultima_rilevazione": "01/06/2022 15:38:06"}, {"Gestore": "M. & F. S.N.C. DI DOMENICO E FELICE OTTANA'", "Bandiera": "Agip Eni", "Tipo impianto": "Altro", "Indirizzo": "S.P. 13 (Monza-Melzo) Km. 15+860  20066", "Nome impianto": "ENI-M. & F. S.N.C. DI DOMENICO E FELICE OTTANA'", "Comune": "MELZO", "idImpianto": 45572, "points": [{"type": "Feature", "properties": {}, "geometry": {"type": "Point", "coordinates": [9.421616373016375, 45.493594489221046]}}], "price": 2.009, "ultima_rilevazione": "30/05/2022 16:22:27"}, {"Gestore": "FERRO MAURO", "Bandiera": "Agip Eni", "Tipo impianto": "Strada Statale", "Indirizzo": "Strada Statale, Km. 1+280, melzo 20867", "Nome impianto": "stazione eni ferro mauro", "Comune": "CAPONAGO", "idImpianto": 45069, "points": [{"type": "Feature", "properties": {}, "geometry": {"type": "Point", "coordinates": [9.376779000123, 45.560100000123]}}], "price": 1.954, "ultima_rilevazione": "01/06/2022 09:57:25"}, {"Gestore": "AUTOMARKET DI FUMAGALLI & BRAMBILLA S.N.C.", "Bandiera": "Agip Eni", "Tipo impianto": "Altro", "Indirizzo": "VIA PROVINCIALE 15 20060", "Nome impianto": "ENI AUTOMARKET SNC", "Comune": "PESSANO CON BORNAGO", "idImpianto": 14598, "points": [{"type": "Feature", "properties": {}, "geometry": {"type": "Point", "coordinates": [9.38745020163242, 45.55289646788714]}}], "price": 2.019, "ultima_rilevazione": "01/06/2022 15:38:06"}, {"Gestore": "AG SAS DI ABBATTISTA GIOVANNI", "Bandiera": "Agip Eni", "Tipo impianto": "Strada Statale", "Indirizzo": "Statale 11 Padana Superiore, Km. 158+082, dir. SUD 20060", "Nome impianto": "STAZIONE SERVIZIO ENI", "Comune": "CASSINA DE' PECCHI", "idImpianto": 6164, "points": [{"type": "Feature", "properties": {}, "geometry": {"type": "Point", "coordinates": [9.357555359601974, 45.51818409200797]}}], "price": 2.014, "ultima_rilevazione": "01/06/2022 18:50:23"}], "5": [{"Gestore": "3 C S.R.L.", "Bandiera": "Agip Eni", "Tipo impianto": "Autostradale", "Indirizzo": "Autostrada A4 MILANO-BRESCIA, Km. 148+470, dir. Ovest 20864", "Nome impianto": "BRIANZA NORD", "Comune": "CAPONAGO", "idImpianto": 3630, "points": [{"type": "Feature", "properties": {}, "geometry": {"type": "Point", "coordinates": [9.39446, 45.5753]}}], "price": 2.004, "ultima_rilevazione": "01/06/2022 11:18:09"}, {"Gestore": "SUPERSERVICE SNC DEI F.LLI CANTARELLI", "Bandiera": "Agip Eni", "Tipo impianto": "Autostradale", "Indirizzo": "Autostrada A4 MILANO-BRESCIA, Km. 24, dir. BERGAMO", "Nome impianto": "BRIANZA SUD", "Comune": "CAPONAGO", "idImpianto": 24292, "points": [{"type": "Feature", "properties": {}, "geometry": {"type": "Point", "coordinates": [9.394437074661257, 45.574416646651166]}}], "price": 2.214, "ultima_rilevazione": "01/06/2022 09:03:18"}, {"Gestore": "DUELLE S.N.C. DI MARCO E SIMONE LEVATI", "Bandiera": "Agip Eni", "Tipo impianto": "Altro", "Indirizzo": "VIA TORINO S.P.121 KM. 2+400  20063", "Nome impianto": "DUELLE SNC DI SIMONE E MARCO LEVATI", "Comune": "CERNUSCO SUL NAVIGLIO", "idImpianto": 11293, "points": [{"type": "Feature", "properties": {}, "geometry": {"type": "Point", "coordinates": [9.338799389162205, 45.504134696116026]}}], "price": 2.129, "ultima_rilevazione": "01/06/2022 09:20:07"}, {"Gestore": "ENI FUEL S.P.A.", "Bandiera": "Agip Eni", "Tipo impianto": "Altro", "Indirizzo": "Via Matteotti 133 20041", "Nome impianto": "PV 02151 Agrate Brianza", "Comune": "AGRATE BRIANZA", "idImpianto": 47365, "points": [{"type": "Feature", "properties": {}, "geometry": {"type": "Point", "coordinates": [9.356548000123, 45.572168000123]}}], "price": 2.129, "ultima_rilevazione": "03/06/2022 07:42:05"}, {"Gestore": "3 C S.R.L.", "Bandiera": "Agip Eni", "Tipo impianto": "Autostradale", "Indirizzo": "Autostrada A4 MILANO-BRESCIA, Km. 148+470, dir. Ovest 20864", "Nome impianto": "BRIANZA NORD", "Comune": "CAPONAGO", "idImpianto": 3630, "points": [{"type": "Feature", "properties": {}, "geometry": {"type": "Point", "coordinates": [9.39446, 45.5753]}}], "price": 1.952, "ultima_rilevazione": "01/06/2022 11:18:09"}, {"Gestore": "SUPERSERVICE SNC DEI F.LLI CANTARELLI", "Bandiera": "Agip Eni", "Tipo impianto": "Autostradale", "Indirizzo": "Autostrada A4 MILANO-BRESCIA, Km. 24, dir. BERGAMO", "Nome impianto": "BRIANZA SUD", "Comune": "CAPONAGO", "idImpianto": 24292, "points": [{"type": "Feature", "properties": {}, "geometry": {"type": "Point", "coordinates": [9.394437074661257, 45.574416646651166]}}], "price": 2.104, "ultima_rilevazione": "01/06/2022 09:03:18"}, {"Gestore": "DUELLE S.N.C. DI MARCO E SIMONE LEVATI", "Bandiera": "Agip Eni", "Tipo impianto": "Altro", "Indirizzo": "VIA TORINO S.P.121 KM. 2+400  20063", "Nome impianto": "DUELLE SNC DI SIMONE E MARCO LEVATI", "Comune": "CERNUSCO SUL NAVIGLIO", "idImpianto": 11293, "points": [{"type": "Feature", "properties": {}, "geometry": {"type": "Point", "coordinates": [9.338799389162205, 45.504134696116026]}}], "price": 2.019, "ultima_rilevazione": "01/06/2022 09:20:07"}, {"Gestore": "PNEUSCARS 2 S.A.S. DI TERRANE FABIO & C.", "Bandiera": "Agip Eni", "Tipo impianto": "Altro", "Indirizzo": "VIA MILANO 9 20096", "Nome impianto": "Eni", "Comune": "PIOLTELLO", "idImpianto": 12081, "points": [{"type": "Feature", "properties": {}, "geometry": {"type": "Point", "coordinates": [9.331360636840031, 45.50138514073774]}}], "price": 2.019, "ultima_rilevazione": "01/06/2022 11:44:48"}, {"Gestore": "IEVA MICHELE", "Bandiera": "Agip Eni", "Tipo impianto": "Altro", "Indirizzo": "VIA SP 121 POBBIANO/CAVENAGO  20061", "Nome impianto": "stazione di servizio Agip di Ieva michele", "Comune": "CARUGATE", "idImpianto": 7530, "points": [{"type": "Feature", "properties": {}, "geometry": {"type": "Point", "coordinates": [9.333864748477936, 45.55165355778144]}}], "price": 2.019, "ultima_rilevazione": "01/06/2022 14:09:04"}, {"Gestore": "ULLOA MONICA YESENIA", "Bandiera": "Agip Eni", "Tipo impianto": "Altro", "Indirizzo": "S.P.14 RIVOLTANA KM 14+500  20060", "Nome impianto": "ENI TRUCCAZZANO", "Comune": "TRUCCAZZANO", "idImpianto": 48200, "points": [{"type": "Feature", "properties": {}, "geometry": {"type": "Point", "coordinates": [9.446825981140137, 45.48075361266587]}}], "price": 1.969, "ultima_rilevazione": "01/06/2022 16:23:15"}, {"Gestore": "ENI FUEL S.P.A.", "Bandiera": "Agip Eni", "Tipo impianto": "Altro", "Indirizzo": "Via Matteotti 133 20041", "Nome impianto": "PV 02151 Agrate Brianza", "Comune": "AGRATE BRIANZA", "idImpianto": 47365, "points": [{"type": "Feature", "properties": {}, "geometry": {"type": "Point", "coordinates": [9.356548000123, 45.572168000123]}}], "price": 1.959, "ultima_rilevazione": "03/06/2022 07:42:05"}]}, "Diesel High Quality": {"1": [{"Gestore": "SERVIZI & GESTIONI ITALIA S.R.L.", "Bandiera": "Q8", "Tipo impianto": "Altro", "Indirizzo": "VIA GAVAZZI 47 20066", "Nome impianto": "MELZO-VIA GAVAZZI 47", "Comune": "MELZO", "idImpianto": 11682, "points": [{"type": "Feature", "properties": {}, "geometry": {"type": "Point", "coordinates": [9.423860932540949, 45.50700826571132]}}], "price": 2.259, "ultima_rilevazione": "02/06/2022 07:10:58"}, {"Gestore": "SERVIZI & GESTIONI ITALIA S.R.L.", "Bandiera": "Q8", "Tipo impianto": "Altro", "Indirizzo": "S.P 242 KM 4+578 S/N  20060", "Nome impianto": "PESSANO CON BORNAGO -S.P 242 KM 4+578", "Comune": "PESSANO CON BORNAGO", "idImpianto": 11711, "points": [{"type": "Feature", "properties": {}, "geometry": {"type": "Point", "coordinates": [9.389155568122874, 45.549163863694574]}}], "price": 2.249, "ultima_rilevazione": "02/06/2022 07:11:01"}, {"Gestore": "SERVIZI & GESTIONI ITALIA S.R.L.", "Bandiera": "Q8", "Tipo impianto": "Altro", "Indirizzo": "VIA GAVAZZI 47 20066", "Nome impianto": "MELZO-VIA GAVAZZI 47", "Comune": "MELZO", "idImpianto": 11682, "points": [{"type": "Feature", "properties": {}, "geometry": {"type": "Point", "coordinates": [9.423860932540949, 45.50700826571132]}}], "price": 2.299, "ultima_rilevazione": "02/06/2022 07:10:58"}, {"Gestore": "SERVIZI & GESTIONI ITALIA S.R.L.", "Bandiera": "Q8", "Tipo impianto": "Altro", "Indirizzo": "S.P 242 KM 4+578 S/N  20060", "Nome impianto": "PESSANO CON BORNAGO -S.P 242 KM 4+578", "Comune": "PESSANO CON BORNAGO", "idImpianto": 11711, "points": [{"type": "Feature", "properties": {}, "geometry": {"type": "Point", "coordinates": [9.389155568122874, 45.549163863694574]}}], "price": 2.299, "ultima_rilevazione": "02/06/2022 07:11:01"}, {"Gestore": "LOMBARDI SALVATORE", "Bandiera": "Esso", "Tipo impianto": "Altro", "Indirizzo": "Via Provinciale 68 20060", "Nome impianto": "ESSO", "Comune": "PESSANO CON BORNAGO", "idImpianto": 49119, "points": [{"type": "Feature", "properties": {}, "geometry": {"type": "Point", "coordinates": [9.39207043498754, 45.5397446156316]}}], "price": 2.059, "ultima_rilevazione": "01/06/2022 09:00:24"}], "3": [{"Gestore": "SERVIZI & GESTIONI ITALIA S.R.L.", "Bandiera": "Q8", "Tipo impianto": "Altro", "Indirizzo": "PIAZZA CASTELLO 43 20060", "Nome impianto": "PESSANO CON BORNAGO-PIAZZA CASTELLO 43", "Comune": "PESSANO CON BORNAGO", "idImpianto": 11654, "points": [{"type": "Feature", "properties": {}, "geometry": {"type": "Point", "coordinates": [9.383887171793049, 45.55137231340641]}}], "price": 2.239, "ultima_rilevazione": "02/06/2022 07:11:01"}, {"Gestore": "SERVIZI & GESTIONI ITALIA S.R.L.", "Bandiera": "Q8", "Tipo impianto": "Altro", "Indirizzo": "PIAZZA CASTELLO 43 20060", "Nome impianto": "PESSANO CON BORNAGO-PIAZZA CASTELLO 43", "Comune": "PESSANO CON BORNAGO", "idImpianto": 11654, "points": [{"type": "Feature", "properties": {}, "geometry": {"type": "Point", "coordinates": [9.383887171793049, 45.55137231340641]}}], "price": 2.299, "ultima_rilevazione": "02/06/2022 07:11:01"}, {"Gestore": "NUOVA SIDAP  S.R.L.", "Bandiera": "Esso", "Tipo impianto": "Altro", "Indirizzo": "VIA C. COLOMBO 5 20066", "Nome impianto": "Melzo", "Comune": "MELZO", "idImpianto": 43741, "points": [{"type": "Feature", "properties": {}, "geometry": {"type": "Point", "coordinates": [9.411189556121826, 45.49404320362122]}}], "price": 2.129, "ultima_rilevazione": "03/06/2022 04:47:57"}], "5": [{"Gestore": "SERVIZI & GESTIONI ITALIA S.R.L.", "Bandiera": "Q8", "Tipo impianto": "Altro", "Indirizzo": "VIA NUOVA RIVOLTANA KM 16 S/N 20060", "Nome impianto": "TRUCCAZZANO-VIA NUOVA RIVOLTANA KM 16", "Comune": "TRUCCAZZANO", "idImpianto": 11670, "points": [{"type": "Feature", "properties": {}, "geometry": {"type": "Point", "coordinates": [9.465873177909884, 45.48188495528274]}}], "price": 2.239, "ultima_rilevazione": "02/06/2022 07:11:03"}, {"Gestore": "SERVIZI & GESTIONI ITALIA S.R.L.", "Bandiera": "Q8", "Tipo impianto": "Altro", "Indirizzo": "S.P. 121 - KM. 8+070  20063", "Nome impianto": "CERNUSCO SUL NAVIGLIO - S.P. 121 - KM. 8+070", "Comune": "CERNUSCO SUL NAVIGLIO", "idImpianto": 30796, "points": [{"type": "Feature", "properties": {}, "geometry": {"type": "Point", "coordinates": [9.336739286508193, 45.5403700891952]}}], "price": 2.169, "ultima_rilevazione": "02/06/2022 07:11:04"}, {"Gestore": "DELLA BASSA ALESSANDRO", "Bandiera": "Q8", "Tipo impianto": "Altro", "Indirizzo": "STRADA P. CERCA 39 KM. 13,900 SNC 20060", "Nome impianto": "STAZIONE DI SERVIZIO Q8 di DELLA BASSA ALESSANDRO", "Comune": "LISCATE", "idImpianto": 10111, "points": [{"type": "Feature", "properties": {}, "geometry": {"type": "Point", "coordinates": [9.413228631019592, 45.46788789854411]}}], "price": 2.149, "ultima_rilevazione": "02/06/2022 20:19:13"}, {"Gestore": "SERVIZI & GESTIONI ITALIA S.R.L.", "Bandiera": "Q8", "Tipo impianto": "Altro", "Indirizzo": "VIA NUOVA RIVOLTANA KM 16 S/N 20060", "Nome impianto": "TRUCCAZZANO-VIA NUOVA RIVOLTANA KM 16", "Comune": "TRUCCAZZANO", "idImpianto": 11670, "points": [{"type": "Feature", "properties": {}, "geometry": {"type": "Point", "coordinates": [9.465873177909884, 45.48188495528274]}}], "price": 2.269, "ultima_rilevazione": "02/06/2022 07:11:03"}, {"Gestore": "SERVIZI & GESTIONI ITALIA S.R.L.", "Bandiera": "Q8", "Tipo impianto": "Altro", "Indirizzo": "S.P. 121 - KM. 8+070  20063", "Nome impianto": "CERNUSCO SUL NAVIGLIO - S.P. 121 - KM. 8+070", "Comune": "CERNUSCO SUL NAVIGLIO", "idImpianto": 30796, "points": [{"type": "Feature", "properties": {}, "geometry": {"type": "Point", "coordinates": [9.336739286508193, 45.5403700891952]}}], "price": 2.269, "ultima_rilevazione": "02/06/2022 07:11:04"}, {"Gestore": "LOVINO MARCO", "Bandiera": "Esso", "Tipo impianto": "Altro", "Indirizzo": "VIA GIUSEPPE VERDI 47 20063", "Nome impianto": "STAZIONE DI SERVIZIO ESSO VIA VERDI 47", "Comune": "CERNUSCO SUL NAVIGLIO", "idImpianto": 49049, "points": [{"type": "Feature", "properties": {}, "geometry": {"type": "Point", "coordinates": [9.337236285209656, 45.52923583950437]}}], "price": 1.966, "ultima_rilevazione": "31/05/2022 09:37:05"}]}, "Gasolio High Quality": {"1": [], "3": [], "5": [{"Gestore": "PAINI ARNALDO", "Bandiera": "Api-Ip", "Tipo impianto": "Altro", "Indirizzo": "strada provinciale 176 km 015 + 075  20873", "Nome impianto": "IP ", "Comune": "CAVENAGO DI BRIANZA", "idImpianto": 8387, "points": [{"type": "Feature", "properties": {}, "geometry": {"type": "Point", "coordinates": [9.409189224243164, 45.58349925138629]}}], "price": 0.01, "ultima_rilevazione": "01/06/2022 15:47:00"}]}, "null": {}}