{"area_comune": "[{\"type\": \"Feature\", \"properties\": {}, \"geometry\": {\"type\": \"Polygon\", \"coordinates\": [[[8.928843379475143, 45.653534671960124], [8.934992419191047, 45.65242223183906], [8.940138234923701, 45.65032905841971], [8.939898019157274, 45.64969766869313], [8.937602490680888, 45.64888662796688], [8.937769822519874, 45.64702301504498], [8.938362896447506, 45.64523242838499], [8.93987012988948, 45.642649782014686], [8.936480754740252, 45.641451045372904], [8.932631199699541, 45.64147584651123], [8.928564240461544, 45.640915329198585], [8.923946011424793, 45.64005726312808], [8.920610967838368, 45.639235910101704], [8.916700067084365, 45.637468960121254], [8.91332742450327, 45.636251335191055], [8.909004651181228, 45.635545907439045], [8.897945243657029, 45.63530254649086], [8.895571362061286, 45.63544442316004], [8.894556569549438, 45.636082551940895], [8.892785033794476, 45.64329957479813], [8.891620578551969, 45.65490955521048], [8.902745366379511, 45.656647725330046], [8.921554414491775, 45.66198166600304], [8.922696052225481, 45.66256749142715], [8.928843379475143, 45.653534671960124]]]}}]", "comune": "gorla-minore", "buffer_1": "[{\"type\": \"Feature\", \"properties\": {}, \"geometry\": {\"type\": \"Polygon\", \"coordinates\": [[[8.938280582376235, 45.6605665578602], [8.944954176323611, 45.65867229078061], [8.946128001900647, 45.658289674192076], [8.947240885564824, 45.65782608805531], [8.948281506238963, 45.65728624897488], [8.949239278932547, 45.656675649221235], [8.950104462466257, 45.65600050078941], [8.950868258564347, 45.65526767213434], [8.95152290130614, 45.65448461823025], [8.952061736028025, 45.65365930466876], [8.952479286876677, 45.65280012657102], [8.95277131233162, 45.65191582314192], [8.952934848139172, 45.6510153887379], [8.952968237229461, 45.650107981355006], [8.952698380263113, 45.64242873406893], [8.952609135409604, 45.64156798429096], [8.952402783603247, 45.64071718600258], [8.952081227007799, 45.63988416024059], [8.951647426466204, 45.63907656432658], [8.951105374109341, 45.638301821505564], [8.950460056506046, 45.637567052747194], [8.949717408698703, 45.63687901133487], [8.948884259551349, 45.636244020842305], [8.947968268916016, 45.63566791706509], [8.94697785719691, 45.6351559944391], [8.945922127960568, 45.634712957435504], [8.944810784302652, 45.63434287737689], [8.943654039738076, 45.63404915506901], [8.942462524430278, 45.63383448958948], [8.897155761721608, 45.62726828351732], [8.895914209118668, 45.627132170077196], [8.894659636144809, 45.62708192242201], [8.893404074753263, 45.627118022447235], [8.892159566361647, 45.62724012393029], [8.89093804653383, 45.627447055846595], [8.889751230669832, 45.62773683358472], [8.888610501792437, 45.62810667795401], [8.887526801499716, 45.62855304180384], [8.88651052512314, 45.62907164400028], [8.885571422091802, 45.62965751043714], [8.88471850245457, 45.63030502168991], [8.883959950454546, 45.63100796685823], [8.883303045984006, 45.63175960308345], [8.882754094674151, 45.63255272017281], [8.88231836729269, 45.63337970971298], [8.882000049034561, 45.634232638012875], [8.881802199197514, 45.635103322177606], [8.878861987623397, 45.653929996604994], [8.87878677722591, 45.65479060913079], [8.878829334425092, 45.65565231960713], [8.878989274085454, 45.65650722049015], [8.879265133752572, 45.65734746636965], [8.879654386881976, 45.65816534597932], [8.880153465845689, 45.658953352988405], [8.880757794511856, 45.65970425492392], [8.881461830104245, 45.66041115958988], [8.882259113962457, 45.66106757837145], [8.883142330740775, 45.66166748584179], [8.884103375504933, 45.66220537512167], [8.885133428112336, 45.66267630848165], [8.88622303419289, 45.66307596271977], [8.887362191985826, 45.66340066889613], [8.91844177989248, 45.67105975477866], [8.919641761048831, 45.67130990560822], [8.920870796938592, 45.67147691828271], [8.922117196206655, 45.671559204048876], [8.923369102087575, 45.67155598013406], [8.924614605356135, 45.67146727720313], [8.925841857780556, 45.671293939066516], [8.92703918499135, 45.67103761464203], [8.928195197684632, 45.67070074224747], [8.929298900094874, 45.67028652637435], [8.930339794698936, 45.669798907165465], [8.931307982149974, 45.669242522888226], [8.932194255486522, 45.6686226657632], [8.932990187717744, 45.66794523157032], [8.933688211950571, 45.66721666351477], [8.934281693296729, 45.666443890889205], [8.938280582376235, 45.6605665578602]]]}}]", "buffer_3": "[{\"type\": \"Feature\", \"properties\": {}, \"geometry\": {\"type\": \"Polygon\", \"coordinates\": [[[8.957222067072351, 45.67450024839024], [8.9581126277822, 45.67420993197936], [8.961451873898444, 45.67281879478742], [8.964574100089974, 45.671198865007305], [8.967447536628221, 45.66936663621174], [8.970042955204104, 45.66734076183403], [8.972333966395544, 45.66514186466487], [8.974297287798242, 45.66279232632204], [8.975912980103386, 45.66031605886675], [8.977164648750458, 45.6577382609198], [8.978039609150672, 45.65508516078668], [8.978529013862453, 45.652383749228136], [8.978627940500127, 45.64966150461365], [8.978354579853244, 45.641982316715044], [8.978085677010482, 45.639400126495076], [8.977465507386935, 45.63684786700171], [8.976499818327984, 45.63434899636677], [8.975197529722037, 45.63192647896439], [8.973570650459061, 45.62960257460624], [8.9716341666921, 45.627398634309884], [8.969405902977803, 45.625334904502886], [8.966906357612084, 45.62343034144439], [8.964158513703634, 45.62170243755027], [8.96118762773941, 45.62016706119647], [8.958020997590914, 45.61883831145076], [8.954687712086569, 45.61772838904593], [8.951218384432929, 45.61684748475927], [8.94764487190446, 45.61620368620421], [8.902351695843167, 45.60963952628792], [8.898628184872635, 45.60923131459698], [8.89486566263553, 45.60908062029515], [8.891100179226104, 45.60918888720902], [8.88736781297589, 45.60955507793821], [8.88370432625298, 45.61017568375488], [8.880144824224521, 45.61104475808374], [8.87672341978412, 45.612153973248155], [8.873472907791964, 45.61349269994981], [8.870424451694051, 45.61504810873573], [8.867607285478238, 45.616805292498384], [8.865048433789687, 45.61874740885679], [8.862772452867471, 45.62085584107704], [8.860801194778693, 45.623110376014246], [8.85915359721764, 45.62548939739501], [8.857845500906743, 45.62797009261081], [8.85688949638515, 45.63052867106209], [8.85629480170123, 45.633140591978474], [8.853346150956922, 45.65196660599905], [8.853119348494241, 45.65454839208604], [8.853245842275275, 45.657133550414585], [8.85372452003213, 45.65969835738205], [8.854551036214136, 45.66221927295029], [8.855717850141712, 45.664673156814565], [8.85721429359686, 45.66703748101564], [8.859026667289042, 45.66929053703428], [8.861138365363926, 45.67141163545449], [8.86353002685675, 45.6733812963464], [8.866179712734919, 45.6751814286025], [8.869063106928252, 45.67679549656051], [8.87215373951317, 45.678208672361066], [8.875423230001193, 45.67940797261956], [8.878841548485084, 45.680382378135796], [8.909929368821278, 45.688043765270024], [8.913530319231223, 45.68879444662935], [8.91721854245916, 45.68929564144096], [8.92095892206724, 45.68954257748536], [8.924715842866572, 45.68953290345115], [8.92845353147666, 45.68926671141999], [8.93213639842372, 45.68874653598746], [8.935729378450697, 45.68797733002784], [8.939198265730154, 45.68696641733872], [8.94251004072407, 45.68572342262567], [8.945633185520999, 45.68426017950703], [8.948537984599799, 45.68259061743199], [8.951196808119182, 45.68073062860891], [8.953584375011262, 45.67869791623254], [8.955677993363292, 45.67651182547904], [8.957222067072351, 45.67450024839024]]]}}]", "buffer_5": "[{\"type\": \"Feature\", \"properties\": {}, \"geometry\": {\"type\": \"Polygon\", \"coordinates\": [[[8.975836112211988, 45.687723740467284], [8.980874767967137, 45.685109124799475], [8.98566402511758, 45.682054693858454], [8.989989501111971, 45.67867752119693], [8.99380722273355, 45.675012007210036], [8.997078411740599, 45.67109548243707], [8.999769877266768, 45.66696782578974], [9.001854350214678, 45.66267105704561], [9.003310756372468, 45.65824890782867], [9.004124425648724, 45.653746375509044], [9.004287235506297, 45.649209264611976], [9.004010371427057, 45.641530137633595], [9.003560253288997, 45.637226586635], [9.002524781144805, 45.63297304720898], [9.000913601919237, 45.628808607896005], [8.998741644249701, 45.62477152996279], [8.99602897697997, 45.62089889652979], [8.992800620959496, 45.61722627279504], [8.989086316012953, 45.613787380436115], [8.984920245331026, 45.610613789133], [8.980340719895416, 45.60773462799172], [8.975389825886136, 45.605176319461115], [8.970113038325556, 45.60296233812673], [8.964558804489833, 45.601112996536926], [8.958778100862796, 45.59964525997106], [8.952823967619235, 45.59857259179757], [8.907544366727507, 45.59201047557577], [8.901340424811673, 45.591330336878855], [8.895071547021164, 45.59107926071593], [8.888797740730825, 45.59125965037442], [8.882579060119077, 45.59186977895901], [8.876475035408967, 45.59290380581084], [8.870544106947607, 45.59435183203317], [8.864843069353878, 45.59619999460989], [8.859426530882088, 45.59843059824679], [8.854346393025006, 45.601022283714585], [8.849651355213238, 45.60395023113338], [8.84538644926014, 45.60718639631103], [8.841592607952895, 45.61069977793585], [8.838306271902395, 45.61445671313263], [8.835559038437973, 45.61842119861788], [8.83337735596995, 45.622555234443446], [8.831782266844927, 45.6268191870956], [8.830789201288397, 45.63117216852357], [8.827832114025256, 45.64999751850854], [8.827452158147493, 45.65430040865386], [8.827661017899345, 45.65860904984378], [8.8284569114139, 45.6628839011766], [8.82983266585219, 45.66708572296045], [8.831775778433581, 45.67117593722097], [8.834268526696803, 45.67511698244667], [8.837288127144575, 45.67887265928991], [8.84080694096319, 45.68240846401438], [8.844792725053557, 45.68569190658257], [8.849208926166703, 45.68869281041124], [8.854015015509946, 45.691383590984394], [8.859166860784688, 45.69373951070495], [8.864617132238246, 45.69573890758281], [8.870315738964916, 45.69736339559841], [8.901411797017081, 45.70502708654597], [8.907415060495577, 45.70627860403435], [8.913563960066337, 45.707114190349266], [8.919799897576452, 45.70752588182852], [8.926063439401599, 45.70750975461541], [8.932294886904511, 45.70706596232519], [8.938434849510557, 45.70619873457398], [8.944424814743197, 45.70491633638467], [8.950207709595235, 45.70323098886993], [8.955728447706344, 45.70115875197485], [8.960934456971957, 45.69871937043465], [8.965776182420777, 45.695936084463334], [8.970207559465273, 45.69283540703383], [8.974186452947244, 45.68944686993386], [8.975836112211988, 45.687723740467284]]]}}]", "centroid": "[{\"type\": \"Feature\", \"properties\": {}, \"geometry\": {\"type\": \"Point\", \"coordinates\": [8.914495948669195, 45.648294426050136]}}]", "Benzina": {"1": [{"Gestore": "PREALPINA DISTRIBUZIONE CARBURANTI S.R.L.", "Bandiera": "Pompe Bianche", "Tipo impianto": "Altro", "Indirizzo": "VIA DIAZ 71 21050", "Nome impianto": "PREALPINA DISTRIBUZIONE CARBURANTI SRL", "Comune": "MARNATE", "idImpianto": 41798, "points": [{"type": "Feature", "properties": {}, "geometry": {"type": "Point", "coordinates": [8.89830759814754, 45.631638269104215]}}], "price": 1.999, "ultima_rilevazione": "06/06/2022 09:50:06"}, {"Gestore": "FUMAGALLI & MORANDI S.N.C DI FUMAGALLI ANTONELLA & C.", "Bandiera": "Sommese Petroli", "Tipo impianto": "Altro", "Indirizzo": "VIA GIUSEPPE GARIBALDI 83 21055", "Nome impianto": "FUMAGALLI & MORANDI", "Comune": "GORLA MINORE", "idImpianto": 19217, "points": [{"type": "Feature", "properties": {}, "geometry": {"type": "Point", "coordinates": [8.896482135582005, 45.65115185264066]}}], "price": 2.019, "ultima_rilevazione": "07/06/2022 14:08:07"}, {"Gestore": "AMBROGIO MORO S.P.A.", "Bandiera": "Moro", "Tipo impianto": "Altro", "Indirizzo": "VIA DE GASPERI 15 21057", "Nome impianto": "Moro_Olgiate Olona", "Comune": "OLGIATE OLONA", "idImpianto": 29418, "points": [{"type": "Feature", "properties": {}, "geometry": {"type": "Point", "coordinates": [8.886073544774604, 45.62942081847766]}}], "price": 1.987, "ultima_rilevazione": "07/06/2022 18:07:21"}, {"Gestore": "SERVIZI & GESTIONI ITALIA S.R.L.", "Bandiera": "Q8", "Tipo impianto": "Altro", "Indirizzo": "VIA MILANO SN 21050", "Nome impianto": "MARNATE-VIA MILANO SN", "Comune": "MARNATE", "idImpianto": 11928, "points": [{"type": "Feature", "properties": {}, "geometry": {"type": "Point", "coordinates": [8.910799999999995, 45.63074126354187]}}], "price": 2.059, "ultima_rilevazione": "08/06/2022 01:44:28"}, {"Gestore": "SOMMESE CARBURANTE S.R.L.", "Bandiera": "Retitalia", "Tipo impianto": "Altro", "Indirizzo": "VIA ALCIDE DE GASPERI  126 21057", "Nome impianto": "SOMMESE CARBURANTE OLGIATE", "Comune": "OLGIATE OLONA", "idImpianto": 34089, "points": [{"type": "Feature", "properties": {}, "geometry": {"type": "Point", "coordinates": [8.88465194543835, 45.63889968669999]}}], "price": 1.969, "ultima_rilevazione": "09/06/2022 06:14:03"}, {"Gestore": "RAIMONDI MAURO", "Bandiera": "Agip Eni", "Tipo impianto": "Altro", "Indirizzo": "VIA ARMANDO DIAZ 1 21057", "Nome impianto": "RAIMONDI MAURO", "Comune": "OLGIATE OLONA", "idImpianto": 14944, "points": [{"type": "Feature", "properties": {}, "geometry": {"type": "Point", "coordinates": [8.888167440891266, 45.63324351402306]}}], "price": 2.049, "ultima_rilevazione": "09/06/2022 07:48:37"}], "3": [{"Gestore": "VINCI S.A.S. DI VINCI SALVATORE & C.", "Bandiera": "Agip Eni", "Tipo impianto": "Altro", "Indirizzo": "via busto fagnano 36 21057", "Nome impianto": "02874 OLGIATE OLONA", "Comune": "OLGIATE OLONA", "idImpianto": 7166, "points": [{"type": "Feature", "properties": {}, "geometry": {"type": "Point", "coordinates": [8.858649730682373, 45.631588145862736]}}], "price": 2.214, "ultima_rilevazione": "01/06/2022 16:45:58"}, {"Gestore": "SERVIZI & GESTIONI ITALIA srl", "Bandiera": "Q8", "Tipo impianto": "Altro", "Indirizzo": "VIALE LOMBARDIA 27 21053", "Nome impianto": "CASTELLANZA VIALE LOMBARDIA 27", "Comune": "CASTELLANZA", "idImpianto": 6460, "points": [{"type": "Feature", "properties": {}, "geometry": {"type": "Point", "coordinates": [8.904368128241686, 45.61509008291705]}}], "price": 2.059, "ultima_rilevazione": "08/06/2022 01:44:27"}, {"Gestore": "W.M. SERVICE S.N.C. DI RIMOLDI WILLIAM E VARANO MANUEL", "Bandiera": "Esso", "Tipo impianto": "Altro", "Indirizzo": "VIA BATTISTI 909 21040", "Nome impianto": "ESSO", "Comune": "CISLAGO", "idImpianto": 38341, "points": [{"type": "Feature", "properties": {}, "geometry": {"type": "Point", "coordinates": [8.975055488954922, 45.66038923719945]}}], "price": 2.019, "ultima_rilevazione": "08/06/2022 07:51:17"}, {"Gestore": "GAIA S.A.S. DI GAIARIN DAVIDE & C.", "Bandiera": "Sommese Petroli", "Tipo impianto": "Altro", "Indirizzo": "VIA ARMANDO DIAZ 40 21054", "Nome impianto": "Gaia S.a.s.", "Comune": "FAGNANO OLONA", "idImpianto": 36188, "points": [{"type": "Feature", "properties": {}, "geometry": {"type": "Point", "coordinates": [8.867793474204973, 45.66553496346702]}}], "price": 1.979, "ultima_rilevazione": "08/06/2022 08:18:08"}, {"Gestore": "F.LLI  VITA S.N.C. DI VITA GIUSEPPE E ROCCO", "Bandiera": "Pompe Bianche", "Tipo impianto": "Altro", "Indirizzo": "VIA CAMILLO BENSO CONTE DI CAVOUR 1000 21040", "Nome impianto": "ELDA GAS", "Comune": "CISLAGO", "idImpianto": 15786, "points": [{"type": "Feature", "properties": {}, "geometry": {"type": "Point", "coordinates": [8.958203941583633, 45.65248540953264]}}], "price": 2.039, "ultima_rilevazione": "08/06/2022 08:41:10"}, {"Gestore": "ERG DI CATTANEO FIORENZO", "Bandiera": "Api-Ip", "Tipo impianto": "Strada Statale", "Indirizzo": "Statale 233 Varesina, Km. 28, dir. MILANO 22076", "Nome impianto": "ERG DI CATTANEO FIORENZO", "Comune": "MOZZATE", "idImpianto": 27493, "points": [{"type": "Feature", "properties": {}, "geometry": {"type": "Point", "coordinates": [8.96507441997528, 45.66536477735347]}}], "price": 2.069, "ultima_rilevazione": "08/06/2022 09:51:45"}, {"Gestore": "IP SERVICES S.R.L.", "Bandiera": "Api-Ip", "Tipo impianto": "Altro", "Indirizzo": "VIA PER FAGNANO 46 21057", "Nome impianto": "OLGIATE OLONA", "Comune": "OLGIATE OLONA", "idImpianto": 27295, "points": [{"type": "Feature", "properties": {}, "geometry": {"type": "Point", "coordinates": [8.85911206994058, 45.63571781676173]}}], "price": 1.989, "ultima_rilevazione": "08/06/2022 12:01:48"}, {"Gestore": "IP SERVICES S.R.L.", "Bandiera": "Api-Ip", "Tipo impianto": "Altro", "Indirizzo": "Via per Busto   21058", "Nome impianto": "SOLBIATE OLONA", "Comune": "SOLBIATE OLONA", "idImpianto": 10096, "points": [{"type": "Feature", "properties": {}, "geometry": {"type": "Point", "coordinates": [8.865092396736145, 45.64576541117171]}}], "price": 1.999, "ultima_rilevazione": "08/06/2022 12:07:11"}, {"Gestore": "GS SPA", "Bandiera": "Tamoil", "Tipo impianto": "Altro", "Indirizzo": "Corso XX settembre 91 21052", "Nome impianto": "Carrefour Tamoil Busto Arsizio", "Comune": "BUSTO ARSIZIO", "idImpianto": 48733, "points": [{"type": "Feature", "properties": {}, "geometry": {"type": "Point", "coordinates": [8.876524726736776, 45.61425777724803]}}], "price": 1.999, "ultima_rilevazione": "08/06/2022 16:20:30"}, {"Gestore": "DISTRIBUTORE TAMOIL DI CARNOVALI CRISTIAN", "Bandiera": "Tamoil", "Tipo impianto": "Altro", "Indirizzo": "VIALE LOMBARDIA 70 20027", "Nome impianto": "distributore tamoil", "Comune": "RESCALDINA", "idImpianto": 34589, "points": [{"type": "Feature", "properties": {}, "geometry": {"type": "Point", "coordinates": [8.938750550150871, 45.62785823041314]}}], "price": 2.029, "ultima_rilevazione": "09/06/2022 07:38:12"}, {"Gestore": "B.E. DI BOMBELLI EDOARDA", "Bandiera": "Esso", "Tipo impianto": "Altro", "Indirizzo": "VIA VARESINA 13 22076", "Nome impianto": "EG ITALIA SPA", "Comune": "MOZZATE", "idImpianto": 43644, "points": [{"type": "Feature", "properties": {}, "geometry": {"type": "Point", "coordinates": [8.949821717179248, 45.67625625181789]}}], "price": 2.019, "ultima_rilevazione": "09/06/2022 07:36:21"}], "5": [{"Gestore": "PELLEGRINI STEFANO", "Bandiera": "Agip Eni", "Tipo impianto": "Altro", "Indirizzo": "VIA FIUME LOC.ABBIATE GUAZZONE 66 21049", "Nome impianto": "Eni Di Pellegrini Stefano", "Comune": "TRADATE", "idImpianto": 40195, "points": [{"type": "Feature", "properties": {}, "geometry": {"type": "Point", "coordinates": [8.923143446445465, 45.69722876361417]}}], "price": 1.809, "ultima_rilevazione": "17/12/2021 14:52:00"}, {"Gestore": "RE.PA. S.A.S. DI REPARATO VINCENZO & C.", "Bandiera": "Retitalia", "Tipo impianto": "Altro", "Indirizzo": "CORSO EUROPA (EX S.S.233 KM35) SNC 21049", "Nome impianto": "RETITALIA", "Comune": "TRADATE", "idImpianto": 50347, "points": [{"type": "Feature", "properties": {}, "geometry": {"type": "Point", "coordinates": [8.912413684595808, 45.69939505149257]}}], "price": 1.774, "ultima_rilevazione": "08/06/2022 08:03:07"}, {"Gestore": "IPERSTAROIL S.R.L.", "Bandiera": "Auchan", "Tipo impianto": "Altro", "Indirizzo": "VIA BERGAMO 19 20027", "Nome impianto": "Rescaldina", "Comune": "RESCALDINA", "idImpianto": 50294, "points": [{"type": "Feature", "properties": {}, "geometry": {"type": "Point", "coordinates": [8.96036037672642, 45.60983880462123]}}], "price": 1.689, "ultima_rilevazione": "08/06/2022 19:24:10"}, {"Gestore": "B.P. GROUP SAS DI BONO MARCO E C.", "Bandiera": "Pompe Bianche", "Tipo impianto": "Altro", "Indirizzo": "SP EX 233 Varesina Km 27+500  21040", "Nome impianto": "GETOIL", "Comune": "CISLAGO", "idImpianto": 45472, "points": [{"type": "Feature", "properties": {}, "geometry": {"type": "Point", "coordinates": [8.985071000123, 45.653690000123]}}], "price": 1.964, "ultima_rilevazione": "30/05/2022 07:25:49"}, {"Gestore": "COBIDO CAR SERVICE DI DOLCE ANTONINO & C. S.N.C.", "Bandiera": "Agip Eni", "Tipo impianto": "Altro", "Indirizzo": "VIA LUIGI CADORNA 60 20025", "Nome impianto": "ENI 02308 LEGNANO CO.BI.DO. ", "Comune": "LEGNANO", "idImpianto": 24513, "points": [{"type": "Feature", "properties": {}, "geometry": {"type": "Point", "coordinates": [8.939912617206573, 45.59869121272512]}}], "price": 2.029, "ultima_rilevazione": "07/06/2022 07:47:48"}, {"Gestore": "CEPPI ROBERTO", "Bandiera": "Agip Eni", "Tipo impianto": "Altro", "Indirizzo": "VIALE ARMANDO DIAZ 28 21052", "Nome impianto": "ENI PV 02805", "Comune": "BUSTO ARSIZIO", "idImpianto": 38949, "points": [{"type": "Feature", "properties": {}, "geometry": {"type": "Point", "coordinates": [8.852900235581956, 45.62159883144696]}}], "price": 2.024, "ultima_rilevazione": "07/06/2022 08:26:02"}, {"Gestore": "A.M.G. S.N.C. DI ANDREA DUO',  MAURO TURCONI E GIORGIO MARINI", "Bandiera": "Agip Eni", "Tipo impianto": "Strada Statale", "Indirizzo": "Statale 527 Bustese, Km. 47, dir. Rescaldina 20027", "Nome impianto": "AGIP", "Comune": "RESCALDINA", "idImpianto": 6182, "points": [{"type": "Feature", "properties": {}, "geometry": {"type": "Point", "coordinates": [8.959066271781921, 45.61236684136928]}}], "price": 2.024, "ultima_rilevazione": "07/06/2022 09:09:22"}, {"Gestore": "DEDA ASTRIT", "Bandiera": "Agip Eni", "Tipo impianto": "Altro", "Indirizzo": "VIA PER FAGNANO 32 21052", "Nome impianto": "eni 52359", "Comune": "BUSTO ARSIZIO", "idImpianto": 46044, "points": [{"type": "Feature", "properties": {}, "geometry": {"type": "Point", "coordinates": [8.857783000123, 45.626435000123]}}], "price": 2.029, "ultima_rilevazione": "07/06/2022 09:40:48"}, {"Gestore": "VELE S.A.S. DI VERDUCI ANTONINO & CC", "Bandiera": "Agip Eni", "Tipo impianto": "Altro", "Indirizzo": "VIA SARONNESE 51 20027", "Nome impianto": "Vele sas di Verduci Antonino & c", "Comune": "RESCALDINA", "idImpianto": 11118, "points": [{"type": "Feature", "properties": {}, "geometry": {"type": "Point", "coordinates": [8.940021041264345, 45.61118996647434]}}], "price": 2.024, "ultima_rilevazione": "07/06/2022 12:09:28"}, {"Gestore": "SERVIZI & GESTIONI ITALIA S.R.L.", "Bandiera": "Q8", "Tipo impianto": "Altro", "Indirizzo": "VIALE MALPENSA 19 21052", "Nome impianto": "BUSTO ARSIZIO VIALE MALPENSA 19", "Comune": "BUSTO ARSIZIO", "idImpianto": 23156, "points": [{"type": "Feature", "properties": {}, "geometry": {"type": "Point", "coordinates": [8.849781362951717, 45.63720059681254]}}], "price": 2.014, "ultima_rilevazione": "07/06/2022 18:09:13"}, {"Gestore": "ELDAGAS - S.R.L.", "Bandiera": "Pompe Bianche", "Tipo impianto": "Altro", "Indirizzo": "VIA MONTE ROSA 85 21050", "Nome impianto": "ELDA GAS 1", "Comune": "CAIRATE", "idImpianto": 47651, "points": [{"type": "Feature", "properties": {}, "geometry": {"type": "Point", "coordinates": [8.85530563558198, 45.68314771128692]}}], "price": 2.039, "ultima_rilevazione": "07/06/2022 15:01:04"}, {"Gestore": "KEROPETROL S.P.A.", "Bandiera": "KEROPETROL", "Tipo impianto": "Altro", "Indirizzo": "via 4 novembre  21040", "Nome impianto": "KEROPETROL SPA UBOLDO", "Comune": "UBOLDO", "idImpianto": 23842, "points": [{"type": "Feature", "properties": {}, "geometry": {"type": "Point", "coordinates": [8.979483246803284, 45.61317586572184]}}], "price": 1.989, "ultima_rilevazione": "07/06/2022 17:45:47"}, {"Gestore": "SERVIZI & GESTIONI ITALIA S.R.L.", "Bandiera": "Q8", "Tipo impianto": "Altro", "Indirizzo": "VIALE BOCCACCIO 24 21052", "Nome impianto": "BUSTO ARSIZIO-VIALE BOCCACCIO 24", "Comune": "BUSTO ARSIZIO", "idImpianto": 11920, "points": [{"type": "Feature", "properties": {}, "geometry": {"type": "Point", "coordinates": [8.861526822090127, 45.60159704228577]}}], "price": 1.989, "ultima_rilevazione": "08/06/2022 01:44:22"}, {"Gestore": "SERVIZI & GESTIONI ITALIA S.R.L.", "Bandiera": "Q8", "Tipo impianto": "Altro", "Indirizzo": "STRADA PROVINCIALE 12 21050", "Nome impianto": "CAIRATE-STRADA PROVINCIALE 12", "Comune": "CAIRATE", "idImpianto": 11925, "points": [{"type": "Feature", "properties": {}, "geometry": {"type": "Point", "coordinates": [8.886607288360665, 45.688237473809096]}}], "price": 2.059, "ultima_rilevazione": "08/06/2022 01:44:22"}, {"Gestore": "GARAGE BRENNA S.N.C. DI BRENNA GIANBATTISTA E C.", "Bandiera": "Q8", "Tipo impianto": "Altro", "Indirizzo": "VIA CESARE BATTISTI 1426 21040", "Nome impianto": "GARAGE BRENNA SNC ", "Comune": "CISLAGO", "idImpianto": 39354, "points": [{"type": "Feature", "properties": {}, "geometry": {"type": "Point", "coordinates": [8.97963968220904, 45.65702774735304]}}], "price": 2.109, "ultima_rilevazione": "08/06/2022 07:03:26"}, {"Gestore": "SERVIZI & GESTIONI ITALIA S.R.L.", "Bandiera": "Q8", "Tipo impianto": "Altro", "Indirizzo": "CORSO SEMPIONE  ANG.VIA VOLTA 160 20025", "Nome impianto": "LEGNANO-CORSO SEMPIONE 160 ANG.VIA VOLTA", "Comune": "LEGNANO", "idImpianto": 11657, "points": [{"type": "Feature", "properties": {}, "geometry": {"type": "Point", "coordinates": [8.918259766864821, 45.60017318891127]}}], "price": 2.039, "ultima_rilevazione": "08/06/2022 07:07:20"}, {"Gestore": "SERVIZI & GESTIONI ITALIA S.R.L.", "Bandiera": "Q8", "Tipo impianto": "Altro", "Indirizzo": "VIALE CADORNA 58 20025", "Nome impianto": "LEGNANO-VIALE CADORNA 58", "Comune": "LEGNANO", "idImpianto": 11673, "points": [{"type": "Feature", "properties": {}, "geometry": {"type": "Point", "coordinates": [8.93926352262497, 45.59818863369359]}}], "price": 2.039, "ultima_rilevazione": "08/06/2022 07:07:20"}, {"Gestore": "SERVIZI & GESTIONI ITALIA S.R.L.", "Bandiera": "Q8", "Tipo impianto": "Altro", "Indirizzo": "CORSO ITALIA 23 21052", "Nome impianto": "BUSTO ARSIZIO-CORSO ITALIA 23", "Comune": "BUSTO ARSIZIO", "idImpianto": 11922, "points": [{"type": "Feature", "properties": {}, "geometry": {"type": "Point", "coordinates": [8.846762449073822, 45.62081875947187]}}], "price": 1.999, "ultima_rilevazione": "08/06/2022 07:07:33"}, {"Gestore": "CAIMI GINO", "Bandiera": "Sommese Petroli", "Tipo impianto": "Altro", "Indirizzo": "Via Cesare Battisti 67 22070", "Nome impianto": "CAIMI Gino - Sommese Petroli", "Comune": "LOCATE VARESINO", "idImpianto": 14027, "points": [{"type": "Feature", "properties": {}, "geometry": {"type": "Point", "coordinates": [8.931731395123165, 45.6902490451551]}}], "price": 1.999, "ultima_rilevazione": "08/06/2022 07:14:40"}, {"Gestore": "MA-BO S.N.C. DI BLOISE ANTONIETTA E MAZZUCCHELLI GUIDO", "Bandiera": "Sommese Petroli", "Tipo impianto": "Strada Statale", "Indirizzo": "Statale 527 Bustese, Km. 20, dir. MILANO 21053", "Nome impianto": "MA.BO", "Comune": "CASTELLANZA", "idImpianto": 15625, "points": [{"type": "Feature", "properties": {}, "geometry": {"type": "Point", "coordinates": [8.875574233729594, 45.60463645835393]}}], "price": 1.999, "ultima_rilevazione": "08/06/2022 07:45:01"}, {"Gestore": "C.F.D.S. S.N.C. DI CARNELLI LUCIANO REMO & C.", "Bandiera": "Agip Eni", "Tipo impianto": "Altro", "Indirizzo": "VIA COMO 20 22078", "Nome impianto": "IMPIANTO ENI C.F.D.S. S.N.C.", "Comune": "TURATE", "idImpianto": 44442, "points": [{"type": "Feature", "properties": {}, "geometry": {"type": "Point", "coordinates": [9.000118416596479, 45.661802724985314]}}], "price": 2.024, "ultima_rilevazione": "08/06/2022 07:58:07"}, {"Gestore": "TOTALERG DI GIUDICE LORENA", "Bandiera": "Api-Ip", "Tipo impianto": "Altro", "Indirizzo": "VIA XX SETTEMBRE 54 21052", "Nome impianto": "TotalErg ", "Comune": "BUSTO ARSIZIO", "idImpianto": 38454, "points": [{"type": "Feature", "properties": {}, "geometry": {"type": "Point", "coordinates": [8.866095088954921, 45.61281552864417]}}], "price": 2.049, "ultima_rilevazione": "08/06/2022 08:20:44"}, {"Gestore": "ENI FUEL S.P.A.", "Bandiera": "Agip Eni", "Tipo impianto": "Altro", "Indirizzo": "Via Don Minzoni 52 21053", "Nome impianto": "PV 2906 Castellanza", "Comune": "CASTELLANZA", "idImpianto": 39454, "points": [{"type": "Feature", "properties": {}, "geometry": {"type": "Point", "coordinates": [8.892793580889702, 45.60381865060999]}}], "price": 2.029, "ultima_rilevazione": "08/06/2022 09:04:04"}, {"Gestore": "LEPRI MARCO", "Bandiera": "Esso", "Tipo impianto": "Strada Statale", "Indirizzo": "Statale 33 del Sempione, Km. 144, dir. NORD 21052", "Nome impianto": "ESSO SEMPIONE", "Comune": "BUSTO ARSIZIO", "idImpianto": 9058, "points": [{"type": "Feature", "properties": {}, "geometry": {"type": "Point", "coordinates": [8.841612339019775, 45.62873718186091]}}], "price": 1.979, "ultima_rilevazione": "08/06/2022 10:00:26"}, {"Gestore": "LEPRI MARCO", "Bandiera": "Esso", "Tipo impianto": "Altro", "Indirizzo": "CORSO ITALIA  21052", "Nome impianto": "ESSO ITALIA", "Comune": "BUSTO ARSIZIO", "idImpianto": 9059, "points": [{"type": "Feature", "properties": {}, "geometry": {"type": "Point", "coordinates": [8.83901059627533, 45.615347715796815]}}], "price": 1.979, "ultima_rilevazione": "08/06/2022 10:01:01"}, {"Gestore": "IP SERVICES S.R.L.", "Bandiera": "Api-Ip", "Tipo impianto": "Altro", "Indirizzo": "S.P. 12 VIA COMO  21050", "Nome impianto": "CAIRATE - BOLLADELLO", "Comune": "CAIRATE", "idImpianto": 36260, "points": [{"type": "Feature", "properties": {}, "geometry": {"type": "Point", "coordinates": [8.844366107969336, 45.68073092003936]}}], "price": 2.029, "ultima_rilevazione": "08/06/2022 12:01:32"}, {"Gestore": "T.D.M. S.R.L.", "Bandiera": "Tamoil", "Tipo impianto": "Altro", "Indirizzo": "VIALE SABOTINO 156 20025", "Nome impianto": "8047", "Comune": "LEGNANO", "idImpianto": 48141, "points": [{"type": "Feature", "properties": {}, "geometry": {"type": "Point", "coordinates": [8.899011605522528, 45.59298829308605]}}], "price": 1.999, "ultima_rilevazione": "08/06/2022 12:02:03"}, {"Gestore": "T.D.M. S.R.L.", "Bandiera": "Tamoil", "Tipo impianto": "Altro", "Indirizzo": "CORSO SEMPIONE 85 20025", "Nome impianto": "8048", "Comune": "LEGNANO", "idImpianto": 41667, "points": [{"type": "Feature", "properties": {}, "geometry": {"type": "Point", "coordinates": [8.926056991163932, 45.59534201762624]}}], "price": 1.999, "ultima_rilevazione": "08/06/2022 12:02:03"}, {"Gestore": "T.D.M. S.R.L.", "Bandiera": "Tamoil", "Tipo impianto": "Altro", "Indirizzo": "Via Turati   20023", "Nome impianto": "8044", "Comune": "CERRO MAGGIORE", "idImpianto": 37689, "points": [{"type": "Feature", "properties": {}, "geometry": {"type": "Point", "coordinates": [8.943384736776352, 45.60082941459733]}}], "price": 1.999, "ultima_rilevazione": "08/06/2022 12:02:07"}, {"Gestore": "IP SERVICES S.R.L.", "Bandiera": "Api-Ip", "Tipo impianto": "Altro", "Indirizzo": "VIALE BORRI 14 21052", "Nome impianto": "BUSTO ARSIZIO - BORRI 14", "Comune": "BUSTO ARSIZIO", "idImpianto": 29759, "points": [{"type": "Feature", "properties": {}, "geometry": {"type": "Point", "coordinates": [8.862762449073784, 45.606515011405214]}}], "price": 1.999, "ultima_rilevazione": "08/06/2022 12:04:40"}, {"Gestore": "IP SERVICES S.R.L.", "Bandiera": "Api-Ip", "Tipo impianto": "Altro", "Indirizzo": "Via Milano KM 27+576  21053", "Nome impianto": "CASTELLANZA", "Comune": "CASTELLANZA", "idImpianto": 5552, "points": [{"type": "Feature", "properties": {}, "geometry": {"type": "Point", "coordinates": [8.910448635581929, 45.60705975281448]}}], "price": 2.019, "ultima_rilevazione": "08/06/2022 16:04:56"}, {"Gestore": "IP SERVICES S.R.L.", "Bandiera": "Api-Ip", "Tipo impianto": "Altro", "Indirizzo": "via Cadorna 34/A 20125", "Nome impianto": "LEGNANO", "Comune": "LEGNANO", "idImpianto": 5530, "points": [{"type": "Feature", "properties": {}, "geometry": {"type": "Point", "coordinates": [8.9372739370084, 45.59658459985469]}}], "price": 1.999, "ultima_rilevazione": "08/06/2022 12:06:50"}, {"Gestore": "F.LLI GADDA S.N.C. DI GIUSEPPE E ANGELO GADDA", "Bandiera": "Sommese Petroli", "Tipo impianto": "Altro", "Indirizzo": "VIA DON MINZONI 32 21053", "Nome impianto": "FLLI GADDA SNC", "Comune": "CASTELLANZA", "idImpianto": 10479, "points": [{"type": "Feature", "properties": {}, "geometry": {"type": "Point", "coordinates": [8.889191312828075, 45.609014872721055]}}], "price": 1.999, "ultima_rilevazione": "08/06/2022 12:16:47"}, {"Gestore": "ALBERTI LUIGI E C. S.R.L.", "Bandiera": "Api-Ip", "Tipo impianto": "Altro", "Indirizzo": "Via Risorgimento 26 21040", "Nome impianto": "ITALIANA PETROLI", "Comune": "GERENZANO", "idImpianto": 38725, "points": [{"type": "Feature", "properties": {}, "geometry": {"type": "Point", "coordinates": [8.995601311326027, 45.643181634759976]}}], "price": 2.069, "ultima_rilevazione": "08/06/2022 13:21:52"}, {"Gestore": "MARINO ROCCO", "Bandiera": "Api-Ip", "Tipo impianto": "Altro", "Indirizzo": "VIALE BOCCACCIO 42 21052", "Nome impianto": "IP", "Comune": "BUSTO ARSIZIO", "idImpianto": 22418, "points": [{"type": "Feature", "properties": {}, "geometry": {"type": "Point", "coordinates": [8.860757946968079, 45.59867244590827]}}], "price": 2.069, "ultima_rilevazione": "08/06/2022 15:42:15"}, {"Gestore": "IP SERVICES S.R.L.", "Bandiera": "Api-Ip", "Tipo impianto": "Strada Statale", "Indirizzo": "Statale 336 dell'Aeroporto della Malpensa, Km. KM. 1,850, dir. BUSTO ARSIZIO 21052", "Nome impianto": "BUSTO ARSIZIO", "Comune": "BUSTO ARSIZIO", "idImpianto": 24961, "points": [{"type": "Feature", "properties": {}, "geometry": {"type": "Point", "coordinates": [8.8329019239427, 45.63975625942259]}}], "price": 2.019, "ultima_rilevazione": "08/06/2022 16:02:57"}, {"Gestore": "SERVIZI E GESTIONI ZENIT S.R.L. IN SIGLA - ZENIT S.R.L.", "Bandiera": "Giap", "Tipo impianto": "Altro", "Indirizzo": "S.P. PER LEGNANO ANG. VIA ZERBI  20027", "Nome impianto": "SP PER LEGNANO RESCALDINA", "Comune": "RESCALDINA", "idImpianto": 28622, "points": [{"type": "Feature", "properties": {}, "geometry": {"type": "Point", "coordinates": [8.949243351817131, 45.61403065711356]}}], "price": 2.029, "ultima_rilevazione": "08/06/2022 17:56:52"}, {"Gestore": "BOSATELLI BRUNO & C. - S.A.S.", "Bandiera": "Esso", "Tipo impianto": "Altro", "Indirizzo": "VIA PER FAGNANO 24 21052", "Nome impianto": "ESSO", "Comune": "BUSTO ARSIZIO", "idImpianto": 10021, "points": [{"type": "Feature", "properties": {}, "geometry": {"type": "Point", "coordinates": [8.857867866754532, 45.62548446746924]}}], "price": 1.999, "ultima_rilevazione": "08/06/2022 18:09:22"}, {"Gestore": "RIALTO S.P.A.", "Bandiera": "Pompe Bianche", "Tipo impianto": "Altro", "Indirizzo": "VIA PER BUSTO ARSIZIO 33 20025", "Nome impianto": "IL GIGANTE SELF 24H", "Comune": "LEGNANO", "idImpianto": 43583, "points": [{"type": "Feature", "properties": {}, "geometry": {"type": "Point", "coordinates": [8.901840000123, 45.605103000123]}}], "price": 1.959, "ultima_rilevazione": "08/06/2022 18:10:42"}, {"Gestore": "GESTIONI INNOVATIVE ITALIA S.R.L.", "Bandiera": "Agip Eni", "Tipo impianto": "Altro", "Indirizzo": "VIALE LOMBARDIA 72 21053", "Nome impianto": "PV 2857", "Comune": "CASTELLANZA", "idImpianto": 25132, "points": [{"type": "Feature", "properties": {}, "geometry": {"type": "Point", "coordinates": [8.910047560930252, 45.61004458384013]}}], "price": 2.049, "ultima_rilevazione": "09/06/2022 06:04:07"}, {"Gestore": "ENI FUEL S.P.A.", "Bandiera": "Agip Eni", "Tipo impianto": "Altro", "Indirizzo": "VIA XX SETTEMBRE, 60  21052", "Nome impianto": "2807 \u2013 Busto Arsizio", "Comune": "BUSTO ARSIZIO", "idImpianto": 49792, "points": [{"type": "Feature", "properties": {}, "geometry": {"type": "Point", "coordinates": [8.867198119656962, 45.61297865138692]}}], "price": 2.029, "ultima_rilevazione": "09/06/2022 06:54:10"}, {"Gestore": "BEMA SAS DI ANDREA BERTOLASO & C.", "Bandiera": "Agip Eni", "Tipo impianto": "Altro", "Indirizzo": "VIA BONICALZA 127 21012", "Nome impianto": "Eni 02862 Cassano Magnago", "Comune": "CASSANO MAGNAGO", "idImpianto": 45389, "points": [{"type": "Feature", "properties": {}, "geometry": {"type": "Point", "coordinates": [8.843454000123, 45.660386000123]}}], "price": 2.044, "ultima_rilevazione": "09/06/2022 06:55:32"}, {"Gestore": "KANT S.A.S. DI MASATO CHRISTIAN & C.", "Bandiera": "Tamoil", "Tipo impianto": "Altro", "Indirizzo": "VIA CASSANO MAGNAGO 60BIS 21052", "Nome impianto": "KANT SAS di Masato Christian", "Comune": "BUSTO ARSIZIO", "idImpianto": 14992, "points": [{"type": "Feature", "properties": {}, "geometry": {"type": "Point", "coordinates": [8.847899436950684, 45.63089004819352]}}], "price": 2.019, "ultima_rilevazione": "09/06/2022 07:16:10"}, {"Gestore": "SOMMESE CARBURANTE S.R.L.", "Bandiera": "Sommese Petroli", "Tipo impianto": "Altro", "Indirizzo": "Via Per Cassano 80 21052", "Nome impianto": "SOMMESE CARBURANTE BUSTO ", "Comune": "BUSTO ARSIZIO", "idImpianto": 39853, "points": [{"type": "Feature", "properties": {}, "geometry": {"type": "Point", "coordinates": [8.846336471163909, 45.636349970305154]}}], "price": 1.979, "ultima_rilevazione": "09/06/2022 07:32:10"}]}, "Gasolio": {"1": [{"Gestore": "PREALPINA DISTRIBUZIONE CARBURANTI S.R.L.", "Bandiera": "Pompe Bianche", "Tipo impianto": "Altro", "Indirizzo": "VIA DIAZ 71 21050", "Nome impianto": "PREALPINA DISTRIBUZIONE CARBURANTI SRL", "Comune": "MARNATE", "idImpianto": 41798, "points": [{"type": "Feature", "properties": {}, "geometry": {"type": "Point", "coordinates": [8.89830759814754, 45.631638269104215]}}], "price": 1.899, "ultima_rilevazione": "06/06/2022 09:50:06"}, {"Gestore": "FUMAGALLI & MORANDI S.N.C DI FUMAGALLI ANTONELLA & C.", "Bandiera": "Sommese Petroli", "Tipo impianto": "Altro", "Indirizzo": "VIA GIUSEPPE GARIBALDI 83 21055", "Nome impianto": "FUMAGALLI & MORANDI", "Comune": "GORLA MINORE", "idImpianto": 19217, "points": [{"type": "Feature", "properties": {}, "geometry": {"type": "Point", "coordinates": [8.896482135582005, 45.65115185264066]}}], "price": 1.919, "ultima_rilevazione": "07/06/2022 14:08:07"}, {"Gestore": "AMBROGIO MORO S.P.A.", "Bandiera": "Moro", "Tipo impianto": "Altro", "Indirizzo": "VIA DE GASPERI 15 21057", "Nome impianto": "Moro_Olgiate Olona", "Comune": "OLGIATE OLONA", "idImpianto": 29418, "points": [{"type": "Feature", "properties": {}, "geometry": {"type": "Point", "coordinates": [8.886073544774604, 45.62942081847766]}}], "price": 1.875, "ultima_rilevazione": "07/06/2022 18:07:21"}, {"Gestore": "SERVIZI & GESTIONI ITALIA S.R.L.", "Bandiera": "Q8", "Tipo impianto": "Altro", "Indirizzo": "VIA MILANO SN 21050", "Nome impianto": "MARNATE-VIA MILANO SN", "Comune": "MARNATE", "idImpianto": 11928, "points": [{"type": "Feature", "properties": {}, "geometry": {"type": "Point", "coordinates": [8.910799999999995, 45.63074126354187]}}], "price": 1.959, "ultima_rilevazione": "08/06/2022 01:44:28"}, {"Gestore": "SOMMESE CARBURANTE S.R.L.", "Bandiera": "Retitalia", "Tipo impianto": "Altro", "Indirizzo": "VIA ALCIDE DE GASPERI  126 21057", "Nome impianto": "SOMMESE CARBURANTE OLGIATE", "Comune": "OLGIATE OLONA", "idImpianto": 34089, "points": [{"type": "Feature", "properties": {}, "geometry": {"type": "Point", "coordinates": [8.88465194543835, 45.63889968669999]}}], "price": 1.859, "ultima_rilevazione": "09/06/2022 06:14:03"}, {"Gestore": "RAIMONDI MAURO", "Bandiera": "Agip Eni", "Tipo impianto": "Altro", "Indirizzo": "VIA ARMANDO DIAZ 1 21057", "Nome impianto": "RAIMONDI MAURO", "Comune": "OLGIATE OLONA", "idImpianto": 14944, "points": [{"type": "Feature", "properties": {}, "geometry": {"type": "Point", "coordinates": [8.888167440891266, 45.63324351402306]}}], "price": 1.969, "ultima_rilevazione": "09/06/2022 07:48:37"}], "3": [{"Gestore": "VINCI S.A.S. DI VINCI SALVATORE & C.", "Bandiera": "Agip Eni", "Tipo impianto": "Altro", "Indirizzo": "via busto fagnano 36 21057", "Nome impianto": "02874 OLGIATE OLONA", "Comune": "OLGIATE OLONA", "idImpianto": 7166, "points": [{"type": "Feature", "properties": {}, "geometry": {"type": "Point", "coordinates": [8.858649730682373, 45.631588145862736]}}], "price": 2.244, "ultima_rilevazione": "01/06/2022 16:45:58"}, {"Gestore": "SERVIZI & GESTIONI ITALIA srl", "Bandiera": "Q8", "Tipo impianto": "Altro", "Indirizzo": "VIALE LOMBARDIA 27 21053", "Nome impianto": "CASTELLANZA VIALE LOMBARDIA 27", "Comune": "CASTELLANZA", "idImpianto": 6460, "points": [{"type": "Feature", "properties": {}, "geometry": {"type": "Point", "coordinates": [8.904368128241686, 45.61509008291705]}}], "price": 1.959, "ultima_rilevazione": "08/06/2022 01:44:27"}, {"Gestore": "W.M. SERVICE S.N.C. DI RIMOLDI WILLIAM E VARANO MANUEL", "Bandiera": "Esso", "Tipo impianto": "Altro", "Indirizzo": "VIA BATTISTI 909 21040", "Nome impianto": "ESSO", "Comune": "CISLAGO", "idImpianto": 38341, "points": [{"type": "Feature", "properties": {}, "geometry": {"type": "Point", "coordinates": [8.975055488954922, 45.66038923719945]}}], "price": 1.949, "ultima_rilevazione": "08/06/2022 07:51:17"}, {"Gestore": "GAIA S.A.S. DI GAIARIN DAVIDE & C.", "Bandiera": "Sommese Petroli", "Tipo impianto": "Altro", "Indirizzo": "VIA ARMANDO DIAZ 40 21054", "Nome impianto": "Gaia S.a.s.", "Comune": "FAGNANO OLONA", "idImpianto": 36188, "points": [{"type": "Feature", "properties": {}, "geometry": {"type": "Point", "coordinates": [8.867793474204973, 45.66553496346702]}}], "price": 1.929, "ultima_rilevazione": "08/06/2022 08:18:08"}, {"Gestore": "F.LLI  VITA S.N.C. DI VITA GIUSEPPE E ROCCO", "Bandiera": "Pompe Bianche", "Tipo impianto": "Altro", "Indirizzo": "VIA CAMILLO BENSO CONTE DI CAVOUR 1000 21040", "Nome impianto": "ELDA GAS", "Comune": "CISLAGO", "idImpianto": 15786, "points": [{"type": "Feature", "properties": {}, "geometry": {"type": "Point", "coordinates": [8.958203941583633, 45.65248540953264]}}], "price": 1.949, "ultima_rilevazione": "08/06/2022 08:41:10"}, {"Gestore": "ERG DI CATTANEO FIORENZO", "Bandiera": "Api-Ip", "Tipo impianto": "Strada Statale", "Indirizzo": "Statale 233 Varesina, Km. 28, dir. MILANO 22076", "Nome impianto": "ERG DI CATTANEO FIORENZO", "Comune": "MOZZATE", "idImpianto": 27493, "points": [{"type": "Feature", "properties": {}, "geometry": {"type": "Point", "coordinates": [8.96507441997528, 45.66536477735347]}}], "price": 1.999, "ultima_rilevazione": "08/06/2022 09:51:45"}, {"Gestore": "DISTRIBUTORE TAMOIL DI CARNOVALI CRISTIAN", "Bandiera": "Tamoil", "Tipo impianto": "Altro", "Indirizzo": "VIALE LOMBARDIA 70 20027", "Nome impianto": "distributore tamoil", "Comune": "RESCALDINA", "idImpianto": 34589, "points": [{"type": "Feature", "properties": {}, "geometry": {"type": "Point", "coordinates": [8.938750550150871, 45.62785823041314]}}], "price": 1.959, "ultima_rilevazione": "09/06/2022 07:38:12"}, {"Gestore": "IP SERVICES S.R.L.", "Bandiera": "Api-Ip", "Tipo impianto": "Altro", "Indirizzo": "VIA PER FAGNANO 46 21057", "Nome impianto": "OLGIATE OLONA", "Comune": "OLGIATE OLONA", "idImpianto": 27295, "points": [{"type": "Feature", "properties": {}, "geometry": {"type": "Point", "coordinates": [8.85911206994058, 45.63571781676173]}}], "price": 1.919, "ultima_rilevazione": "08/06/2022 12:01:48"}, {"Gestore": "IP SERVICES S.R.L.", "Bandiera": "Api-Ip", "Tipo impianto": "Altro", "Indirizzo": "Via per Busto   21058", "Nome impianto": "SOLBIATE OLONA", "Comune": "SOLBIATE OLONA", "idImpianto": 10096, "points": [{"type": "Feature", "properties": {}, "geometry": {"type": "Point", "coordinates": [8.865092396736145, 45.64576541117171]}}], "price": 1.929, "ultima_rilevazione": "08/06/2022 12:07:11"}, {"Gestore": "GS SPA", "Bandiera": "Tamoil", "Tipo impianto": "Altro", "Indirizzo": "Corso XX settembre 91 21052", "Nome impianto": "Carrefour Tamoil Busto Arsizio", "Comune": "BUSTO ARSIZIO", "idImpianto": 48733, "points": [{"type": "Feature", "properties": {}, "geometry": {"type": "Point", "coordinates": [8.876524726736776, 45.61425777724803]}}], "price": 1.939, "ultima_rilevazione": "08/06/2022 16:20:30"}, {"Gestore": "B.E. DI BOMBELLI EDOARDA", "Bandiera": "Esso", "Tipo impianto": "Altro", "Indirizzo": "VIA VARESINA 13 22076", "Nome impianto": "EG ITALIA SPA", "Comune": "MOZZATE", "idImpianto": 43644, "points": [{"type": "Feature", "properties": {}, "geometry": {"type": "Point", "coordinates": [8.949821717179248, 45.67625625181789]}}], "price": 1.959, "ultima_rilevazione": "09/06/2022 07:36:21"}], "5": [{"Gestore": "PELLEGRINI STEFANO", "Bandiera": "Agip Eni", "Tipo impianto": "Altro", "Indirizzo": "VIA FIUME LOC.ABBIATE GUAZZONE 66 21049", "Nome impianto": "Eni Di Pellegrini Stefano", "Comune": "TRADATE", "idImpianto": 40195, "points": [{"type": "Feature", "properties": {}, "geometry": {"type": "Point", "coordinates": [8.923143446445465, 45.69722876361417]}}], "price": 1.659, "ultima_rilevazione": "17/12/2021 14:52:00"}, {"Gestore": "RE.PA. S.A.S. DI REPARATO VINCENZO & C.", "Bandiera": "Retitalia", "Tipo impianto": "Altro", "Indirizzo": "CORSO EUROPA (EX S.S.233 KM35) SNC 21049", "Nome impianto": "RETITALIA", "Comune": "TRADATE", "idImpianto": 50347, "points": [{"type": "Feature", "properties": {}, "geometry": {"type": "Point", "coordinates": [8.912413684595808, 45.69939505149257]}}], "price": 1.794, "ultima_rilevazione": "08/06/2022 08:03:07"}, {"Gestore": "IPERSTAROIL S.R.L.", "Bandiera": "Auchan", "Tipo impianto": "Altro", "Indirizzo": "VIA BERGAMO 19 20027", "Nome impianto": "Rescaldina", "Comune": "RESCALDINA", "idImpianto": 50294, "points": [{"type": "Feature", "properties": {}, "geometry": {"type": "Point", "coordinates": [8.96036037672642, 45.60983880462123]}}], "price": 1.719, "ultima_rilevazione": "08/06/2022 19:24:10"}, {"Gestore": "B.P. GROUP SAS DI BONO MARCO E C.", "Bandiera": "Pompe Bianche", "Tipo impianto": "Altro", "Indirizzo": "SP EX 233 Varesina Km 27+500  21040", "Nome impianto": "GETOIL", "Comune": "CISLAGO", "idImpianto": 45472, "points": [{"type": "Feature", "properties": {}, "geometry": {"type": "Point", "coordinates": [8.985071000123, 45.653690000123]}}], "price": 1.839, "ultima_rilevazione": "30/05/2022 07:25:49"}, {"Gestore": "COBIDO CAR SERVICE DI DOLCE ANTONINO & C. S.N.C.", "Bandiera": "Agip Eni", "Tipo impianto": "Altro", "Indirizzo": "VIA LUIGI CADORNA 60 20025", "Nome impianto": "ENI 02308 LEGNANO CO.BI.DO. ", "Comune": "LEGNANO", "idImpianto": 24513, "points": [{"type": "Feature", "properties": {}, "geometry": {"type": "Point", "coordinates": [8.939912617206573, 45.59869121272512]}}], "price": 1.949, "ultima_rilevazione": "07/06/2022 07:47:48"}, {"Gestore": "CEPPI ROBERTO", "Bandiera": "Agip Eni", "Tipo impianto": "Altro", "Indirizzo": "VIALE ARMANDO DIAZ 28 21052", "Nome impianto": "ENI PV 02805", "Comune": "BUSTO ARSIZIO", "idImpianto": 38949, "points": [{"type": "Feature", "properties": {}, "geometry": {"type": "Point", "coordinates": [8.852900235581956, 45.62159883144696]}}], "price": 1.944, "ultima_rilevazione": "07/06/2022 08:26:02"}, {"Gestore": "A.M.G. S.N.C. DI ANDREA DUO',  MAURO TURCONI E GIORGIO MARINI", "Bandiera": "Agip Eni", "Tipo impianto": "Strada Statale", "Indirizzo": "Statale 527 Bustese, Km. 47, dir. Rescaldina 20027", "Nome impianto": "AGIP", "Comune": "RESCALDINA", "idImpianto": 6182, "points": [{"type": "Feature", "properties": {}, "geometry": {"type": "Point", "coordinates": [8.959066271781921, 45.61236684136928]}}], "price": 1.944, "ultima_rilevazione": "07/06/2022 09:09:22"}, {"Gestore": "DEDA ASTRIT", "Bandiera": "Agip Eni", "Tipo impianto": "Altro", "Indirizzo": "VIA PER FAGNANO 32 21052", "Nome impianto": "eni 52359", "Comune": "BUSTO ARSIZIO", "idImpianto": 46044, "points": [{"type": "Feature", "properties": {}, "geometry": {"type": "Point", "coordinates": [8.857783000123, 45.626435000123]}}], "price": 1.949, "ultima_rilevazione": "07/06/2022 09:40:48"}, {"Gestore": "VELE S.A.S. DI VERDUCI ANTONINO & CC", "Bandiera": "Agip Eni", "Tipo impianto": "Altro", "Indirizzo": "VIA SARONNESE 51 20027", "Nome impianto": "Vele sas di Verduci Antonino & c", "Comune": "RESCALDINA", "idImpianto": 11118, "points": [{"type": "Feature", "properties": {}, "geometry": {"type": "Point", "coordinates": [8.940021041264345, 45.61118996647434]}}], "price": 1.944, "ultima_rilevazione": "07/06/2022 12:09:28"}, {"Gestore": "ELDAGAS - S.R.L.", "Bandiera": "Pompe Bianche", "Tipo impianto": "Altro", "Indirizzo": "VIA MONTE ROSA 85 21050", "Nome impianto": "ELDA GAS 1", "Comune": "CAIRATE", "idImpianto": 47651, "points": [{"type": "Feature", "properties": {}, "geometry": {"type": "Point", "coordinates": [8.85530563558198, 45.68314771128692]}}], "price": 1.949, "ultima_rilevazione": "07/06/2022 15:01:04"}, {"Gestore": "KEROPETROL S.P.A.", "Bandiera": "KEROPETROL", "Tipo impianto": "Altro", "Indirizzo": "via 4 novembre  21040", "Nome impianto": "KEROPETROL SPA UBOLDO", "Comune": "UBOLDO", "idImpianto": 23842, "points": [{"type": "Feature", "properties": {}, "geometry": {"type": "Point", "coordinates": [8.979483246803284, 45.61317586572184]}}], "price": 1.919, "ultima_rilevazione": "07/06/2022 17:45:47"}, {"Gestore": "SERVIZI & GESTIONI ITALIA S.R.L.", "Bandiera": "Q8", "Tipo impianto": "Altro", "Indirizzo": "VIALE MALPENSA 19 21052", "Nome impianto": "BUSTO ARSIZIO VIALE MALPENSA 19", "Comune": "BUSTO ARSIZIO", "idImpianto": 23156, "points": [{"type": "Feature", "properties": {}, "geometry": {"type": "Point", "coordinates": [8.849781362951717, 45.63720059681254]}}], "price": 1.939, "ultima_rilevazione": "07/06/2022 18:09:13"}, {"Gestore": "SERVIZI & GESTIONI ITALIA S.R.L.", "Bandiera": "Q8", "Tipo impianto": "Altro", "Indirizzo": "VIALE BOCCACCIO 24 21052", "Nome impianto": "BUSTO ARSIZIO-VIALE BOCCACCIO 24", "Comune": "BUSTO ARSIZIO", "idImpianto": 11920, "points": [{"type": "Feature", "properties": {}, "geometry": {"type": "Point", "coordinates": [8.861526822090127, 45.60159704228577]}}], "price": 1.929, "ultima_rilevazione": "08/06/2022 01:44:22"}, {"Gestore": "SERVIZI & GESTIONI ITALIA S.R.L.", "Bandiera": "Q8", "Tipo impianto": "Altro", "Indirizzo": "STRADA PROVINCIALE 12 21050", "Nome impianto": "CAIRATE-STRADA PROVINCIALE 12", "Comune": "CAIRATE", "idImpianto": 11925, "points": [{"type": "Feature", "properties": {}, "geometry": {"type": "Point", "coordinates": [8.886607288360665, 45.688237473809096]}}], "price": 1.959, "ultima_rilevazione": "08/06/2022 01:44:22"}, {"Gestore": "GARAGE BRENNA S.N.C. DI BRENNA GIANBATTISTA E C.", "Bandiera": "Q8", "Tipo impianto": "Altro", "Indirizzo": "VIA CESARE BATTISTI 1426 21040", "Nome impianto": "GARAGE BRENNA SNC ", "Comune": "CISLAGO", "idImpianto": 39354, "points": [{"type": "Feature", "properties": {}, "geometry": {"type": "Point", "coordinates": [8.97963968220904, 45.65702774735304]}}], "price": 1.999, "ultima_rilevazione": "08/06/2022 07:03:26"}, {"Gestore": "SERVIZI & GESTIONI ITALIA S.R.L.", "Bandiera": "Q8", "Tipo impianto": "Altro", "Indirizzo": "CORSO SEMPIONE  ANG.VIA VOLTA 160 20025", "Nome impianto": "LEGNANO-CORSO SEMPIONE 160 ANG.VIA VOLTA", "Comune": "LEGNANO", "idImpianto": 11657, "points": [{"type": "Feature", "properties": {}, "geometry": {"type": "Point", "coordinates": [8.918259766864821, 45.60017318891127]}}], "price": 1.959, "ultima_rilevazione": "08/06/2022 07:07:20"}, {"Gestore": "SERVIZI & GESTIONI ITALIA S.R.L.", "Bandiera": "Q8", "Tipo impianto": "Altro", "Indirizzo": "VIALE CADORNA 58 20025", "Nome impianto": "LEGNANO-VIALE CADORNA 58", "Comune": "LEGNANO", "idImpianto": 11673, "points": [{"type": "Feature", "properties": {}, "geometry": {"type": "Point", "coordinates": [8.93926352262497, 45.59818863369359]}}], "price": 1.959, "ultima_rilevazione": "08/06/2022 07:07:20"}, {"Gestore": "SERVIZI & GESTIONI ITALIA S.R.L.", "Bandiera": "Q8", "Tipo impianto": "Altro", "Indirizzo": "CORSO ITALIA 23 21052", "Nome impianto": "BUSTO ARSIZIO-CORSO ITALIA 23", "Comune": "BUSTO ARSIZIO", "idImpianto": 11922, "points": [{"type": "Feature", "properties": {}, "geometry": {"type": "Point", "coordinates": [8.846762449073822, 45.62081875947187]}}], "price": 1.949, "ultima_rilevazione": "08/06/2022 07:07:33"}, {"Gestore": "CAIMI GINO", "Bandiera": "Sommese Petroli", "Tipo impianto": "Altro", "Indirizzo": "Via Cesare Battisti 67 22070", "Nome impianto": "CAIMI Gino - Sommese Petroli", "Comune": "LOCATE VARESINO", "idImpianto": 14027, "points": [{"type": "Feature", "properties": {}, "geometry": {"type": "Point", "coordinates": [8.931731395123165, 45.6902490451551]}}], "price": 1.959, "ultima_rilevazione": "08/06/2022 07:14:40"}, {"Gestore": "MA-BO S.N.C. DI BLOISE ANTONIETTA E MAZZUCCHELLI GUIDO", "Bandiera": "Sommese Petroli", "Tipo impianto": "Strada Statale", "Indirizzo": "Statale 527 Bustese, Km. 20, dir. MILANO 21053", "Nome impianto": "MA.BO", "Comune": "CASTELLANZA", "idImpianto": 15625, "points": [{"type": "Feature", "properties": {}, "geometry": {"type": "Point", "coordinates": [8.875574233729594, 45.60463645835393]}}], "price": 1.939, "ultima_rilevazione": "08/06/2022 07:45:01"}, {"Gestore": "C.F.D.S. S.N.C. DI CARNELLI LUCIANO REMO & C.", "Bandiera": "Agip Eni", "Tipo impianto": "Altro", "Indirizzo": "VIA COMO 20 22078", "Nome impianto": "IMPIANTO ENI C.F.D.S. S.N.C.", "Comune": "TURATE", "idImpianto": 44442, "points": [{"type": "Feature", "properties": {}, "geometry": {"type": "Point", "coordinates": [9.000118416596479, 45.661802724985314]}}], "price": 1.964, "ultima_rilevazione": "08/06/2022 07:58:07"}, {"Gestore": "TOTALERG DI GIUDICE LORENA", "Bandiera": "Api-Ip", "Tipo impianto": "Altro", "Indirizzo": "VIA XX SETTEMBRE 54 21052", "Nome impianto": "TotalErg ", "Comune": "BUSTO ARSIZIO", "idImpianto": 38454, "points": [{"type": "Feature", "properties": {}, "geometry": {"type": "Point", "coordinates": [8.866095088954921, 45.61281552864417]}}], "price": 1.969, "ultima_rilevazione": "08/06/2022 08:20:44"}, {"Gestore": "ENI FUEL S.P.A.", "Bandiera": "Agip Eni", "Tipo impianto": "Altro", "Indirizzo": "Via Don Minzoni 52 21053", "Nome impianto": "PV 2906 Castellanza", "Comune": "CASTELLANZA", "idImpianto": 39454, "points": [{"type": "Feature", "properties": {}, "geometry": {"type": "Point", "coordinates": [8.892793580889702, 45.60381865060999]}}], "price": 1.929, "ultima_rilevazione": "08/06/2022 09:04:04"}, {"Gestore": "LEPRI MARCO", "Bandiera": "Esso", "Tipo impianto": "Strada Statale", "Indirizzo": "Statale 33 del Sempione, Km. 144, dir. NORD 21052", "Nome impianto": "ESSO SEMPIONE", "Comune": "BUSTO ARSIZIO", "idImpianto": 9058, "points": [{"type": "Feature", "properties": {}, "geometry": {"type": "Point", "coordinates": [8.841612339019775, 45.62873718186091]}}], "price": 1.949, "ultima_rilevazione": "08/06/2022 10:00:26"}, {"Gestore": "LEPRI MARCO", "Bandiera": "Esso", "Tipo impianto": "Altro", "Indirizzo": "CORSO ITALIA  21052", "Nome impianto": "ESSO ITALIA", "Comune": "BUSTO ARSIZIO", "idImpianto": 9059, "points": [{"type": "Feature", "properties": {}, "geometry": {"type": "Point", "coordinates": [8.83901059627533, 45.615347715796815]}}], "price": 1.959, "ultima_rilevazione": "08/06/2022 10:01:01"}, {"Gestore": "IP SERVICES S.R.L.", "Bandiera": "Api-Ip", "Tipo impianto": "Altro", "Indirizzo": "S.P. 12 VIA COMO  21050", "Nome impianto": "CAIRATE - BOLLADELLO", "Comune": "CAIRATE", "idImpianto": 36260, "points": [{"type": "Feature", "properties": {}, "geometry": {"type": "Point", "coordinates": [8.844366107969336, 45.68073092003936]}}], "price": 1.919, "ultima_rilevazione": "08/06/2022 12:01:32"}, {"Gestore": "T.D.M. S.R.L.", "Bandiera": "Tamoil", "Tipo impianto": "Altro", "Indirizzo": "VIALE SABOTINO 156 20025", "Nome impianto": "8047", "Comune": "LEGNANO", "idImpianto": 48141, "points": [{"type": "Feature", "properties": {}, "geometry": {"type": "Point", "coordinates": [8.899011605522528, 45.59298829308605]}}], "price": 1.939, "ultima_rilevazione": "08/06/2022 12:02:03"}, {"Gestore": "T.D.M. S.R.L.", "Bandiera": "Tamoil", "Tipo impianto": "Altro", "Indirizzo": "CORSO SEMPIONE 85 20025", "Nome impianto": "8048", "Comune": "LEGNANO", "idImpianto": 41667, "points": [{"type": "Feature", "properties": {}, "geometry": {"type": "Point", "coordinates": [8.926056991163932, 45.59534201762624]}}], "price": 1.939, "ultima_rilevazione": "08/06/2022 12:02:03"}, {"Gestore": "T.D.M. S.R.L.", "Bandiera": "Tamoil", "Tipo impianto": "Altro", "Indirizzo": "Via Turati   20023", "Nome impianto": "8044", "Comune": "CERRO MAGGIORE", "idImpianto": 37689, "points": [{"type": "Feature", "properties": {}, "geometry": {"type": "Point", "coordinates": [8.943384736776352, 45.60082941459733]}}], "price": 1.939, "ultima_rilevazione": "08/06/2022 12:02:07"}, {"Gestore": "IP SERVICES S.R.L.", "Bandiera": "Api-Ip", "Tipo impianto": "Altro", "Indirizzo": "VIALE BORRI 14 21052", "Nome impianto": "BUSTO ARSIZIO - BORRI 14", "Comune": "BUSTO ARSIZIO", "idImpianto": 29759, "points": [{"type": "Feature", "properties": {}, "geometry": {"type": "Point", "coordinates": [8.862762449073784, 45.606515011405214]}}], "price": 1.929, "ultima_rilevazione": "08/06/2022 12:04:40"}, {"Gestore": "IP SERVICES S.R.L.", "Bandiera": "Api-Ip", "Tipo impianto": "Altro", "Indirizzo": "via Cadorna 34/A 20125", "Nome impianto": "LEGNANO", "Comune": "LEGNANO", "idImpianto": 5530, "points": [{"type": "Feature", "properties": {}, "geometry": {"type": "Point", "coordinates": [8.9372739370084, 45.59658459985469]}}], "price": 1.939, "ultima_rilevazione": "08/06/2022 12:06:50"}, {"Gestore": "F.LLI GADDA S.N.C. DI GIUSEPPE E ANGELO GADDA", "Bandiera": "Sommese Petroli", "Tipo impianto": "Altro", "Indirizzo": "VIA DON MINZONI 32 21053", "Nome impianto": "FLLI GADDA SNC", "Comune": "CASTELLANZA", "idImpianto": 10479, "points": [{"type": "Feature", "properties": {}, "geometry": {"type": "Point", "coordinates": [8.889191312828075, 45.609014872721055]}}], "price": 1.939, "ultima_rilevazione": "08/06/2022 12:16:47"}, {"Gestore": "ALBERTI LUIGI E C. S.R.L.", "Bandiera": "Api-Ip", "Tipo impianto": "Altro", "Indirizzo": "Via Risorgimento 26 21040", "Nome impianto": "ITALIANA PETROLI", "Comune": "GERENZANO", "idImpianto": 38725, "points": [{"type": "Feature", "properties": {}, "geometry": {"type": "Point", "coordinates": [8.995601311326027, 45.643181634759976]}}], "price": 1.989, "ultima_rilevazione": "08/06/2022 13:21:52"}, {"Gestore": "MARINO ROCCO", "Bandiera": "Api-Ip", "Tipo impianto": "Altro", "Indirizzo": "VIALE BOCCACCIO 42 21052", "Nome impianto": "IP", "Comune": "BUSTO ARSIZIO", "idImpianto": 22418, "points": [{"type": "Feature", "properties": {}, "geometry": {"type": "Point", "coordinates": [8.860757946968079, 45.59867244590827]}}], "price": 1.969, "ultima_rilevazione": "08/06/2022 15:42:15"}, {"Gestore": "IP SERVICES S.R.L.", "Bandiera": "Api-Ip", "Tipo impianto": "Strada Statale", "Indirizzo": "Statale 336 dell'Aeroporto della Malpensa, Km. KM. 1,850, dir. BUSTO ARSIZIO 21052", "Nome impianto": "BUSTO ARSIZIO", "Comune": "BUSTO ARSIZIO", "idImpianto": 24961, "points": [{"type": "Feature", "properties": {}, "geometry": {"type": "Point", "coordinates": [8.8329019239427, 45.63975625942259]}}], "price": 1.939, "ultima_rilevazione": "08/06/2022 16:02:57"}, {"Gestore": "IP SERVICES S.R.L.", "Bandiera": "Api-Ip", "Tipo impianto": "Altro", "Indirizzo": "Via Milano KM 27+576  21053", "Nome impianto": "CASTELLANZA", "Comune": "CASTELLANZA", "idImpianto": 5552, "points": [{"type": "Feature", "properties": {}, "geometry": {"type": "Point", "coordinates": [8.910448635581929, 45.60705975281448]}}], "price": 1.939, "ultima_rilevazione": "08/06/2022 16:04:56"}, {"Gestore": "SERVIZI E GESTIONI ZENIT S.R.L. IN SIGLA - ZENIT S.R.L.", "Bandiera": "Giap", "Tipo impianto": "Altro", "Indirizzo": "S.P. PER LEGNANO ANG. VIA ZERBI  20027", "Nome impianto": "SP PER LEGNANO RESCALDINA", "Comune": "RESCALDINA", "idImpianto": 28622, "points": [{"type": "Feature", "properties": {}, "geometry": {"type": "Point", "coordinates": [8.949243351817131, 45.61403065711356]}}], "price": 1.959, "ultima_rilevazione": "08/06/2022 17:56:52"}, {"Gestore": "BOSATELLI BRUNO & C. - S.A.S.", "Bandiera": "Esso", "Tipo impianto": "Altro", "Indirizzo": "VIA PER FAGNANO 24 21052", "Nome impianto": "ESSO", "Comune": "BUSTO ARSIZIO", "idImpianto": 10021, "points": [{"type": "Feature", "properties": {}, "geometry": {"type": "Point", "coordinates": [8.857867866754532, 45.62548446746924]}}], "price": 1.979, "ultima_rilevazione": "08/06/2022 18:09:22"}, {"Gestore": "RIALTO S.P.A.", "Bandiera": "Pompe Bianche", "Tipo impianto": "Altro", "Indirizzo": "VIA PER BUSTO ARSIZIO 33 20025", "Nome impianto": "IL GIGANTE SELF 24H", "Comune": "LEGNANO", "idImpianto": 43583, "points": [{"type": "Feature", "properties": {}, "geometry": {"type": "Point", "coordinates": [8.901840000123, 45.605103000123]}}], "price": 1.899, "ultima_rilevazione": "08/06/2022 18:10:42"}, {"Gestore": "GESTIONI INNOVATIVE ITALIA S.R.L.", "Bandiera": "Agip Eni", "Tipo impianto": "Altro", "Indirizzo": "VIALE LOMBARDIA 72 21053", "Nome impianto": "PV 2857", "Comune": "CASTELLANZA", "idImpianto": 25132, "points": [{"type": "Feature", "properties": {}, "geometry": {"type": "Point", "coordinates": [8.910047560930252, 45.61004458384013]}}], "price": 1.949, "ultima_rilevazione": "09/06/2022 06:04:07"}, {"Gestore": "ENI FUEL S.P.A.", "Bandiera": "Agip Eni", "Tipo impianto": "Altro", "Indirizzo": "VIA XX SETTEMBRE, 60  21052", "Nome impianto": "2807 \u2013 Busto Arsizio", "Comune": "BUSTO ARSIZIO", "idImpianto": 49792, "points": [{"type": "Feature", "properties": {}, "geometry": {"type": "Point", "coordinates": [8.867198119656962, 45.61297865138692]}}], "price": 1.949, "ultima_rilevazione": "09/06/2022 06:54:10"}, {"Gestore": "BEMA SAS DI ANDREA BERTOLASO & C.", "Bandiera": "Agip Eni", "Tipo impianto": "Altro", "Indirizzo": "VIA BONICALZA 127 21012", "Nome impianto": "Eni 02862 Cassano Magnago", "Comune": "CASSANO MAGNAGO", "idImpianto": 45389, "points": [{"type": "Feature", "properties": {}, "geometry": {"type": "Point", "coordinates": [8.843454000123, 45.660386000123]}}], "price": 1.964, "ultima_rilevazione": "09/06/2022 06:55:32"}, {"Gestore": "KANT S.A.S. DI MASATO CHRISTIAN & C.", "Bandiera": "Tamoil", "Tipo impianto": "Altro", "Indirizzo": "VIA CASSANO MAGNAGO 60BIS 21052", "Nome impianto": "KANT SAS di Masato Christian", "Comune": "BUSTO ARSIZIO", "idImpianto": 14992, "points": [{"type": "Feature", "properties": {}, "geometry": {"type": "Point", "coordinates": [8.847899436950684, 45.63089004819352]}}], "price": 1.959, "ultima_rilevazione": "09/06/2022 07:16:10"}, {"Gestore": "SOMMESE CARBURANTE S.R.L.", "Bandiera": "Sommese Petroli", "Tipo impianto": "Altro", "Indirizzo": "Via Per Cassano 80 21052", "Nome impianto": "SOMMESE CARBURANTE BUSTO ", "Comune": "BUSTO ARSIZIO", "idImpianto": 39853, "points": [{"type": "Feature", "properties": {}, "geometry": {"type": "Point", "coordinates": [8.846336471163909, 45.636349970305154]}}], "price": 1.929, "ultima_rilevazione": "09/06/2022 07:32:10"}]}, "Metano": {"1": [], "3": [], "5": [{"Gestore": "B.P. GROUP SAS DI BONO MARCO E C.", "Bandiera": "Pompe Bianche", "Tipo impianto": "Altro", "Indirizzo": "SP EX 233 Varesina Km 27+500  21040", "Nome impianto": "GETOIL", "Comune": "CISLAGO", "idImpianto": 45472, "points": [{"type": "Feature", "properties": {}, "geometry": {"type": "Point", "coordinates": [8.985071000123, 45.653690000123]}}], "price": 1.199, "ultima_rilevazione": "30/05/2022 07:25:49"}, {"Gestore": "GREEN FUEL COMPANY S.P.A.", "Bandiera": "Pompe Bianche", "Tipo impianto": "Altro", "Indirizzo": "VIA PER BUSTO 33/A 20025", "Nome impianto": "Green Fuel Company", "Comune": "LEGNANO", "idImpianto": 40979, "points": [{"type": "Feature", "properties": {}, "geometry": {"type": "Point", "coordinates": [8.901100646627128, 45.60498186476998]}}], "price": 1.749, "ultima_rilevazione": "06/06/2022 08:00:53"}, {"Gestore": "VELE S.A.S. DI VERDUCI ANTONINO & CC", "Bandiera": "Agip Eni", "Tipo impianto": "Altro", "Indirizzo": "VIA SARONNESE 51 20027", "Nome impianto": "Vele sas di Verduci Antonino & c", "Comune": "RESCALDINA", "idImpianto": 11118, "points": [{"type": "Feature", "properties": {}, "geometry": {"type": "Point", "coordinates": [8.940021041264345, 45.61118996647434]}}], "price": 1.546, "ultima_rilevazione": "07/06/2022 12:09:28"}, {"Gestore": "KEROPETROL S.P.A.", "Bandiera": "KEROPETROL", "Tipo impianto": "Altro", "Indirizzo": "via 4 novembre  21040", "Nome impianto": "KEROPETROL SPA UBOLDO", "Comune": "UBOLDO", "idImpianto": 23842, "points": [{"type": "Feature", "properties": {}, "geometry": {"type": "Point", "coordinates": [8.979483246803284, 45.61317586572184]}}], "price": 1.799, "ultima_rilevazione": "07/06/2022 17:45:47"}, {"Gestore": "METANO LEGNANO SNC DI CIRIGNANO CLAUDIO & C.", "Bandiera": "Agip Eni", "Tipo impianto": "Altro", "Indirizzo": "VIA PERGOLESI 11 20010", "Nome impianto": "metano legnano", "Comune": "LEGNANO", "idImpianto": 31779, "points": [{"type": "Feature", "properties": {}, "geometry": {"type": "Point", "coordinates": [8.918963058860754, 45.61015286221418]}}], "price": 1.96, "ultima_rilevazione": "07/06/2022 20:31:57"}]}, "GPL": {"1": [{"Gestore": "ARPI S.A.S. DI ARRU MELISSA & C.", "Bandiera": "Api-Ip", "Tipo impianto": "Altro", "Indirizzo": "SP19 Km11 direzione Gorla Minore  21055", "Nome impianto": "Totalerg", "Comune": "GORLA MINORE", "idImpianto": 37667, "points": [{"type": "Feature", "properties": {}, "geometry": {"type": "Point", "coordinates": [8.90462078154087, 45.652237173918735]}}], "price": 0.85, "ultima_rilevazione": "06/06/2022 14:53:00"}], "3": [{"Gestore": "F.LLI  VITA S.N.C. DI VITA GIUSEPPE E ROCCO", "Bandiera": "Pompe Bianche", "Tipo impianto": "Altro", "Indirizzo": "VIA CAMILLO BENSO CONTE DI CAVOUR 1000 21040", "Nome impianto": "ELDA GAS", "Comune": "CISLAGO", "idImpianto": 15786, "points": [{"type": "Feature", "properties": {}, "geometry": {"type": "Point", "coordinates": [8.958203941583633, 45.65248540953264]}}], "price": 0.809, "ultima_rilevazione": "08/06/2022 08:41:10"}], "5": [{"Gestore": "B.P. GROUP SAS DI BONO MARCO E C.", "Bandiera": "Pompe Bianche", "Tipo impianto": "Altro", "Indirizzo": "SP EX 233 Varesina Km 27+500  21040", "Nome impianto": "GETOIL", "Comune": "CISLAGO", "idImpianto": 45472, "points": [{"type": "Feature", "properties": {}, "geometry": {"type": "Point", "coordinates": [8.985071000123, 45.653690000123]}}], "price": 0.79, "ultima_rilevazione": "30/05/2022 07:25:49"}, {"Gestore": "GREEN FUEL COMPANY S.P.A.", "Bandiera": "Pompe Bianche", "Tipo impianto": "Altro", "Indirizzo": "VIA PER BUSTO 33/A 20025", "Nome impianto": "Green Fuel Company", "Comune": "LEGNANO", "idImpianto": 40979, "points": [{"type": "Feature", "properties": {}, "geometry": {"type": "Point", "coordinates": [8.901100646627128, 45.60498186476998]}}], "price": 0.879, "ultima_rilevazione": "06/06/2022 08:00:53"}, {"Gestore": "ELDAGAS - S.R.L.", "Bandiera": "Pompe Bianche", "Tipo impianto": "Altro", "Indirizzo": "VIA MONTE ROSA 85 21050", "Nome impianto": "ELDA GAS 1", "Comune": "CAIRATE", "idImpianto": 47651, "points": [{"type": "Feature", "properties": {}, "geometry": {"type": "Point", "coordinates": [8.85530563558198, 45.68314771128692]}}], "price": 0.809, "ultima_rilevazione": "07/06/2022 15:01:04"}, {"Gestore": "KEROPETROL S.P.A.", "Bandiera": "KEROPETROL", "Tipo impianto": "Altro", "Indirizzo": "via 4 novembre  21040", "Nome impianto": "KEROPETROL SPA UBOLDO", "Comune": "UBOLDO", "idImpianto": 23842, "points": [{"type": "Feature", "properties": {}, "geometry": {"type": "Point", "coordinates": [8.979483246803284, 45.61317586572184]}}], "price": 0.799, "ultima_rilevazione": "07/06/2022 17:45:47"}, {"Gestore": "IP SERVICES S.R.L.", "Bandiera": "Api-Ip", "Tipo impianto": "Strada Statale", "Indirizzo": "Statale 336 dell'Aeroporto della Malpensa, Km. KM. 1,850, dir. BUSTO ARSIZIO 21052", "Nome impianto": "BUSTO ARSIZIO", "Comune": "BUSTO ARSIZIO", "idImpianto": 24961, "points": [{"type": "Feature", "properties": {}, "geometry": {"type": "Point", "coordinates": [8.8329019239427, 45.63975625942259]}}], "price": 0.799, "ultima_rilevazione": "08/06/2022 16:02:57"}]}, "Blue Diesel": {"1": [{"Gestore": "RAIMONDI MAURO", "Bandiera": "Agip Eni", "Tipo impianto": "Altro", "Indirizzo": "VIA ARMANDO DIAZ 1 21057", "Nome impianto": "RAIMONDI MAURO", "Comune": "OLGIATE OLONA", "idImpianto": 14944, "points": [{"type": "Feature", "properties": {}, "geometry": {"type": "Point", "coordinates": [8.888167440891266, 45.63324351402306]}}], "price": 2.199, "ultima_rilevazione": "09/06/2022 07:48:37"}, {"Gestore": "RAIMONDI MAURO", "Bandiera": "Agip Eni", "Tipo impianto": "Altro", "Indirizzo": "VIA ARMANDO DIAZ 1 21057", "Nome impianto": "RAIMONDI MAURO", "Comune": "OLGIATE OLONA", "idImpianto": 14944, "points": [{"type": "Feature", "properties": {}, "geometry": {"type": "Point", "coordinates": [8.888167440891266, 45.63324351402306]}}], "price": 2.069, "ultima_rilevazione": "09/06/2022 07:48:37"}], "3": [{"Gestore": "VINCI S.A.S. DI VINCI SALVATORE & C.", "Bandiera": "Agip Eni", "Tipo impianto": "Altro", "Indirizzo": "via busto fagnano 36 21057", "Nome impianto": "02874 OLGIATE OLONA", "Comune": "OLGIATE OLONA", "idImpianto": 7166, "points": [{"type": "Feature", "properties": {}, "geometry": {"type": "Point", "coordinates": [8.858649730682373, 45.631588145862736]}}], "price": 2.364, "ultima_rilevazione": "01/06/2022 16:45:58"}, {"Gestore": "VINCI S.A.S. DI VINCI SALVATORE & C.", "Bandiera": "Agip Eni", "Tipo impianto": "Altro", "Indirizzo": "via busto fagnano 36 21057", "Nome impianto": "02874 OLGIATE OLONA", "Comune": "OLGIATE OLONA", "idImpianto": 7166, "points": [{"type": "Feature", "properties": {}, "geometry": {"type": "Point", "coordinates": [8.858649730682373, 45.631588145862736]}}], "price": 2.344, "ultima_rilevazione": "01/06/2022 16:45:58"}], "5": [{"Gestore": "ENI FUEL S.P.A.", "Bandiera": "Agip Eni", "Tipo impianto": "Altro", "Indirizzo": "VIA XX SETTEMBRE, 60  21052", "Nome impianto": "2807 \u2013 Busto Arsizio", "Comune": "BUSTO ARSIZIO", "idImpianto": 49792, "points": [{"type": "Feature", "properties": {}, "geometry": {"type": "Point", "coordinates": [8.867198119656962, 45.61297865138692]}}], "price": 2.179, "ultima_rilevazione": "09/06/2022 06:54:10"}, {"Gestore": "PELLEGRINI STEFANO", "Bandiera": "Agip Eni", "Tipo impianto": "Altro", "Indirizzo": "VIA FIUME LOC.ABBIATE GUAZZONE 66 21049", "Nome impianto": "Eni Di Pellegrini Stefano", "Comune": "TRADATE", "idImpianto": 40195, "points": [{"type": "Feature", "properties": {}, "geometry": {"type": "Point", "coordinates": [8.923143446445465, 45.69722876361417]}}], "price": 1.759, "ultima_rilevazione": "17/12/2021 14:52:00"}, {"Gestore": "COBIDO CAR SERVICE DI DOLCE ANTONINO & C. S.N.C.", "Bandiera": "Agip Eni", "Tipo impianto": "Altro", "Indirizzo": "VIA LUIGI CADORNA 60 20025", "Nome impianto": "ENI 02308 LEGNANO CO.BI.DO. ", "Comune": "LEGNANO", "idImpianto": 24513, "points": [{"type": "Feature", "properties": {}, "geometry": {"type": "Point", "coordinates": [8.939912617206573, 45.59869121272512]}}], "price": 2.049, "ultima_rilevazione": "07/06/2022 07:47:48"}, {"Gestore": "CEPPI ROBERTO", "Bandiera": "Agip Eni", "Tipo impianto": "Altro", "Indirizzo": "VIALE ARMANDO DIAZ 28 21052", "Nome impianto": "ENI PV 02805", "Comune": "BUSTO ARSIZIO", "idImpianto": 38949, "points": [{"type": "Feature", "properties": {}, "geometry": {"type": "Point", "coordinates": [8.852900235581956, 45.62159883144696]}}], "price": 2.044, "ultima_rilevazione": "07/06/2022 08:26:02"}, {"Gestore": "A.M.G. S.N.C. DI ANDREA DUO',  MAURO TURCONI E GIORGIO MARINI", "Bandiera": "Agip Eni", "Tipo impianto": "Strada Statale", "Indirizzo": "Statale 527 Bustese, Km. 47, dir. Rescaldina 20027", "Nome impianto": "AGIP", "Comune": "RESCALDINA", "idImpianto": 6182, "points": [{"type": "Feature", "properties": {}, "geometry": {"type": "Point", "coordinates": [8.959066271781921, 45.61236684136928]}}], "price": 2.044, "ultima_rilevazione": "07/06/2022 09:09:22"}, {"Gestore": "DEDA ASTRIT", "Bandiera": "Agip Eni", "Tipo impianto": "Altro", "Indirizzo": "VIA PER FAGNANO 32 21052", "Nome impianto": "eni 52359", "Comune": "BUSTO ARSIZIO", "idImpianto": 46044, "points": [{"type": "Feature", "properties": {}, "geometry": {"type": "Point", "coordinates": [8.857783000123, 45.626435000123]}}], "price": 2.049, "ultima_rilevazione": "07/06/2022 09:40:48"}, {"Gestore": "VELE S.A.S. DI VERDUCI ANTONINO & CC", "Bandiera": "Agip Eni", "Tipo impianto": "Altro", "Indirizzo": "VIA SARONNESE 51 20027", "Nome impianto": "Vele sas di Verduci Antonino & c", "Comune": "RESCALDINA", "idImpianto": 11118, "points": [{"type": "Feature", "properties": {}, "geometry": {"type": "Point", "coordinates": [8.940021041264345, 45.61118996647434]}}], "price": 2.044, "ultima_rilevazione": "07/06/2022 12:09:28"}, {"Gestore": "ENI FUEL S.P.A.", "Bandiera": "Agip Eni", "Tipo impianto": "Altro", "Indirizzo": "Via Don Minzoni 52 21053", "Nome impianto": "PV 2906 Castellanza", "Comune": "CASTELLANZA", "idImpianto": 39454, "points": [{"type": "Feature", "properties": {}, "geometry": {"type": "Point", "coordinates": [8.892793580889702, 45.60381865060999]}}], "price": 2.029, "ultima_rilevazione": "08/06/2022 09:04:04"}, {"Gestore": "GESTIONI INNOVATIVE ITALIA S.R.L.", "Bandiera": "Agip Eni", "Tipo impianto": "Altro", "Indirizzo": "VIALE LOMBARDIA 72 21053", "Nome impianto": "PV 2857", "Comune": "CASTELLANZA", "idImpianto": 25132, "points": [{"type": "Feature", "properties": {}, "geometry": {"type": "Point", "coordinates": [8.910047560930252, 45.61004458384013]}}], "price": 2.049, "ultima_rilevazione": "09/06/2022 06:04:07"}, {"Gestore": "ENI FUEL S.P.A.", "Bandiera": "Agip Eni", "Tipo impianto": "Altro", "Indirizzo": "VIA XX SETTEMBRE, 60  21052", "Nome impianto": "2807 \u2013 Busto Arsizio", "Comune": "BUSTO ARSIZIO", "idImpianto": 49792, "points": [{"type": "Feature", "properties": {}, "geometry": {"type": "Point", "coordinates": [8.867198119656962, 45.61297865138692]}}], "price": 2.049, "ultima_rilevazione": "09/06/2022 06:54:10"}, {"Gestore": "BEMA SAS DI ANDREA BERTOLASO & C.", "Bandiera": "Agip Eni", "Tipo impianto": "Altro", "Indirizzo": "VIA BONICALZA 127 21012", "Nome impianto": "Eni 02862 Cassano Magnago", "Comune": "CASSANO MAGNAGO", "idImpianto": 45389, "points": [{"type": "Feature", "properties": {}, "geometry": {"type": "Point", "coordinates": [8.843454000123, 45.660386000123]}}], "price": 2.064, "ultima_rilevazione": "09/06/2022 06:55:32"}]}, "Diesel High Quality": {"1": [], "3": [{"Gestore": "SERVIZI & GESTIONI ITALIA srl", "Bandiera": "Q8", "Tipo impianto": "Altro", "Indirizzo": "VIALE LOMBARDIA 27 21053", "Nome impianto": "CASTELLANZA VIALE LOMBARDIA 27", "Comune": "CASTELLANZA", "idImpianto": 6460, "points": [{"type": "Feature", "properties": {}, "geometry": {"type": "Point", "coordinates": [8.904368128241686, 45.61509008291705]}}], "price": 1.705, "ultima_rilevazione": "08/06/2022 01:44:27"}, {"Gestore": "B.E. DI BOMBELLI EDOARDA", "Bandiera": "Esso", "Tipo impianto": "Altro", "Indirizzo": "VIA VARESINA 13 22076", "Nome impianto": "EG ITALIA SPA", "Comune": "MOZZATE", "idImpianto": 43644, "points": [{"type": "Feature", "properties": {}, "geometry": {"type": "Point", "coordinates": [8.949821717179248, 45.67625625181789]}}], "price": 2.109, "ultima_rilevazione": "09/06/2022 07:36:21"}], "5": [{"Gestore": "GARAGE BRENNA S.N.C. DI BRENNA GIANBATTISTA E C.", "Bandiera": "Q8", "Tipo impianto": "Altro", "Indirizzo": "VIA CESARE BATTISTI 1426 21040", "Nome impianto": "GARAGE BRENNA SNC ", "Comune": "CISLAGO", "idImpianto": 39354, "points": [{"type": "Feature", "properties": {}, "geometry": {"type": "Point", "coordinates": [8.97963968220904, 45.65702774735304]}}], "price": 2.249, "ultima_rilevazione": "08/06/2022 07:03:26"}, {"Gestore": "SERVIZI & GESTIONI ITALIA S.R.L.", "Bandiera": "Q8", "Tipo impianto": "Altro", "Indirizzo": "CORSO SEMPIONE  ANG.VIA VOLTA 160 20025", "Nome impianto": "LEGNANO-CORSO SEMPIONE 160 ANG.VIA VOLTA", "Comune": "LEGNANO", "idImpianto": 11657, "points": [{"type": "Feature", "properties": {}, "geometry": {"type": "Point", "coordinates": [8.918259766864821, 45.60017318891127]}}], "price": 2.259, "ultima_rilevazione": "08/06/2022 07:07:20"}, {"Gestore": "SERVIZI & GESTIONI ITALIA S.R.L.", "Bandiera": "Q8", "Tipo impianto": "Altro", "Indirizzo": "VIALE CADORNA 58 20025", "Nome impianto": "LEGNANO-VIALE CADORNA 58", "Comune": "LEGNANO", "idImpianto": 11673, "points": [{"type": "Feature", "properties": {}, "geometry": {"type": "Point", "coordinates": [8.93926352262497, 45.59818863369359]}}], "price": 2.259, "ultima_rilevazione": "08/06/2022 07:07:20"}, {"Gestore": "SERVIZI & GESTIONI ITALIA S.R.L.", "Bandiera": "Q8", "Tipo impianto": "Altro", "Indirizzo": "CORSO ITALIA 23 21052", "Nome impianto": "BUSTO ARSIZIO-CORSO ITALIA 23", "Comune": "BUSTO ARSIZIO", "idImpianto": 11922, "points": [{"type": "Feature", "properties": {}, "geometry": {"type": "Point", "coordinates": [8.846762449073822, 45.62081875947187]}}], "price": 2.249, "ultima_rilevazione": "08/06/2022 07:07:33"}, {"Gestore": "SERVIZI & GESTIONI ITALIA S.R.L.", "Bandiera": "Q8", "Tipo impianto": "Altro", "Indirizzo": "CORSO SEMPIONE  ANG.VIA VOLTA 160 20025", "Nome impianto": "LEGNANO-CORSO SEMPIONE 160 ANG.VIA VOLTA", "Comune": "LEGNANO", "idImpianto": 11657, "points": [{"type": "Feature", "properties": {}, "geometry": {"type": "Point", "coordinates": [8.918259766864821, 45.60017318891127]}}], "price": 2.339, "ultima_rilevazione": "08/06/2022 07:07:20"}, {"Gestore": "SERVIZI & GESTIONI ITALIA S.R.L.", "Bandiera": "Q8", "Tipo impianto": "Altro", "Indirizzo": "VIALE CADORNA 58 20025", "Nome impianto": "LEGNANO-VIALE CADORNA 58", "Comune": "LEGNANO", "idImpianto": 11673, "points": [{"type": "Feature", "properties": {}, "geometry": {"type": "Point", "coordinates": [8.93926352262497, 45.59818863369359]}}], "price": 2.339, "ultima_rilevazione": "08/06/2022 07:07:20"}, {"Gestore": "SERVIZI & GESTIONI ITALIA S.R.L.", "Bandiera": "Q8", "Tipo impianto": "Altro", "Indirizzo": "CORSO ITALIA 23 21052", "Nome impianto": "BUSTO ARSIZIO-CORSO ITALIA 23", "Comune": "BUSTO ARSIZIO", "idImpianto": 11922, "points": [{"type": "Feature", "properties": {}, "geometry": {"type": "Point", "coordinates": [8.846762449073822, 45.62081875947187]}}], "price": 2.299, "ultima_rilevazione": "08/06/2022 07:07:33"}, {"Gestore": "LEPRI MARCO", "Bandiera": "Esso", "Tipo impianto": "Strada Statale", "Indirizzo": "Statale 33 del Sempione, Km. 144, dir. NORD 21052", "Nome impianto": "ESSO SEMPIONE", "Comune": "BUSTO ARSIZIO", "idImpianto": 9058, "points": [{"type": "Feature", "properties": {}, "geometry": {"type": "Point", "coordinates": [8.841612339019775, 45.62873718186091]}}], "price": 2.106, "ultima_rilevazione": "08/06/2022 10:00:26"}, {"Gestore": "LEPRI MARCO", "Bandiera": "Esso", "Tipo impianto": "Altro", "Indirizzo": "CORSO ITALIA  21052", "Nome impianto": "ESSO ITALIA", "Comune": "BUSTO ARSIZIO", "idImpianto": 9059, "points": [{"type": "Feature", "properties": {}, "geometry": {"type": "Point", "coordinates": [8.83901059627533, 45.615347715796815]}}], "price": 2.116, "ultima_rilevazione": "08/06/2022 10:01:01"}, {"Gestore": "BOSATELLI BRUNO & C. - S.A.S.", "Bandiera": "Esso", "Tipo impianto": "Altro", "Indirizzo": "VIA PER FAGNANO 24 21052", "Nome impianto": "ESSO", "Comune": "BUSTO ARSIZIO", "idImpianto": 10021, "points": [{"type": "Feature", "properties": {}, "geometry": {"type": "Point", "coordinates": [8.857867866754532, 45.62548446746924]}}], "price": 2.126, "ultima_rilevazione": "08/06/2022 18:09:22"}, {"Gestore": "MARINO ROCCO", "Bandiera": "Api-Ip", "Tipo impianto": "Altro", "Indirizzo": "VIALE BOCCACCIO 42 21052", "Nome impianto": "IP", "Comune": "BUSTO ARSIZIO", "idImpianto": 22418, "points": [{"type": "Feature", "properties": {}, "geometry": {"type": "Point", "coordinates": [8.860757946968079, 45.59867244590827]}}], "price": 1.969, "ultima_rilevazione": "08/06/2022 15:42:15"}]}, "null": {}, "Gasolio High Quality": {"1": [], "3": [{"Gestore": "GAIA S.A.S. DI GAIARIN DAVIDE & C.", "Bandiera": "Sommese Petroli", "Tipo impianto": "Altro", "Indirizzo": "VIA ARMANDO DIAZ 40 21054", "Nome impianto": "Gaia S.a.s.", "Comune": "FAGNANO OLONA", "idImpianto": 36188, "points": [{"type": "Feature", "properties": {}, "geometry": {"type": "Point", "coordinates": [8.867793474204973, 45.66553496346702]}}], "price": 2.029, "ultima_rilevazione": "08/06/2022 08:18:08"}], "5": [{"Gestore": "CAIMI GINO", "Bandiera": "Sommese Petroli", "Tipo impianto": "Altro", "Indirizzo": "Via Cesare Battisti 67 22070", "Nome impianto": "CAIMI Gino - Sommese Petroli", "Comune": "LOCATE VARESINO", "idImpianto": 14027, "points": [{"type": "Feature", "properties": {}, "geometry": {"type": "Point", "coordinates": [8.931731395123165, 45.6902490451551]}}], "price": 2.059, "ultima_rilevazione": "08/06/2022 07:14:40"}, {"Gestore": "SOMMESE CARBURANTE S.R.L.", "Bandiera": "Sommese Petroli", "Tipo impianto": "Altro", "Indirizzo": "Via Per Cassano 80 21052", "Nome impianto": "SOMMESE CARBURANTE BUSTO ", "Comune": "BUSTO ARSIZIO", "idImpianto": 39853, "points": [{"type": "Feature", "properties": {}, "geometry": {"type": "Point", "coordinates": [8.846336471163909, 45.636349970305154]}}], "price": 2.029, "ultima_rilevazione": "09/06/2022 07:32:10"}]}}