{"area_comune": "[{\"type\": \"Feature\", \"properties\": {}, \"geometry\": {\"type\": \"Polygon\", \"coordinates\": [[[9.026665881615386, 45.5885223787682], [9.0269335706002, 45.586155071635616], [9.034804888811985, 45.582396555462026], [9.046001292095301, 45.57733392841922], [9.049547074973674, 45.57746923757111], [9.054783040776025, 45.56692997634638], [9.048840642908862, 45.559883957998075], [9.043944620702757, 45.559309460233784], [9.033883114733595, 45.555577659266056], [9.02823441605183, 45.54954282820551], [9.028524274042093, 45.544031533960585], [9.015092845022886, 45.54111385096404], [9.013167625278026, 45.54160491206335], [9.009405770880088, 45.55025302261401], [9.00780353431934, 45.55273292652899], [9.00952218700552, 45.554465483185616], [9.008922070139896, 45.567516943899115], [9.008127791188166, 45.56915517578157], [9.002566700735157, 45.568363345723554], [9.000721723348963, 45.567922321914345], [8.998210413425891, 45.566698183713264], [8.997326213956212, 45.56658114764643], [8.996326665555891, 45.56652712539761], [8.995494032289574, 45.5675081889157], [8.996185486006192, 45.56978545593582], [8.998299958494108, 45.57196375556212], [9.000683338313793, 45.573214895457824], [9.002092767192071, 45.57416896564989], [9.0032208416698, 45.57799435110325], [9.005873816456845, 45.579834928803336], [9.00955242123277, 45.58176089700286], [9.011077137183936, 45.58053212004199], [9.011141173091067, 45.58018107628306], [9.021446529066422, 45.58291589983654], [9.024484856156729, 45.584688467733876], [9.025666151704195, 45.58846859727886], [9.026665881615386, 45.5885223787682]]]}}]", "comune": "lainate", "buffer_1": "[{\"type\": \"Feature\", \"properties\": {}, \"geometry\": {\"type\": \"Polygon\", \"coordinates\": [[[8.997731425175127, 45.558648736527864], [8.996583535865039, 45.55853974692487], [8.995323263971901, 45.5585079522977], [8.994064645516847, 45.55856332879884], [8.992819866909082, 45.55870534025071], [8.991600980745394, 45.55893261163447], [8.990419789270538, 45.55924294238505], [8.989287730244751, 45.5596333276692], [8.988215766316438, 45.56009998744181], [8.987214278965144, 45.56063840300127], [8.986292968036825, 45.56124336069193], [8.985460757840752, 45.56190900233295], [8.98472571071543, 45.56262888188837], [8.984094948900168, 45.56339602783182], [8.983574585470238, 45.56420301060541], [8.983169665007464, 45.56504201452167], [8.982884114585225, 45.56590491341486], [8.982720705548433, 45.56678334931122], [8.982681026465617, 45.56766881335767], [8.9827654675229, 45.56855272822656], [8.982973216519486, 45.56942653119883], [8.98330226651208, 45.570281757121194], [8.983749435042895, 45.57111012043306], [8.98431039477317, 45.57190359546785], [8.984979715233045, 45.572654494249214], [8.985750915289865, 45.57335554102657], [8.98661652583197, 45.57399994282545], [9.01778865685319, 45.59501653102722], [9.018753111359445, 45.59560447657485], [9.019796130809137, 45.596122125135125], [9.02090736106137, 45.59656433698687], [9.02207576988264, 45.596926721307725], [9.02328975656654, 45.597205679825144], [9.024537267234013, 45.59739844259163], [9.025805914663358, 45.59750309552597], [9.027083101453, 45.597518599445884], [9.02835614528596, 45.59744480040127], [9.029612405043533, 45.597282431205066], [9.030839406506908, 45.59703310414622], [9.032024966389805, 45.59669929495768], [9.033157313462125, 45.59628431819985], [9.034225205554439, 45.59579229430527], [9.035218041275174, 45.59522810861442], [9.036125965326224, 45.59459736281133], [9.064242526288606, 45.57300265538314], [9.06504151109468, 45.572324905921974], [9.065742436507264, 45.571595601192676], [9.066338606529449, 45.57082171237115], [9.066824327209467, 45.57001063650471], [9.067194960933362, 45.5691701257616], [9.06744697059001, 45.568308213296305], [9.0675779531923, 45.56743313644077], [9.067586662640066, 45.5665532579578], [9.067473021414866, 45.56567698610978], [9.067238121103014, 45.56481269430724], [9.066884211750136, 45.56396864110535], [9.066414680157186, 45.56315289131209], [9.065834017332971, 45.56237323896091], [9.06514777542123, 45.561637132882815], [9.064362514519793, 45.560951605586474], [9.06348573990472, 45.560323206123975], [9.023796213168056, 45.53451007432283], [9.022840037640204, 45.53394601546506], [9.021810285902632, 45.53345005028753], [9.020716739331888, 45.533026889000375], [9.019569784421483, 45.53268055029433], [9.01838031421694, 45.53241432322296], [9.017159624971121, 45.532230736008216], [9.01591930899601, 45.532131532063396], [9.014671144722332, 45.53211765345992], [9.013426985004186, 45.532189231993534], [9.012198644721929, 45.53234558793449], [9.010997788743094, 45.532585236473444], [9.009835821297807, 45.532905901802074], [9.008723777812138, 45.533304538695816], [9.007672220220126, 45.533777361395195], [9.006691136743195, 45.53431987951304], [9.005789847084323, 45.53492694062901], [9.004976913934321, 45.53559277916904], [9.004260061629033, 45.536311071108216], [9.003646102729917, 45.53707499398015], [9.003140873226805, 45.537877291625506], [9.002749176981132, 45.53871034306713], [9.002474739941725, 45.53956623485992], [8.997731425175127, 45.558648736527864]]]}}]", "buffer_3": "[{\"type\": \"Feature\", \"properties\": {}, \"geometry\": {\"type\": \"Polygon\", \"coordinates\": [[[8.975213715293457, 45.54460803681847], [8.973664971446404, 45.54528216568754], [8.970660825053786, 45.546897007465304], [8.967896974127218, 45.54871146194843], [8.96540018839585, 45.550707970757315], [8.963194660826742, 45.55286721185495], [8.961301773013437, 45.55516828602129], [8.959739887411008, 45.55758891863636], [8.958524168454604, 45.56010567484301], [8.95766643433273, 45.56269418602875], [8.95717504090216, 45.5653293854533], [8.957054798930587, 45.56798575075608], [8.95730692553856, 45.57063755100651], [8.957929030386527, 45.573259095911425], [8.95891513681899, 45.57582498476737], [8.960255737838702, 45.578310352742825], [8.961937886443197, 45.58069111209596], [8.963945319516759, 45.58294418597785], [8.966258614137017, 45.585047732538015], [8.96885537483014, 45.58698135714028], [9.000028062738224, 45.608002743805024], [9.002921597796538, 45.60976700163075], [9.006051064404286, 45.61132034834246], [9.009385383986375, 45.61264734887362], [9.012891434938165, 45.6137348162815], [9.016534382470969, 45.614571943275685], [9.020278025808182, 45.61515041003861], [9.02408515922824, 45.6154644672464], [9.027917943301683, 45.61551099344786], [9.03173828255952, 45.615289526219726], [9.0355082057607, 45.614802266781844], [9.039190244898258, 45.614054058025566], [9.04274780909747, 45.61305233617828], [9.04614554961449, 45.61180705659474], [9.049349712240119, 45.610330594427545], [9.052328473548974, 45.60863762118359], [9.055052257607816, 45.60674495841629], [9.083167614645014, 45.58514563979393], [9.085564343855214, 45.583111981817815], [9.087666670135295, 45.5809236811658], [9.089454522705358, 45.57860166610965], [9.09091084483604, 45.576168141086015], [9.092021755763785, 45.57364637393807], [9.09277668195842, 45.5710604730793], [9.093168456541553, 45.5684351567274], [9.093193385967988, 45.5657955164281], [9.092851283402004, 45.563166777138576], [9.092145468542919, 45.56057405616846], [9.091082733976311, 45.55804212328205], [9.089673278445774, 45.55559516424907], [9.087930607751964, 45.55325655009415], [9.085871404288225, 45.55104861423542], [9.083515366512556, 45.548992439623866], [9.080885019931907, 45.54710765789632], [9.041196838829798, 45.52130051088051], [9.038328519725141, 45.51960874308142], [9.035239695626842, 45.518121234553625], [9.031959694307716, 45.51685210127514], [9.028519651048278, 45.51581338604672], [9.024952213859235, 45.51501494464036], [9.021291234625885, 45.514464352645945], [9.017571449058734, 45.514166833883216], [9.013828148431736, 45.5141252110443], [9.010096846160769, 45.514339879025556], [9.006412942319418, 45.514808801196736], [9.002811389207054, 45.515527528641705], [8.999326361075063, 45.5164892421923], [8.995990931081149, 45.517684816864865], [8.992836758479202, 45.51910290810002], [8.989893788963313, 45.520730059003974], [8.987189970970132, 45.52255082759247], [8.98475099060417, 45.52454793285153], [8.982600027686972, 45.52670241825178], [8.980757535244383, 45.528993831188004], [8.979241044537464, 45.53140041666423], [8.978064997513703, 45.53389932340809], [8.977240608307456, 45.53646682047774], [8.975213715293457, 45.54460803681847]]]}}]", "buffer_5": "[{\"type\": \"Feature\", \"properties\": {}, \"geometry\": {\"type\": \"Polygon\", \"coordinates\": [[[8.951659223045368, 45.53476541481799], [8.949509155329237, 45.53617657669544], [8.945347588780793, 45.53950339805586], [8.941671067659964, 45.54310147061803], [8.938515252591559, 45.54693598793185], [8.935910786218333, 45.55096984905528], [8.933882993590837, 45.55516401625365], [8.93245163316696, 45.559477891681055], [8.93163070097358, 45.56386970945172], [8.931428289997415, 45.56829693935068], [8.931846506360358, 45.57271669830677], [8.932881443300387, 45.57708616566282], [8.934523213427054, 45.58136299822633], [8.936756039155485, 45.58550574107083], [8.939558400650348, 45.58947423008519], [8.942903240037161, 45.593229982333995], [8.946758220068693, 45.59673657039792], [8.951086034875745, 45.599959977007934], [8.982259270986098, 45.62098616448691], [8.987082114266542, 45.62392729658293], [8.992298571851643, 45.626516876668795], [8.997856819242388, 45.62872915307273], [9.003701612253623, 45.63054212337276], [9.009774838400835, 45.63193775457425], [9.016016097724142, 45.6329021636421], [9.022363307123673, 45.63342575653377], [9.028753322014708, 45.63350332430329], [9.03512256891421, 45.633134095287154], [9.041407682445927, 45.63232174283456], [9.04754614020085, 45.631074348502445], [9.053476888914297, 45.62940432109462], [9.05914095551987, 45.62732827237831], [9.064482036812477, 45.624866850757215], [9.069447061694927, 45.6220445346095], [9.07398672029166, 45.61888938741133], [9.102100863353385, 45.597285456021595], [9.10609503503348, 45.59389534325994], [9.109598160388359, 45.59024753144533], [9.112576816961084, 45.586376925614054], [9.115002618906958, 45.58232055531176], [9.116852485234022, 45.57811721915162], [9.118108856523655, 45.573807112702944], [9.118759858208561, 45.5694314433166], [9.118799409021683, 45.56503203560883], [9.118227273772368, 45.560650931400296], [9.117049060149556, 45.55632998794769], [9.115276159790131, 45.55211047830679], [9.112925634378907, 45.54803269763189], [9.110020048059875, 45.544135579146264], [9.106587247932168, 45.540456323413366], [9.102660094874576, 45.53703004440104], [9.098276147385954, 45.53388943566152], [9.058589322038214, 45.50808827026026], [9.053809136933209, 45.505269338126794], [9.048661815722744, 45.50279080174274], [9.04319621073041, 45.50067616337032], [9.037464173767024, 45.49894547227953], [9.031520066362573, 45.49761513582678], [9.025420246966382, 45.49669776491232], [9.019222539848744, 45.496202055234306], [9.012985690586023, 45.49613270542776], [9.006768813119681, 45.49649037283782], [9.000630833447712, 45.49727166733219], [8.99462993503384, 45.4984691832093], [8.988823011006238, 45.50007156891005], [8.983265128162754, 45.50206363389571], [8.978009007704356, 45.50442649171202], [8.973104527482738, 45.507137737928275], [8.968598250372413, 45.510171661316235], [8.964532983162611, 45.51349948632616], [8.960947370110775, 45.517089644623496], [8.957875525008566, 45.52090807317659], [8.9553467052843, 45.5249185361322], [8.953385031304249, 45.5290829674874], [8.952009253641458, 45.53336183136222], [8.951659223045368, 45.53476541481799]]]}}]", "centroid": "[{\"type\": \"Feature\", \"properties\": {}, \"geometry\": {\"type\": \"Point\", \"coordinates\": [9.023913565871156, 45.565219125713874]}}]", "Benzina": {"1": [{"Gestore": "SERVIZI & GESTIONI ITALIA srl", "Bandiera": "Q8", "Tipo impianto": "Altro", "Indirizzo": "S.P. 229 KM 6+682 SNC 20010", "Nome impianto": "POGLIANO MILANESE S.P. 229 KM 6+682", "Comune": "POGLIANO MILANESE", "idImpianto": 6831, "points": [{"type": "Feature", "properties": {}, "geometry": {"type": "Point", "coordinates": [9.010794635581988, 45.53944696670913]}}], "price": 1.969, "ultima_rilevazione": "02/06/2022 01:40:17"}, {"Gestore": "SERVIZI & GESTIONI ITALIA S.R.L.", "Bandiera": "Q8", "Tipo impianto": "Altro", "Indirizzo": "VIA CAPUANA C/O ESSELUNGA CENTRE S/N 20017", "Nome impianto": "RHO -VIA CAPUANA C/O ESSELUNGA CENTRE", "Comune": "RHO", "idImpianto": 11712, "points": [{"type": "Feature", "properties": {}, "geometry": {"type": "Point", "coordinates": [9.021690487861632, 45.53642989217953]}}], "price": 1.969, "ultima_rilevazione": "02/06/2022 01:41:03"}, {"Gestore": "SERVIZI & GESTIONI ITALIA S.R.L.", "Bandiera": "Q8", "Tipo impianto": "Altro", "Indirizzo": "SS. 33 DEL SEMPIONE KM.15+660 S/N 20017", "Nome impianto": "RHO-SS. 33 DEL SEMPIONE KM.15+660", "Comune": "RHO", "idImpianto": 11686, "points": [{"type": "Feature", "properties": {}, "geometry": {"type": "Point", "coordinates": [9.02422338161466, 45.540303757278025]}}], "price": 1.989, "ultima_rilevazione": "02/06/2022 07:11:01"}, {"Gestore": "AUTOSERVICE LOTTO SRL", "Bandiera": "Agip Eni", "Tipo impianto": "Altro", "Indirizzo": "strada provinciale 101 km. 3+500  20020", "Nome impianto": "Autoservice Lotto srl", "Comune": "LAINATE", "idImpianto": 8061, "points": [{"type": "Feature", "properties": {}, "geometry": {"type": "Point", "coordinates": [9.014978259801865, 45.56237402569371]}}], "price": 1.959, "ultima_rilevazione": "03/06/2022 09:15:41"}, {"Gestore": "Nuova Sidap SRL", "Bandiera": "Q8", "Tipo impianto": "Autostradale", "Indirizzo": "Autostrada A8-A9 MILANO-LAGHI, Km. 7+600, dir. Nord 20020", "Nome impianto": "VILLORESI EST", "Comune": "LAINATE", "idImpianto": 3555, "points": [{"type": "Feature", "properties": {}, "geometry": {"type": "Point", "coordinates": [9.039123033065836, 45.55996995230018]}}], "price": 2.059, "ultima_rilevazione": "05/06/2022 09:00:07"}, {"Gestore": "IPER MONTEBELLO S.P.A.", "Bandiera": "Iper Station", "Tipo impianto": "Altro", "Indirizzo": "Via Luraghi sn 20020", "Nome impianto": "Iper Station Arese", "Comune": "ARESE", "idImpianto": 30892, "points": [{"type": "Feature", "properties": {}, "geometry": {"type": "Point", "coordinates": [9.053292274475098, 45.56176087890731]}}], "price": 1.918, "ultima_rilevazione": "06/06/2022 10:33:05"}, {"Gestore": "T.D.M. S.R.L.", "Bandiera": "Tamoil", "Tipo impianto": "Altro", "Indirizzo": "Via Rho  20020", "Nome impianto": "3537", "Comune": "LAINATE", "idImpianto": 35445, "points": [{"type": "Feature", "properties": {}, "geometry": {"type": "Point", "coordinates": [9.029793441295624, 45.55220869339715]}}], "price": 1.969, "ultima_rilevazione": "06/06/2022 11:00:09"}, {"Gestore": "T.D.M. S.R.L.", "Bandiera": "Tamoil", "Tipo impianto": "Altro", "Indirizzo": "VIA VINCI  21040", "Nome impianto": "2196", "Comune": "ORIGGIO", "idImpianto": 45568, "points": [{"type": "Feature", "properties": {}, "geometry": {"type": "Point", "coordinates": [9.022863246508225, 45.5960927503526]}}], "price": 1.999, "ultima_rilevazione": "06/06/2022 11:00:20"}, {"Gestore": "villoresi di vitale gaetano &c. snc", "Bandiera": "Esso", "Tipo impianto": "Autostradale", "Indirizzo": "Autostrada A8-A9 MILANO-LAGHI, Km. 7+600, dir. Sud 20020", "Nome impianto": "VILLORESI OVEST", "Comune": "LAINATE", "idImpianto": 3927, "points": [{"type": "Feature", "properties": {}, "geometry": {"type": "Point", "coordinates": [9.04014393386842, 45.55834880837939]}}], "price": 2.282, "ultima_rilevazione": "06/06/2022 11:56:50"}, {"Gestore": "IP SERVICES S.R.L.", "Bandiera": "Api-Ip", "Tipo impianto": "Altro", "Indirizzo": "VIA LAINATE  20017", "Nome impianto": "RHO - LAINATE", "Comune": "RHO", "idImpianto": 27031, "points": [{"type": "Feature", "properties": {}, "geometry": {"type": "Point", "coordinates": [9.03128583068849, 45.547463865626085]}}], "price": 1.949, "ultima_rilevazione": "06/06/2022 12:02:44"}, {"Gestore": "IP SERVICES S.R.L.", "Bandiera": "Api-Ip", "Tipo impianto": "Strada Statale", "Indirizzo": "Statale 33 del Sempione, Km. 15+580, dir. Nerviano 20017", "Nome impianto": "RHO - SS 33 KM 15+580", "Comune": "RHO", "idImpianto": 23101, "points": [{"type": "Feature", "properties": {}, "geometry": {"type": "Point", "coordinates": [9.02470728836056, 45.54066994198055]}}], "price": 1.949, "ultima_rilevazione": "06/06/2022 12:04:43"}, {"Gestore": "MC SERVIZI S.A.S. DI FERTONANI CHIARA E C.", "Bandiera": "Api-Ip", "Tipo impianto": "Altro", "Indirizzo": "VIA PER PASSIRANA   20020", "Nome impianto": "MC SERVIZI SAS", "Comune": "ARESE", "idImpianto": 37165, "points": [{"type": "Feature", "properties": {}, "geometry": {"type": "Point", "coordinates": [9.052507728338242, 45.55435987700847]}}], "price": 2.099, "ultima_rilevazione": "06/06/2022 13:19:26"}, {"Gestore": "GHULAM PAK DI ANWAR SAEED & C. S.A.S.", "Bandiera": "Esso", "Tipo impianto": "Altro", "Indirizzo": "S.S.33 DEL SEMPIONE, KM.16+030  20017", "Nome impianto": "GHULAM PAK", "Comune": "RHO", "idImpianto": 24279, "points": [{"type": "Feature", "properties": {}, "geometry": {"type": "Point", "coordinates": [9.019233584403992, 45.54109280194033]}}], "price": 1.969, "ultima_rilevazione": "06/06/2022 19:43:04"}, {"Gestore": "SERVIZI & GESTIONI ITALIA S.R.L.", "Bandiera": "Q8", "Tipo impianto": "Altro", "Indirizzo": "VIA GARBAGNATE 58/60 20020", "Nome impianto": "LAINATE-VIA GARBAGNATE 58/60", "Comune": "LAINATE", "idImpianto": 11685, "points": [{"type": "Feature", "properties": {}, "geometry": {"type": "Point", "coordinates": [9.042500000000018, 45.57374541847877]}}], "price": 1.999, "ultima_rilevazione": "07/06/2022 07:07:15"}], "3": [{"Gestore": "FREBAR DI AGNANI CRISTIAN", "Bandiera": "Pompe Bianche", "Tipo impianto": "Altro", "Indirizzo": "via Parma  2H 21047", "Nome impianto": "Frebar di  Agnani Cristian", "Comune": "SARONNO", "idImpianto": 43853, "points": [{"type": "Feature", "properties": {}, "geometry": {"type": "Point", "coordinates": [9.029931209821711, 45.6118111237518]}}], "price": 1.924, "ultima_rilevazione": "30/05/2022 07:05:26"}, {"Gestore": "STEFANO CLAUDIO", "Bandiera": "Agip Eni", "Tipo impianto": "Altro", "Indirizzo": "VIA ITALIA 23 20017", "Nome impianto": "Eni di Stefano Claudio", "Comune": "RHO", "idImpianto": 36375, "points": [{"type": "Feature", "properties": {}, "geometry": {"type": "Point", "coordinates": [9.039467324536872, 45.52622836219744]}}], "price": 1.979, "ultima_rilevazione": "01/06/2022 11:29:31"}, {"Gestore": "GIO & ARI S.N.C. DI GUGLIELMETTI LORENZO & C.", "Bandiera": "Api-Ip", "Tipo impianto": "Altro", "Indirizzo": "via milano 2 20010", "Nome impianto": "gio&ari snc", "Comune": "VANZAGO", "idImpianto": 17510, "points": [{"type": "Feature", "properties": {}, "geometry": {"type": "Point", "coordinates": [8.992369728836024, 45.52500890041976]}}], "price": 1.999, "ultima_rilevazione": "01/06/2022 20:28:08"}, {"Gestore": "SERVIZI & GESTIONI ITALIA S.R.L.", "Bandiera": "Q8", "Tipo impianto": "Altro", "Indirizzo": "SS. 33 SEMPIONE KM.18+600 S/N 20014", "Nome impianto": "NERVIANO-SS. 33 SEMPIONE KM.18+600", "Comune": "NERVIANO", "idImpianto": 11658, "points": [{"type": "Feature", "properties": {}, "geometry": {"type": "Point", "coordinates": [8.989460932540851, 45.55000751325928]}}], "price": 1.969, "ultima_rilevazione": "02/06/2022 01:40:59"}, {"Gestore": "UBO.VAS. SNC DI MAURO UBOLDI & C.", "Bandiera": "Pompe Bianche", "Tipo impianto": "Altro", "Indirizzo": "corso della vittoria 919 21042", "Nome impianto": "Stazione Carburanti MORO", "Comune": "CARONNO PERTUSELLA", "idImpianto": 45857, "points": [{"type": "Feature", "properties": {}, "geometry": {"type": "Point", "coordinates": [9.040553000123, 45.604790000123]}}], "price": 1.999, "ultima_rilevazione": "03/06/2022 16:26:04"}, {"Gestore": "MCR S.N.C. DI MARTELLA FRANCESCO E C.", "Bandiera": "Q8", "Tipo impianto": "Altro", "Indirizzo": "VIA ANTONIO PARMA 3-5 21047", "Nome impianto": "area servizio q8", "Comune": "SARONNO", "idImpianto": 20637, "points": [{"type": "Feature", "properties": {}, "geometry": {"type": "Point", "coordinates": [9.031153321266174, 45.61241187080537]}}], "price": 1.999, "ultima_rilevazione": "04/06/2022 10:51:46"}, {"Gestore": "AUTORIPARAZIONI RIZZI DI RINALDO RIZZI E C. - S.N.C.", "Bandiera": "OIL ONE", "Tipo impianto": "Altro", "Indirizzo": "VIA GUGLIEIMO MARCONI 32/34/36 20010", "Nome impianto": "Oil One", "Comune": "PREGNANA MILANESE", "idImpianto": 19095, "points": [{"type": "Feature", "properties": {}, "geometry": {"type": "Point", "coordinates": [9.006143106056697, 45.515219533472575]}}], "price": 1.988, "ultima_rilevazione": "04/06/2022 12:09:21"}, {"Gestore": "AUTOSERVICE SARONNO SNC DI ABDELAZIZ E C.", "Bandiera": "Api-Ip", "Tipo impianto": "Altro", "Indirizzo": "VIALE LOMBARDIA 20 21047", "Nome impianto": "IP", "Comune": "SARONNO", "idImpianto": 48575, "points": [{"type": "Feature", "properties": {}, "geometry": {"type": "Point", "coordinates": [9.038802629753595, 45.61398057974159]}}], "price": 2.114, "ultima_rilevazione": "04/06/2022 21:34:42"}, {"Gestore": "G.PETROLI S.A.S. DI GABANELLI LIVIO & C.", "Bandiera": "Pompe Bianche", "Tipo impianto": "Altro", "Indirizzo": "VIA Lampedusa 49 21042", "Nome impianto": "G.  Gabanelli", "Comune": "CARONNO PERTUSELLA", "idImpianto": 39660, "points": [{"type": "Feature", "properties": {}, "geometry": {"type": "Point", "coordinates": [9.05009038746357, 45.59071153491578]}}], "price": 1.969, "ultima_rilevazione": "06/06/2022 06:34:06"}, {"Gestore": "ARBOLINO DI ARBOLINO TIZIANA E C. SAS", "Bandiera": "Esso", "Tipo impianto": "Altro", "Indirizzo": "VIA PELORITANA 0056 20024", "Nome impianto": "Esso", "Comune": "GARBAGNATE MILANESE", "idImpianto": 27947, "points": [{"type": "Feature", "properties": {}, "geometry": {"type": "Point", "coordinates": [9.06746388085014, 45.57460538609306]}}], "price": 1.999, "ultima_rilevazione": "06/06/2022 07:11:39"}, {"Gestore": "MIKKA SAS DI CAVALLO STEFANO & C.", "Bandiera": "Api-Ip", "Tipo impianto": "Altro", "Indirizzo": "VIA VARESE 56 20024", "Nome impianto": "TOTALERG", "Comune": "GARBAGNATE MILANESE", "idImpianto": 28768, "points": [{"type": "Feature", "properties": {}, "geometry": {"type": "Point", "coordinates": [9.076316356658936, 45.57581724330161]}}], "price": 2.134, "ultima_rilevazione": "06/06/2022 08:31:04"}, {"Gestore": "IP SERVICES S.R.L.", "Bandiera": "Api-Ip", "Tipo impianto": "Altro", "Indirizzo": "via Lainate ang. via Diaz  20017", "Nome impianto": "Rho via Lainate", "Comune": "RHO", "idImpianto": 36451, "points": [{"type": "Feature", "properties": {}, "geometry": {"type": "Point", "coordinates": [9.036739021539688, 45.53643383759013]}}], "price": 1.949, "ultima_rilevazione": "06/06/2022 12:06:25"}, {"Gestore": "IP SERVICES S.R.L.", "Bandiera": "Api-Ip", "Tipo impianto": "Altro", "Indirizzo": "S.S. 33 SEMPIONE KM. 20,532  20014", "Nome impianto": "NERVIANO - S.S. 33 SEMPIONE", "Comune": "NERVIANO", "idImpianto": 32345, "points": [{"type": "Feature", "properties": {}, "geometry": {"type": "Point", "coordinates": [8.97055842576026, 45.56112159635151]}}], "price": 1.919, "ultima_rilevazione": "06/06/2022 16:01:31"}, {"Gestore": "IPERSTAROIL S.R.L.", "Bandiera": "Tamoil", "Tipo impianto": "Altro", "Indirizzo": "Via Alcide De Gasperi S/P 109  109 20014", "Nome impianto": "TAMOIL NERVIANO", "Comune": "NERVIANO", "idImpianto": 50914, "points": [{"type": "Feature", "properties": {}, "geometry": {"type": "Point", "coordinates": [8.987627501852401, 45.55416161629161]}}], "price": 1.929, "ultima_rilevazione": "06/06/2022 18:08:09"}, {"Gestore": "SERVIZI E GESTIONI ZENIT S.R.L. IN SIGLA - ZENIT S.R.L.", "Bandiera": "Esso", "Tipo impianto": "Altro", "Indirizzo": "VIA DE GASPERI 23 20020", "Nome impianto": "VIA DEGASP.ARESE", "Comune": "ARESE", "idImpianto": 12065, "points": [{"type": "Feature", "properties": {}, "geometry": {"type": "Point", "coordinates": [9.080279892030717, 45.55094687828335]}}], "price": 1.969, "ultima_rilevazione": "06/06/2022 18:10:40"}, {"Gestore": "SERVIZI E GESTIONI ZENIT S.R.L. IN SIGLA - ZENIT S.R.L.", "Bandiera": "Esso", "Tipo impianto": "Altro", "Indirizzo": "VIA GAVINANA 18 20024", "Nome impianto": "V.GAVINANA GARBA", "Comune": "GARBAGNATE MILANESE", "idImpianto": 12063, "points": [{"type": "Feature", "properties": {}, "geometry": {"type": "Point", "coordinates": [9.07853596808809, 45.57874058957802]}}], "price": 1.968, "ultima_rilevazione": "06/06/2022 18:10:40"}, {"Gestore": "ENIL SERVICE DI MYRTAJ KASTRIOT", "Bandiera": "Retitalia", "Tipo impianto": "Altro", "Indirizzo": "CORSO EUROPA 255 20017", "Nome impianto": "RETITALIA", "Comune": "RHO", "idImpianto": 51333, "points": [{"type": "Feature", "properties": {}, "geometry": {"type": "Point", "coordinates": [9.032077557564092, 45.53330877054567]}}], "price": 1.869, "ultima_rilevazione": "06/06/2022 18:33:35"}, {"Gestore": "NUOVA SIDAP  S.R.L.", "Bandiera": "Esso", "Tipo impianto": "Strada Statale", "Indirizzo": "33 del Sempione, Km. 18+92, Nord 20014", "Nome impianto": "Nerviano", "Comune": "NERVIANO", "idImpianto": 43734, "points": [{"type": "Feature", "properties": {}, "geometry": {"type": "Point", "coordinates": [8.993886113166809, 45.548350551694746]}}], "price": 1.972, "ultima_rilevazione": "07/06/2022 06:25:10"}, {"Gestore": "MORGANTI ALESSANDRO", "Bandiera": "Esso", "Tipo impianto": "Altro", "Indirizzo": "VIA VARESE 2 21047", "Nome impianto": "ESSO Morganti", "Comune": "SARONNO", "idImpianto": 17547, "points": [{"type": "Feature", "properties": {}, "geometry": {"type": "Point", "coordinates": [9.035031798147545, 45.61231131468677]}}], "price": 1.996, "ultima_rilevazione": "07/06/2022 06:49:59"}, {"Gestore": "ENI FUEL S.P.A.", "Bandiera": "Agip Eni", "Tipo impianto": "Altro", "Indirizzo": "PAPA GIOVANNI XXIII  20014", "Nome impianto": "2514 \u2013 Nerviano", "Comune": "NERVIANO", "idImpianto": 49790, "points": [{"type": "Feature", "properties": {}, "geometry": {"type": "Point", "coordinates": [8.980694983699001, 45.549712309697576]}}], "price": 1.959, "ultima_rilevazione": "07/06/2022 07:02:07"}, {"Gestore": "SERVIZI & GESTIONI ITALIA S.R.L.", "Bandiera": "Q8", "Tipo impianto": "Altro", "Indirizzo": "VIA GARIBALDI FZ. S MARIA ROSSA 89 20024", "Nome impianto": "GARBAGNATE-VIA GARIBALDI 89 FZ. S MARIA ROSSA", "Comune": "GARBAGNATE MILANESE", "idImpianto": 11689, "points": [{"type": "Feature", "properties": {}, "geometry": {"type": "Point", "coordinates": [9.07466973743442, 45.5674187773307]}}], "price": 1.999, "ultima_rilevazione": "07/06/2022 07:07:14"}, {"Gestore": "SERVIZI & GESTIONI ITALIA S.R.L.", "Bandiera": "Q8", "Tipo impianto": "Altro", "Indirizzo": "VIALE 5 GIORNATE  21042", "Nome impianto": "CARONNO PERTUSELLA - VIALE 5 GIORNATE", "Comune": "CARONNO PERTUSELLA", "idImpianto": 30797, "points": [{"type": "Feature", "properties": {}, "geometry": {"type": "Point", "coordinates": [9.060047826983691, 45.58166503439931]}}], "price": 1.999, "ultima_rilevazione": "07/06/2022 07:07:22"}, {"Gestore": "ESSO SERVICE S.A.S. DI STELLUTI DANIELE & C.", "Bandiera": "Esso", "Tipo impianto": "Altro", "Indirizzo": "Via Giuseppe Garibaldi 132 20024", "Nome impianto": "Esso", "Comune": "GARBAGNATE MILANESE", "idImpianto": 42136, "points": [{"type": "Feature", "properties": {}, "geometry": {"type": "Point", "coordinates": [9.076157453967426, 45.56543979927998]}}], "price": 1.969, "ultima_rilevazione": "07/06/2022 07:42:48"}, {"Gestore": "PETROL STORE S.A.S. DI RE FRASCHINI MARCO E C.", "Bandiera": "Agip Eni", "Tipo impianto": "Strada Statale", "Indirizzo": "233 Varesina, Km. 20+110, Milano 21040", "Nome impianto": "Petrol Store", "Comune": "ORIGGIO", "idImpianto": 44094, "points": [{"type": "Feature", "properties": {}, "geometry": {"type": "Point", "coordinates": [9.027523822090188, 45.60036151957927]}}], "price": 2.004, "ultima_rilevazione": "07/06/2022 07:44:14"}], "5": [{"Gestore": "G.M. AUTO DI MORANDI ROBERTO", "Bandiera": "Api-Ip", "Tipo impianto": "Altro", "Indirizzo": "VIA VARESE 71 21047", "Nome impianto": "TOTALERG", "Comune": "SARONNO", "idImpianto": 46217, "points": [{"type": "Feature", "properties": {}, "geometry": {"type": "Point", "coordinates": [9.017851000123, 45.631449000123]}}], "price": 1.899, "ultima_rilevazione": "26/05/2022 09:50:14"}, {"Gestore": "GALLI MARIO", "Bandiera": "Api-Ip", "Tipo impianto": "Altro", "Indirizzo": "VIA PER CORNAREDO   2 20010", "Nome impianto": "ITALIANA PETROLI DI GALLI MARIO", "Comune": "PREGNANA MILANESE", "idImpianto": 4811, "points": [{"type": "Feature", "properties": {}, "geometry": {"type": "Point", "coordinates": [9.013562875082355, 45.51129001073932]}}], "price": 2.0, "ultima_rilevazione": "01/06/2022 09:55:22"}, {"Gestore": "GUERRA SAVERIO", "Bandiera": "Agip Eni", "Tipo impianto": "Altro", "Indirizzo": "VIA LOMBARDIA  20015", "Nome impianto": "GUERRA SAVERIO IMPIANTO ENI", "Comune": "PARABIAGO", "idImpianto": 10476, "points": [{"type": "Feature", "properties": {}, "geometry": {"type": "Point", "coordinates": [8.956485986709595, 45.54327570741985]}}], "price": 1.959, "ultima_rilevazione": "01/06/2022 11:53:06"}, {"Gestore": "D. & V. S.N.C. DI VALENTI MORGAN E CURRO' STEFANO", "Bandiera": "Agip Eni", "Tipo impianto": "Altro", "Indirizzo": "VIA CRISTOFORO COLOMBO 19 21047", "Nome impianto": "ENI ", "Comune": "SARONNO", "idImpianto": 13898, "points": [{"type": "Feature", "properties": {}, "geometry": {"type": "Point", "coordinates": [9.037899439950593, 45.63058096614678]}}], "price": 1.959, "ultima_rilevazione": "01/06/2022 13:18:16"}, {"Gestore": "SERVIZI & GESTIONI ITALIA S.R.L.", "Bandiera": "Q8", "Tipo impianto": "Altro", "Indirizzo": "FZ. OSPIATE VIA REPUBBLICA 16 20021", "Nome impianto": "BOLLATE-FZ. OSPIATE VIA REPUBBLICA 16", "Comune": "BOLLATE", "idImpianto": 11699, "points": [{"type": "Feature", "properties": {}, "geometry": {"type": "Point", "coordinates": [9.105332186508122, 45.54173005746877]}}], "price": 1.999, "ultima_rilevazione": "02/06/2022 07:10:54"}, {"Gestore": "SUSANI MARCO", "Bandiera": "Esso", "Tipo impianto": "Altro", "Indirizzo": "VIALE GUGLIELMO MARCONI 66, 20015", "Nome impianto": "STAZIONE DI SERVIZIO CARBURANTI ESSO", "Comune": "PARABIAGO", "idImpianto": 17785, "points": [{"type": "Feature", "properties": {}, "geometry": {"type": "Point", "coordinates": [8.953870765698184, 45.56241016951922]}}], "price": 1.979, "ultima_rilevazione": "03/06/2022 09:20:14"}, {"Gestore": "*PREZIOSA MAURIZIO", "Bandiera": "Esso", "Tipo impianto": "Altro", "Indirizzo": "VIA MARCONI ANGOLO VIA SONCINO SNC 21047", "Nome impianto": "Stazione Esso Preziosa Maurizio", "Comune": "SARONNO", "idImpianto": 43372, "points": [{"type": "Feature", "properties": {}, "geometry": {"type": "Point", "coordinates": [9.038958012067724, 45.62395234624892]}}], "price": 1.989, "ultima_rilevazione": "03/06/2022 09:30:46"}, {"Gestore": "CLERICI LUCA", "Bandiera": "Api-Ip", "Tipo impianto": "Strada Statale", "Indirizzo": "527 Bustese, Km. 54,344, castellanza 21040", "Nome impianto": "ip", "Comune": "UBOLDO", "idImpianto": 47558, "points": [{"type": "Feature", "properties": {}, "geometry": {"type": "Point", "coordinates": [8.999279403993663, 45.6137107376401]}}], "price": 1.969, "ultima_rilevazione": "03/06/2022 14:50:49"}, {"Gestore": "SPROCATI STEFANO", "Bandiera": "KEROPETROL", "Tipo impianto": "Altro", "Indirizzo": "via colombo 40 21047", "Nome impianto": "sprocati stefano area di servizio", "Comune": "SARONNO", "idImpianto": 23188, "points": [{"type": "Feature", "properties": {}, "geometry": {"type": "Point", "coordinates": [9.039119076057432, 45.63144806693576]}}], "price": 2.019, "ultima_rilevazione": "04/06/2022 07:53:12"}, {"Gestore": "SERVIZI & GESTIONI ITALIA S.R.L.", "Bandiera": "Q8", "Tipo impianto": "Altro", "Indirizzo": "S.S. BUSTESE VIA VARESE 216 20020", "Nome impianto": "SOLARO-S.S. BUSTESE VIA VARESE 216", "Comune": "SOLARO", "idImpianto": 11665, "points": [{"type": "Feature", "properties": {}, "geometry": {"type": "Point", "coordinates": [9.064423789024318, 45.61763752107878]}}], "price": 1.999, "ultima_rilevazione": "06/06/2022 00:34:15"}, {"Gestore": "SERVIZI & GESTIONI ITALIA S.R.L.", "Bandiera": "Q8", "Tipo impianto": "Altro", "Indirizzo": "VIA VARESE ANGOLO VIA AMENDOLA S/N 21047", "Nome impianto": "SARONNO-VIA VARESE ANGOLO VIA AMENDOLA", "Comune": "SARONNO", "idImpianto": 11921, "points": [{"type": "Feature", "properties": {}, "geometry": {"type": "Point", "coordinates": [9.031083906745948, 45.61766623106788]}}], "price": 1.999, "ultima_rilevazione": "06/06/2022 00:34:17"}, {"Gestore": "CARONNI LAURA", "Bandiera": "Api-Ip", "Tipo impianto": "Altro", "Indirizzo": "VIALE DELLA REPUBBLICA 113 20010", "Nome impianto": "IP", "Comune": "CORNAREDO", "idImpianto": 9825, "points": [{"type": "Feature", "properties": {}, "geometry": {"type": "Point", "coordinates": [9.020634635581928, 45.49914899940036]}}], "price": 2.104, "ultima_rilevazione": "06/06/2022 08:02:17"}, {"Gestore": "ENI FUEL S.P.A.", "Bandiera": "Agip Eni", "Tipo impianto": "Altro", "Indirizzo": "Via Marconi 64 20015", "Nome impianto": "2531 PARABIAGO", "Comune": "PARABIAGO", "idImpianto": 5416, "points": [{"type": "Feature", "properties": {}, "geometry": {"type": "Point", "coordinates": [8.953312818784866, 45.5619190150919]}}], "price": 1.939, "ultima_rilevazione": "06/06/2022 09:02:11"}, {"Gestore": "GE.MAR. SRL", "Bandiera": "Q8", "Tipo impianto": "Autostradale", "Indirizzo": "Autostrada A4 TORINO-MILANO, Km. 119.25, dir. Est ", "Nome impianto": "RHO SUD", "Comune": "RHO", "idImpianto": 3928, "points": [{"type": "Feature", "properties": {}, "geometry": {"type": "Point", "coordinates": [9.040060937404633, 45.50970194291012]}}], "price": 1.999, "ultima_rilevazione": "06/06/2022 10:11:52"}, {"Gestore": "T.D.M. S.R.L.", "Bandiera": "Tamoil", "Tipo impianto": "Altro", "Indirizzo": "VIA PAPA GIOVANNI XXIII 12 20010", "Nome impianto": "8492", "Comune": "PREGNANA MILANESE", "idImpianto": 48559, "points": [{"type": "Feature", "properties": {}, "geometry": {"type": "Point", "coordinates": [9.006146406686462, 45.513799584179]}}], "price": 2.019, "ultima_rilevazione": "06/06/2022 11:00:05"}, {"Gestore": "T.D.M. S.R.L.", "Bandiera": "Tamoil", "Tipo impianto": "Altro", "Indirizzo": "VIA IV NOVEMBRE 10 21040", "Nome impianto": "8490", "Comune": "UBOLDO", "idImpianto": 44438, "points": [{"type": "Feature", "properties": {}, "geometry": {"type": "Point", "coordinates": [9.0138290000123, 45.619769000123]}}], "price": 1.979, "ultima_rilevazione": "06/06/2022 11:00:22"}, {"Gestore": "CORNAREDO CARBURANTI S.R.L.", "Bandiera": "Repsol", "Tipo impianto": "Altro", "Indirizzo": "VIA SAN SEBASTIANO - FRAZ. VILLASTANZA 56 20015", "Nome impianto": "CORNAREDO CARBURANTI S.R.L. - PARABIAGO", "Comune": "PARABIAGO", "idImpianto": 32343, "points": [{"type": "Feature", "properties": {}, "geometry": {"type": "Point", "coordinates": [8.951702686979843, 45.54109760028135]}}], "price": 2.029, "ultima_rilevazione": "06/06/2022 11:03:45"}, {"Gestore": "IP SERVICES S.R.L.", "Bandiera": "Api-Ip", "Tipo impianto": "Altro", "Indirizzo": "VIA MARCONI 110 20015", "Nome impianto": "PARABIAGO - MARCONI", "Comune": "PARABIAGO", "idImpianto": 32281, "points": [{"type": "Feature", "properties": {}, "geometry": {"type": "Point", "coordinates": [8.955680100641871, 45.56402185134493]}}], "price": 1.929, "ultima_rilevazione": "06/06/2022 12:04:18"}, {"Gestore": "IP SERVICES S.R.L.", "Bandiera": "Api-Ip", "Tipo impianto": "Altro", "Indirizzo": "Via fratelli Bandiera  ", "Nome impianto": "Canegrate", "Comune": "CANEGRATE", "idImpianto": 10086, "points": [{"type": "Feature", "properties": {}, "geometry": {"type": "Point", "coordinates": [8.933268785476685, 45.56434859566271]}}], "price": 1.879, "ultima_rilevazione": "06/06/2022 12:06:03"}, {"Gestore": "IP SERVICES S.R.L.", "Bandiera": "Api-Ip", "Tipo impianto": "Altro", "Indirizzo": "Ex Strada Statale 233  ", "Nome impianto": "Saronno", "Comune": "SARONNO", "idImpianto": 23529, "points": [{"type": "Feature", "properties": {}, "geometry": {"type": "Point", "coordinates": [9.019711017608644, 45.61628089502815]}}], "price": 1.959, "ultima_rilevazione": "06/06/2022 12:06:38"}, {"Gestore": "ET CAR SERVICE DI SAMMARCO EMILIANO", "Bandiera": "Q8", "Tipo impianto": "Altro", "Indirizzo": "VIALE DEI FONTANILI SNC 20017", "Nome impianto": "ET CAR SERVICE DI SAMMARCO EMILIANO", "Comune": "RHO", "idImpianto": 10515, "points": [{"type": "Feature", "properties": {}, "geometry": {"type": "Point", "coordinates": [9.04581935707779, 45.515450649237735]}}], "price": 2.029, "ultima_rilevazione": "06/06/2022 14:33:47"}, {"Gestore": "ET CAR SERVICE DI SAMMARCO EMILIANO", "Bandiera": "Q8", "Tipo impianto": "Altro", "Indirizzo": "VIALE DEI FONTANILI ang. Via Vallassa snc 20017", "Nome impianto": "ET CAR SERVICE SUD", "Comune": "RHO", "idImpianto": 46011, "points": [{"type": "Feature", "properties": {}, "geometry": {"type": "Point", "coordinates": [9.041621482519416, 45.51462320631299]}}], "price": 2.029, "ultima_rilevazione": "06/06/2022 14:34:04"}, {"Gestore": "GALLUCCI SABRINA", "Bandiera": "Tamoil", "Tipo impianto": "Altro", "Indirizzo": "VIA XIV STRADA 10 20020", "Nome impianto": "Tamoil ", "Comune": "CESATE", "idImpianto": 35748, "points": [{"type": "Feature", "properties": {}, "geometry": {"type": "Point", "coordinates": [9.095667153596878, 45.59531739094676]}}], "price": 1.999, "ultima_rilevazione": "07/06/2022 07:52:10"}, {"Gestore": "ZAPPIA SARA", "Bandiera": "Agip Eni", "Tipo impianto": "Altro", "Indirizzo": "VIA PACE 58 20017", "Nome impianto": "STAZIONE DI SERVIZIO ENI", "Comune": "RHO", "idImpianto": 50557, "points": [{"type": "Feature", "properties": {}, "geometry": {"type": "Point", "coordinates": [9.057194292545311, 45.52911650922827]}}], "price": 1.974, "ultima_rilevazione": "06/06/2022 15:41:33"}, {"Gestore": "KEROPETROL S.P.A.", "Bandiera": "KEROPETROL", "Tipo impianto": "Altro", "Indirizzo": "via 4 novembre  21040", "Nome impianto": "KEROPETROL SPA UBOLDO", "Comune": "UBOLDO", "idImpianto": 23842, "points": [{"type": "Feature", "properties": {}, "geometry": {"type": "Point", "coordinates": [8.979483246803284, 45.61317586572184]}}], "price": 1.969, "ultima_rilevazione": "06/06/2022 16:44:44"}, {"Gestore": "KEROPETROL S.P.A.", "Bandiera": "KEROPETROL", "Tipo impianto": "Altro", "Indirizzo": "Via Resegone snc 20015", "Nome impianto": "KEROPETROL SPA PARABIAGO", "Comune": "PARABIAGO", "idImpianto": 48490, "points": [{"type": "Feature", "properties": {}, "geometry": {"type": "Point", "coordinates": [8.943785056471825, 45.569222869311744]}}], "price": 1.979, "ultima_rilevazione": "06/06/2022 17:59:44"}, {"Gestore": "SERVIZI E GESTIONI ZENIT S.R.L. IN SIGLA - ZENIT S.R.L.", "Bandiera": "Giap", "Tipo impianto": "Altro", "Indirizzo": "VIA XXIV MAGGIO  20030", "Nome impianto": "VIA XXIV MAGGIO SENAGO", "Comune": "SENAGO", "idImpianto": 24400, "points": [{"type": "Feature", "properties": {}, "geometry": {"type": "Point", "coordinates": [9.116305728836096, 45.57547650985402]}}], "price": 1.998, "ultima_rilevazione": "06/06/2022 18:10:39"}, {"Gestore": "NUOVA SIDAP  S.R.L.", "Bandiera": "Esso", "Tipo impianto": "Altro", "Indirizzo": "VIA ALCIDE DE GASPERI 1 20017", "Nome impianto": "Rho", "Comune": "RHO", "idImpianto": 43733, "points": [{"type": "Feature", "properties": {}, "geometry": {"type": "Point", "coordinates": [9.061585664749146, 45.52971514886303]}}], "price": 2.012, "ultima_rilevazione": "06/06/2022 20:03:47"}, {"Gestore": "CIRAOLO S.A.S. DI CIRAOLO GIANMATTEO & C.", "Bandiera": "Agip Eni", "Tipo impianto": "Altro", "Indirizzo": "VIA VARESE  35 21047", "Nome impianto": "ENI", "Comune": "SARONNO", "idImpianto": 47221, "points": [{"type": "Feature", "properties": {}, "geometry": {"type": "Point", "coordinates": [9.026269221096436, 45.62484664921547]}}], "price": 1.959, "ultima_rilevazione": "07/06/2022 00:18:11"}, {"Gestore": "ENI FUEL S.P.A.", "Bandiera": "Agip Eni", "Tipo impianto": "Altro", "Indirizzo": "GARIBALDI / BRERA  20010", "Nome impianto": "57560 \u2013 Cornaredo", "Comune": "CORNAREDO", "idImpianto": 49789, "points": [{"type": "Feature", "properties": {}, "geometry": {"type": "Point", "coordinates": [9.026622191118353, 45.49735782137639]}}], "price": 1.979, "ultima_rilevazione": "07/06/2022 07:20:03"}, {"Gestore": "SOMMESE CARBURANTE S.R.L.", "Bandiera": "Sommese Petroli", "Tipo impianto": "Altro", "Indirizzo": "VIALE LOMBARDIA 91 21047", "Nome impianto": "SOMMESE - SARONNO", "Comune": "SARONNO", "idImpianto": 45765, "points": [{"type": "Feature", "properties": {}, "geometry": {"type": "Point", "coordinates": [9.052836298942566, 45.61677197919744]}}], "price": 1.969, "ultima_rilevazione": "07/06/2022 00:20:11"}, {"Gestore": "SERVIZI & GESTIONI ITALIA S.R.L.", "Bandiera": "Q8", "Tipo impianto": "Altro", "Indirizzo": "VIA ROMA 43 20020", "Nome impianto": "CESATE-VIA ROMA 43", "Comune": "CESATE", "idImpianto": 11703, "points": [{"type": "Feature", "properties": {}, "geometry": {"type": "Point", "coordinates": [9.078240991401684, 45.59066381652534]}}], "price": 1.999, "ultima_rilevazione": "07/06/2022 07:07:14"}, {"Gestore": "MOPE S.N.C. DI FUSCALDO G. E PATICELLA F.", "Bandiera": "Agip Eni", "Tipo impianto": "Altro", "Indirizzo": "VIA ROMA ANGOLO VIA MIOLA  21047", "Nome impianto": "ENI 56817 Mope S.n.c.", "Comune": "SARONNO", "idImpianto": 19040, "points": [{"type": "Feature", "properties": {}, "geometry": {"type": "Point", "coordinates": [9.046116239300543, 45.62424442587159]}}], "price": 2.009, "ultima_rilevazione": "07/06/2022 07:33:34"}, {"Gestore": "GALLUCCI SABRINA", "Bandiera": "Tamoil", "Tipo impianto": "Altro", "Indirizzo": "VIA XIV STRADA 10 20020", "Nome impianto": "Tamoil ", "Comune": "CESATE", "idImpianto": 35748, "points": [{"type": "Feature", "properties": {}, "geometry": {"type": "Point", "coordinates": [9.095667153596878, 45.59531739094676]}}], "price": 1.699, "ultima_rilevazione": "07/06/2022 07:52:10"}]}, "Gasolio": {"1": [{"Gestore": "SERVIZI & GESTIONI ITALIA srl", "Bandiera": "Q8", "Tipo impianto": "Altro", "Indirizzo": "S.P. 229 KM 6+682 SNC 20010", "Nome impianto": "POGLIANO MILANESE S.P. 229 KM 6+682", "Comune": "POGLIANO MILANESE", "idImpianto": 6831, "points": [{"type": "Feature", "properties": {}, "geometry": {"type": "Point", "coordinates": [9.010794635581988, 45.53944696670913]}}], "price": 1.869, "ultima_rilevazione": "02/06/2022 01:40:17"}, {"Gestore": "SERVIZI & GESTIONI ITALIA S.R.L.", "Bandiera": "Q8", "Tipo impianto": "Altro", "Indirizzo": "VIA CAPUANA C/O ESSELUNGA CENTRE S/N 20017", "Nome impianto": "RHO -VIA CAPUANA C/O ESSELUNGA CENTRE", "Comune": "RHO", "idImpianto": 11712, "points": [{"type": "Feature", "properties": {}, "geometry": {"type": "Point", "coordinates": [9.021690487861632, 45.53642989217953]}}], "price": 1.869, "ultima_rilevazione": "02/06/2022 01:41:03"}, {"Gestore": "SERVIZI & GESTIONI ITALIA S.R.L.", "Bandiera": "Q8", "Tipo impianto": "Altro", "Indirizzo": "SS. 33 DEL SEMPIONE KM.15+660 S/N 20017", "Nome impianto": "RHO-SS. 33 DEL SEMPIONE KM.15+660", "Comune": "RHO", "idImpianto": 11686, "points": [{"type": "Feature", "properties": {}, "geometry": {"type": "Point", "coordinates": [9.02422338161466, 45.540303757278025]}}], "price": 1.889, "ultima_rilevazione": "02/06/2022 07:11:01"}, {"Gestore": "AUTOSERVICE LOTTO SRL", "Bandiera": "Agip Eni", "Tipo impianto": "Altro", "Indirizzo": "strada provinciale 101 km. 3+500  20020", "Nome impianto": "Autoservice Lotto srl", "Comune": "LAINATE", "idImpianto": 8061, "points": [{"type": "Feature", "properties": {}, "geometry": {"type": "Point", "coordinates": [9.014978259801865, 45.56237402569371]}}], "price": 1.919, "ultima_rilevazione": "03/06/2022 09:15:41"}, {"Gestore": "Nuova Sidap SRL", "Bandiera": "Q8", "Tipo impianto": "Autostradale", "Indirizzo": "Autostrada A8-A9 MILANO-LAGHI, Km. 7+600, dir. Nord 20020", "Nome impianto": "VILLORESI EST", "Comune": "LAINATE", "idImpianto": 3555, "points": [{"type": "Feature", "properties": {}, "geometry": {"type": "Point", "coordinates": [9.039123033065836, 45.55996995230018]}}], "price": 1.979, "ultima_rilevazione": "05/06/2022 09:00:07"}, {"Gestore": "IPER MONTEBELLO S.P.A.", "Bandiera": "Iper Station", "Tipo impianto": "Altro", "Indirizzo": "Via Luraghi sn 20020", "Nome impianto": "Iper Station Arese", "Comune": "ARESE", "idImpianto": 30892, "points": [{"type": "Feature", "properties": {}, "geometry": {"type": "Point", "coordinates": [9.053292274475098, 45.56176087890731]}}], "price": 1.818, "ultima_rilevazione": "06/06/2022 10:33:05"}, {"Gestore": "T.D.M. S.R.L.", "Bandiera": "Tamoil", "Tipo impianto": "Altro", "Indirizzo": "Via Rho  20020", "Nome impianto": "3537", "Comune": "LAINATE", "idImpianto": 35445, "points": [{"type": "Feature", "properties": {}, "geometry": {"type": "Point", "coordinates": [9.029793441295624, 45.55220869339715]}}], "price": 1.909, "ultima_rilevazione": "06/06/2022 11:00:09"}, {"Gestore": "T.D.M. S.R.L.", "Bandiera": "Tamoil", "Tipo impianto": "Altro", "Indirizzo": "VIA VINCI  21040", "Nome impianto": "2196", "Comune": "ORIGGIO", "idImpianto": 45568, "points": [{"type": "Feature", "properties": {}, "geometry": {"type": "Point", "coordinates": [9.022863246508225, 45.5960927503526]}}], "price": 1.899, "ultima_rilevazione": "06/06/2022 11:00:20"}, {"Gestore": "villoresi di vitale gaetano &c. snc", "Bandiera": "Esso", "Tipo impianto": "Autostradale", "Indirizzo": "Autostrada A8-A9 MILANO-LAGHI, Km. 7+600, dir. Sud 20020", "Nome impianto": "VILLORESI OVEST", "Comune": "LAINATE", "idImpianto": 3927, "points": [{"type": "Feature", "properties": {}, "geometry": {"type": "Point", "coordinates": [9.04014393386842, 45.55834880837939]}}], "price": 2.172, "ultima_rilevazione": "06/06/2022 11:56:50"}, {"Gestore": "IP SERVICES S.R.L.", "Bandiera": "Api-Ip", "Tipo impianto": "Altro", "Indirizzo": "VIA LAINATE  20017", "Nome impianto": "RHO - LAINATE", "Comune": "RHO", "idImpianto": 27031, "points": [{"type": "Feature", "properties": {}, "geometry": {"type": "Point", "coordinates": [9.03128583068849, 45.547463865626085]}}], "price": 1.869, "ultima_rilevazione": "06/06/2022 12:02:44"}, {"Gestore": "IP SERVICES S.R.L.", "Bandiera": "Api-Ip", "Tipo impianto": "Strada Statale", "Indirizzo": "Statale 33 del Sempione, Km. 15+580, dir. Nerviano 20017", "Nome impianto": "RHO - SS 33 KM 15+580", "Comune": "RHO", "idImpianto": 23101, "points": [{"type": "Feature", "properties": {}, "geometry": {"type": "Point", "coordinates": [9.02470728836056, 45.54066994198055]}}], "price": 1.869, "ultima_rilevazione": "06/06/2022 12:04:43"}, {"Gestore": "MC SERVIZI S.A.S. DI FERTONANI CHIARA E C.", "Bandiera": "Api-Ip", "Tipo impianto": "Altro", "Indirizzo": "VIA PER PASSIRANA   20020", "Nome impianto": "MC SERVIZI SAS", "Comune": "ARESE", "idImpianto": 37165, "points": [{"type": "Feature", "properties": {}, "geometry": {"type": "Point", "coordinates": [9.052507728338242, 45.55435987700847]}}], "price": 2.009, "ultima_rilevazione": "06/06/2022 13:19:26"}, {"Gestore": "GHULAM PAK DI ANWAR SAEED & C. S.A.S.", "Bandiera": "Esso", "Tipo impianto": "Altro", "Indirizzo": "S.S.33 DEL SEMPIONE, KM.16+030  20017", "Nome impianto": "GHULAM PAK", "Comune": "RHO", "idImpianto": 24279, "points": [{"type": "Feature", "properties": {}, "geometry": {"type": "Point", "coordinates": [9.019233584403992, 45.54109280194033]}}], "price": 1.869, "ultima_rilevazione": "06/06/2022 19:43:04"}, {"Gestore": "SERVIZI & GESTIONI ITALIA S.R.L.", "Bandiera": "Q8", "Tipo impianto": "Altro", "Indirizzo": "VIA GARBAGNATE 58/60 20020", "Nome impianto": "LAINATE-VIA GARBAGNATE 58/60", "Comune": "LAINATE", "idImpianto": 11685, "points": [{"type": "Feature", "properties": {}, "geometry": {"type": "Point", "coordinates": [9.042500000000018, 45.57374541847877]}}], "price": 1.889, "ultima_rilevazione": "07/06/2022 07:07:15"}], "3": [{"Gestore": "FREBAR DI AGNANI CRISTIAN", "Bandiera": "Pompe Bianche", "Tipo impianto": "Altro", "Indirizzo": "via Parma  2H 21047", "Nome impianto": "Frebar di  Agnani Cristian", "Comune": "SARONNO", "idImpianto": 43853, "points": [{"type": "Feature", "properties": {}, "geometry": {"type": "Point", "coordinates": [9.029931209821711, 45.6118111237518]}}], "price": 1.799, "ultima_rilevazione": "30/05/2022 07:05:26"}, {"Gestore": "STEFANO CLAUDIO", "Bandiera": "Agip Eni", "Tipo impianto": "Altro", "Indirizzo": "VIA ITALIA 23 20017", "Nome impianto": "Eni di Stefano Claudio", "Comune": "RHO", "idImpianto": 36375, "points": [{"type": "Feature", "properties": {}, "geometry": {"type": "Point", "coordinates": [9.039467324536872, 45.52622836219744]}}], "price": 1.919, "ultima_rilevazione": "01/06/2022 11:29:31"}, {"Gestore": "GIO & ARI S.N.C. DI GUGLIELMETTI LORENZO & C.", "Bandiera": "Api-Ip", "Tipo impianto": "Altro", "Indirizzo": "via milano 2 20010", "Nome impianto": "gio&ari snc", "Comune": "VANZAGO", "idImpianto": 17510, "points": [{"type": "Feature", "properties": {}, "geometry": {"type": "Point", "coordinates": [8.992369728836024, 45.52500890041976]}}], "price": 1.889, "ultima_rilevazione": "01/06/2022 20:28:08"}, {"Gestore": "SERVIZI & GESTIONI ITALIA S.R.L.", "Bandiera": "Q8", "Tipo impianto": "Altro", "Indirizzo": "SS. 33 SEMPIONE KM.18+600 S/N 20014", "Nome impianto": "NERVIANO-SS. 33 SEMPIONE KM.18+600", "Comune": "NERVIANO", "idImpianto": 11658, "points": [{"type": "Feature", "properties": {}, "geometry": {"type": "Point", "coordinates": [8.989460932540851, 45.55000751325928]}}], "price": 1.869, "ultima_rilevazione": "02/06/2022 01:40:59"}, {"Gestore": "UBO.VAS. SNC DI MAURO UBOLDI & C.", "Bandiera": "Pompe Bianche", "Tipo impianto": "Altro", "Indirizzo": "corso della vittoria 919 21042", "Nome impianto": "Stazione Carburanti MORO", "Comune": "CARONNO PERTUSELLA", "idImpianto": 45857, "points": [{"type": "Feature", "properties": {}, "geometry": {"type": "Point", "coordinates": [9.040553000123, 45.604790000123]}}], "price": 1.899, "ultima_rilevazione": "03/06/2022 16:26:04"}, {"Gestore": "MCR S.N.C. DI MARTELLA FRANCESCO E C.", "Bandiera": "Q8", "Tipo impianto": "Altro", "Indirizzo": "VIA ANTONIO PARMA 3-5 21047", "Nome impianto": "area servizio q8", "Comune": "SARONNO", "idImpianto": 20637, "points": [{"type": "Feature", "properties": {}, "geometry": {"type": "Point", "coordinates": [9.031153321266174, 45.61241187080537]}}], "price": 1.899, "ultima_rilevazione": "04/06/2022 10:51:46"}, {"Gestore": "AUTORIPARAZIONI RIZZI DI RINALDO RIZZI E C. - S.N.C.", "Bandiera": "OIL ONE", "Tipo impianto": "Altro", "Indirizzo": "VIA GUGLIEIMO MARCONI 32/34/36 20010", "Nome impianto": "Oil One", "Comune": "PREGNANA MILANESE", "idImpianto": 19095, "points": [{"type": "Feature", "properties": {}, "geometry": {"type": "Point", "coordinates": [9.006143106056697, 45.515219533472575]}}], "price": 1.939, "ultima_rilevazione": "04/06/2022 12:09:21"}, {"Gestore": "AUTOSERVICE SARONNO SNC DI ABDELAZIZ E C.", "Bandiera": "Api-Ip", "Tipo impianto": "Altro", "Indirizzo": "VIALE LOMBARDIA 20 21047", "Nome impianto": "IP", "Comune": "SARONNO", "idImpianto": 48575, "points": [{"type": "Feature", "properties": {}, "geometry": {"type": "Point", "coordinates": [9.038802629753595, 45.61398057974159]}}], "price": 2.106, "ultima_rilevazione": "04/06/2022 21:34:42"}, {"Gestore": "G.PETROLI S.A.S. DI GABANELLI LIVIO & C.", "Bandiera": "Pompe Bianche", "Tipo impianto": "Altro", "Indirizzo": "VIA Lampedusa 49 21042", "Nome impianto": "G.  Gabanelli", "Comune": "CARONNO PERTUSELLA", "idImpianto": 39660, "points": [{"type": "Feature", "properties": {}, "geometry": {"type": "Point", "coordinates": [9.05009038746357, 45.59071153491578]}}], "price": 1.869, "ultima_rilevazione": "06/06/2022 06:34:06"}, {"Gestore": "ARBOLINO DI ARBOLINO TIZIANA E C. SAS", "Bandiera": "Esso", "Tipo impianto": "Altro", "Indirizzo": "VIA PELORITANA 0056 20024", "Nome impianto": "Esso", "Comune": "GARBAGNATE MILANESE", "idImpianto": 27947, "points": [{"type": "Feature", "properties": {}, "geometry": {"type": "Point", "coordinates": [9.06746388085014, 45.57460538609306]}}], "price": 1.899, "ultima_rilevazione": "06/06/2022 07:11:39"}, {"Gestore": "MIKKA SAS DI CAVALLO STEFANO & C.", "Bandiera": "Api-Ip", "Tipo impianto": "Altro", "Indirizzo": "VIA VARESE 56 20024", "Nome impianto": "TOTALERG", "Comune": "GARBAGNATE MILANESE", "idImpianto": 28768, "points": [{"type": "Feature", "properties": {}, "geometry": {"type": "Point", "coordinates": [9.076316356658936, 45.57581724330161]}}], "price": 2.106, "ultima_rilevazione": "06/06/2022 08:31:04"}, {"Gestore": "IP SERVICES S.R.L.", "Bandiera": "Api-Ip", "Tipo impianto": "Altro", "Indirizzo": "via Lainate ang. via Diaz  20017", "Nome impianto": "Rho via Lainate", "Comune": "RHO", "idImpianto": 36451, "points": [{"type": "Feature", "properties": {}, "geometry": {"type": "Point", "coordinates": [9.036739021539688, 45.53643383759013]}}], "price": 1.869, "ultima_rilevazione": "06/06/2022 12:06:25"}, {"Gestore": "IP SERVICES S.R.L.", "Bandiera": "Api-Ip", "Tipo impianto": "Altro", "Indirizzo": "S.S. 33 SEMPIONE KM. 20,532  20014", "Nome impianto": "NERVIANO - S.S. 33 SEMPIONE", "Comune": "NERVIANO", "idImpianto": 32345, "points": [{"type": "Feature", "properties": {}, "geometry": {"type": "Point", "coordinates": [8.97055842576026, 45.56112159635151]}}], "price": 1.819, "ultima_rilevazione": "06/06/2022 16:01:31"}, {"Gestore": "IPERSTAROIL S.R.L.", "Bandiera": "Tamoil", "Tipo impianto": "Altro", "Indirizzo": "Via Alcide De Gasperi S/P 109  109 20014", "Nome impianto": "TAMOIL NERVIANO", "Comune": "NERVIANO", "idImpianto": 50914, "points": [{"type": "Feature", "properties": {}, "geometry": {"type": "Point", "coordinates": [8.987627501852401, 45.55416161629161]}}], "price": 1.829, "ultima_rilevazione": "06/06/2022 18:08:09"}, {"Gestore": "SERVIZI E GESTIONI ZENIT S.R.L. IN SIGLA - ZENIT S.R.L.", "Bandiera": "Esso", "Tipo impianto": "Altro", "Indirizzo": "VIA DE GASPERI 23 20020", "Nome impianto": "VIA DEGASP.ARESE", "Comune": "ARESE", "idImpianto": 12065, "points": [{"type": "Feature", "properties": {}, "geometry": {"type": "Point", "coordinates": [9.080279892030717, 45.55094687828335]}}], "price": 1.859, "ultima_rilevazione": "06/06/2022 18:10:40"}, {"Gestore": "SERVIZI E GESTIONI ZENIT S.R.L. IN SIGLA - ZENIT S.R.L.", "Bandiera": "Esso", "Tipo impianto": "Altro", "Indirizzo": "VIA GAVINANA 18 20024", "Nome impianto": "V.GAVINANA GARBA", "Comune": "GARBAGNATE MILANESE", "idImpianto": 12063, "points": [{"type": "Feature", "properties": {}, "geometry": {"type": "Point", "coordinates": [9.07853596808809, 45.57874058957802]}}], "price": 1.858, "ultima_rilevazione": "06/06/2022 18:10:40"}, {"Gestore": "ENIL SERVICE DI MYRTAJ KASTRIOT", "Bandiera": "Retitalia", "Tipo impianto": "Altro", "Indirizzo": "CORSO EUROPA 255 20017", "Nome impianto": "RETITALIA", "Comune": "RHO", "idImpianto": 51333, "points": [{"type": "Feature", "properties": {}, "geometry": {"type": "Point", "coordinates": [9.032077557564092, 45.53330877054567]}}], "price": 1.799, "ultima_rilevazione": "06/06/2022 18:33:35"}, {"Gestore": "NUOVA SIDAP  S.R.L.", "Bandiera": "Esso", "Tipo impianto": "Strada Statale", "Indirizzo": "33 del Sempione, Km. 18+92, Nord 20014", "Nome impianto": "Nerviano", "Comune": "NERVIANO", "idImpianto": 43734, "points": [{"type": "Feature", "properties": {}, "geometry": {"type": "Point", "coordinates": [8.993886113166809, 45.548350551694746]}}], "price": 1.902, "ultima_rilevazione": "07/06/2022 06:25:10"}, {"Gestore": "MORGANTI ALESSANDRO", "Bandiera": "Esso", "Tipo impianto": "Altro", "Indirizzo": "VIA VARESE 2 21047", "Nome impianto": "ESSO Morganti", "Comune": "SARONNO", "idImpianto": 17547, "points": [{"type": "Feature", "properties": {}, "geometry": {"type": "Point", "coordinates": [9.035031798147545, 45.61231131468677]}}], "price": 1.916, "ultima_rilevazione": "07/06/2022 06:49:59"}, {"Gestore": "ENI FUEL S.P.A.", "Bandiera": "Agip Eni", "Tipo impianto": "Altro", "Indirizzo": "PAPA GIOVANNI XXIII  20014", "Nome impianto": "2514 \u2013 Nerviano", "Comune": "NERVIANO", "idImpianto": 49790, "points": [{"type": "Feature", "properties": {}, "geometry": {"type": "Point", "coordinates": [8.980694983699001, 45.549712309697576]}}], "price": 1.919, "ultima_rilevazione": "07/06/2022 07:02:07"}, {"Gestore": "SERVIZI & GESTIONI ITALIA S.R.L.", "Bandiera": "Q8", "Tipo impianto": "Altro", "Indirizzo": "VIA GARIBALDI FZ. S MARIA ROSSA 89 20024", "Nome impianto": "GARBAGNATE-VIA GARIBALDI 89 FZ. S MARIA ROSSA", "Comune": "GARBAGNATE MILANESE", "idImpianto": 11689, "points": [{"type": "Feature", "properties": {}, "geometry": {"type": "Point", "coordinates": [9.07466973743442, 45.5674187773307]}}], "price": 1.889, "ultima_rilevazione": "07/06/2022 07:07:14"}, {"Gestore": "SERVIZI & GESTIONI ITALIA S.R.L.", "Bandiera": "Q8", "Tipo impianto": "Altro", "Indirizzo": "VIALE 5 GIORNATE  21042", "Nome impianto": "CARONNO PERTUSELLA - VIALE 5 GIORNATE", "Comune": "CARONNO PERTUSELLA", "idImpianto": 30797, "points": [{"type": "Feature", "properties": {}, "geometry": {"type": "Point", "coordinates": [9.060047826983691, 45.58166503439931]}}], "price": 1.889, "ultima_rilevazione": "07/06/2022 07:07:22"}, {"Gestore": "ESSO SERVICE S.A.S. DI STELLUTI DANIELE & C.", "Bandiera": "Esso", "Tipo impianto": "Altro", "Indirizzo": "Via Giuseppe Garibaldi 132 20024", "Nome impianto": "Esso", "Comune": "GARBAGNATE MILANESE", "idImpianto": 42136, "points": [{"type": "Feature", "properties": {}, "geometry": {"type": "Point", "coordinates": [9.076157453967426, 45.56543979927998]}}], "price": 1.879, "ultima_rilevazione": "07/06/2022 07:42:48"}, {"Gestore": "PETROL STORE S.A.S. DI RE FRASCHINI MARCO E C.", "Bandiera": "Agip Eni", "Tipo impianto": "Strada Statale", "Indirizzo": "233 Varesina, Km. 20+110, Milano 21040", "Nome impianto": "Petrol Store", "Comune": "ORIGGIO", "idImpianto": 44094, "points": [{"type": "Feature", "properties": {}, "geometry": {"type": "Point", "coordinates": [9.027523822090188, 45.60036151957927]}}], "price": 1.944, "ultima_rilevazione": "07/06/2022 07:44:14"}], "5": [{"Gestore": "G.M. AUTO DI MORANDI ROBERTO", "Bandiera": "Api-Ip", "Tipo impianto": "Altro", "Indirizzo": "VIA VARESE 71 21047", "Nome impianto": "TOTALERG", "Comune": "SARONNO", "idImpianto": 46217, "points": [{"type": "Feature", "properties": {}, "geometry": {"type": "Point", "coordinates": [9.017851000123, 45.631449000123]}}], "price": 1.839, "ultima_rilevazione": "26/05/2022 09:50:14"}, {"Gestore": "GALLI MARIO", "Bandiera": "Api-Ip", "Tipo impianto": "Altro", "Indirizzo": "VIA PER CORNAREDO   2 20010", "Nome impianto": "ITALIANA PETROLI DI GALLI MARIO", "Comune": "PREGNANA MILANESE", "idImpianto": 4811, "points": [{"type": "Feature", "properties": {}, "geometry": {"type": "Point", "coordinates": [9.013562875082355, 45.51129001073932]}}], "price": 2.0, "ultima_rilevazione": "01/06/2022 09:55:22"}, {"Gestore": "GUERRA SAVERIO", "Bandiera": "Agip Eni", "Tipo impianto": "Altro", "Indirizzo": "VIA LOMBARDIA  20015", "Nome impianto": "GUERRA SAVERIO IMPIANTO ENI", "Comune": "PARABIAGO", "idImpianto": 10476, "points": [{"type": "Feature", "properties": {}, "geometry": {"type": "Point", "coordinates": [8.956485986709595, 45.54327570741985]}}], "price": 1.919, "ultima_rilevazione": "01/06/2022 11:53:06"}, {"Gestore": "D. & V. S.N.C. DI VALENTI MORGAN E CURRO' STEFANO", "Bandiera": "Agip Eni", "Tipo impianto": "Altro", "Indirizzo": "VIA CRISTOFORO COLOMBO 19 21047", "Nome impianto": "ENI ", "Comune": "SARONNO", "idImpianto": 13898, "points": [{"type": "Feature", "properties": {}, "geometry": {"type": "Point", "coordinates": [9.037899439950593, 45.63058096614678]}}], "price": 1.899, "ultima_rilevazione": "01/06/2022 13:18:16"}, {"Gestore": "SERVIZI & GESTIONI ITALIA S.R.L.", "Bandiera": "Q8", "Tipo impianto": "Altro", "Indirizzo": "FZ. OSPIATE VIA REPUBBLICA 16 20021", "Nome impianto": "BOLLATE-FZ. OSPIATE VIA REPUBBLICA 16", "Comune": "BOLLATE", "idImpianto": 11699, "points": [{"type": "Feature", "properties": {}, "geometry": {"type": "Point", "coordinates": [9.105332186508122, 45.54173005746877]}}], "price": 1.899, "ultima_rilevazione": "02/06/2022 07:10:54"}, {"Gestore": "SUSANI MARCO", "Bandiera": "Esso", "Tipo impianto": "Altro", "Indirizzo": "VIALE GUGLIELMO MARCONI 66, 20015", "Nome impianto": "STAZIONE DI SERVIZIO CARBURANTI ESSO", "Comune": "PARABIAGO", "idImpianto": 17785, "points": [{"type": "Feature", "properties": {}, "geometry": {"type": "Point", "coordinates": [8.953870765698184, 45.56241016951922]}}], "price": 1.899, "ultima_rilevazione": "03/06/2022 09:20:14"}, {"Gestore": "*PREZIOSA MAURIZIO", "Bandiera": "Esso", "Tipo impianto": "Altro", "Indirizzo": "VIA MARCONI ANGOLO VIA SONCINO SNC 21047", "Nome impianto": "Stazione Esso Preziosa Maurizio", "Comune": "SARONNO", "idImpianto": 43372, "points": [{"type": "Feature", "properties": {}, "geometry": {"type": "Point", "coordinates": [9.038958012067724, 45.62395234624892]}}], "price": 1.909, "ultima_rilevazione": "03/06/2022 09:30:46"}, {"Gestore": "CLERICI LUCA", "Bandiera": "Api-Ip", "Tipo impianto": "Strada Statale", "Indirizzo": "527 Bustese, Km. 54,344, castellanza 21040", "Nome impianto": "ip", "Comune": "UBOLDO", "idImpianto": 47558, "points": [{"type": "Feature", "properties": {}, "geometry": {"type": "Point", "coordinates": [8.999279403993663, 45.6137107376401]}}], "price": 1.879, "ultima_rilevazione": "03/06/2022 14:50:49"}, {"Gestore": "SPROCATI STEFANO", "Bandiera": "KEROPETROL", "Tipo impianto": "Altro", "Indirizzo": "via colombo 40 21047", "Nome impianto": "sprocati stefano area di servizio", "Comune": "SARONNO", "idImpianto": 23188, "points": [{"type": "Feature", "properties": {}, "geometry": {"type": "Point", "coordinates": [9.039119076057432, 45.63144806693576]}}], "price": 1.929, "ultima_rilevazione": "04/06/2022 07:53:12"}, {"Gestore": "SERVIZI & GESTIONI ITALIA S.R.L.", "Bandiera": "Q8", "Tipo impianto": "Altro", "Indirizzo": "S.S. BUSTESE VIA VARESE 216 20020", "Nome impianto": "SOLARO-S.S. BUSTESE VIA VARESE 216", "Comune": "SOLARO", "idImpianto": 11665, "points": [{"type": "Feature", "properties": {}, "geometry": {"type": "Point", "coordinates": [9.064423789024318, 45.61763752107878]}}], "price": 1.899, "ultima_rilevazione": "06/06/2022 00:34:15"}, {"Gestore": "SERVIZI & GESTIONI ITALIA S.R.L.", "Bandiera": "Q8", "Tipo impianto": "Altro", "Indirizzo": "VIA VARESE ANGOLO VIA AMENDOLA S/N 21047", "Nome impianto": "SARONNO-VIA VARESE ANGOLO VIA AMENDOLA", "Comune": "SARONNO", "idImpianto": 11921, "points": [{"type": "Feature", "properties": {}, "geometry": {"type": "Point", "coordinates": [9.031083906745948, 45.61766623106788]}}], "price": 1.899, "ultima_rilevazione": "06/06/2022 00:34:17"}, {"Gestore": "CARONNI LAURA", "Bandiera": "Api-Ip", "Tipo impianto": "Altro", "Indirizzo": "VIALE DELLA REPUBBLICA 113 20010", "Nome impianto": "IP", "Comune": "CORNAREDO", "idImpianto": 9825, "points": [{"type": "Feature", "properties": {}, "geometry": {"type": "Point", "coordinates": [9.020634635581928, 45.49914899940036]}}], "price": 2.084, "ultima_rilevazione": "06/06/2022 08:02:17"}, {"Gestore": "ENI FUEL S.P.A.", "Bandiera": "Agip Eni", "Tipo impianto": "Altro", "Indirizzo": "Via Marconi 64 20015", "Nome impianto": "2531 PARABIAGO", "Comune": "PARABIAGO", "idImpianto": 5416, "points": [{"type": "Feature", "properties": {}, "geometry": {"type": "Point", "coordinates": [8.953312818784866, 45.5619190150919]}}], "price": 1.859, "ultima_rilevazione": "06/06/2022 09:02:11"}, {"Gestore": "GE.MAR. SRL", "Bandiera": "Q8", "Tipo impianto": "Autostradale", "Indirizzo": "Autostrada A4 TORINO-MILANO, Km. 119.25, dir. Est ", "Nome impianto": "RHO SUD", "Comune": "RHO", "idImpianto": 3928, "points": [{"type": "Feature", "properties": {}, "geometry": {"type": "Point", "coordinates": [9.040060937404633, 45.50970194291012]}}], "price": 1.949, "ultima_rilevazione": "06/06/2022 10:11:52"}, {"Gestore": "T.D.M. S.R.L.", "Bandiera": "Tamoil", "Tipo impianto": "Altro", "Indirizzo": "VIA PAPA GIOVANNI XXIII 12 20010", "Nome impianto": "8492", "Comune": "PREGNANA MILANESE", "idImpianto": 48559, "points": [{"type": "Feature", "properties": {}, "geometry": {"type": "Point", "coordinates": [9.006146406686462, 45.513799584179]}}], "price": 1.969, "ultima_rilevazione": "06/06/2022 11:00:05"}, {"Gestore": "T.D.M. S.R.L.", "Bandiera": "Tamoil", "Tipo impianto": "Altro", "Indirizzo": "VIA IV NOVEMBRE 10 21040", "Nome impianto": "8490", "Comune": "UBOLDO", "idImpianto": 44438, "points": [{"type": "Feature", "properties": {}, "geometry": {"type": "Point", "coordinates": [9.0138290000123, 45.619769000123]}}], "price": 1.899, "ultima_rilevazione": "06/06/2022 11:00:22"}, {"Gestore": "CORNAREDO CARBURANTI S.R.L.", "Bandiera": "Repsol", "Tipo impianto": "Altro", "Indirizzo": "VIA SAN SEBASTIANO - FRAZ. VILLASTANZA 56 20015", "Nome impianto": "CORNAREDO CARBURANTI S.R.L. - PARABIAGO", "Comune": "PARABIAGO", "idImpianto": 32343, "points": [{"type": "Feature", "properties": {}, "geometry": {"type": "Point", "coordinates": [8.951702686979843, 45.54109760028135]}}], "price": 1.929, "ultima_rilevazione": "06/06/2022 11:03:45"}, {"Gestore": "IP SERVICES S.R.L.", "Bandiera": "Api-Ip", "Tipo impianto": "Altro", "Indirizzo": "VIA MARCONI 110 20015", "Nome impianto": "PARABIAGO - MARCONI", "Comune": "PARABIAGO", "idImpianto": 32281, "points": [{"type": "Feature", "properties": {}, "geometry": {"type": "Point", "coordinates": [8.955680100641871, 45.56402185134493]}}], "price": 1.849, "ultima_rilevazione": "06/06/2022 12:04:18"}, {"Gestore": "IP SERVICES S.R.L.", "Bandiera": "Api-Ip", "Tipo impianto": "Altro", "Indirizzo": "Via fratelli Bandiera  ", "Nome impianto": "Canegrate", "Comune": "CANEGRATE", "idImpianto": 10086, "points": [{"type": "Feature", "properties": {}, "geometry": {"type": "Point", "coordinates": [8.933268785476685, 45.56434859566271]}}], "price": 1.799, "ultima_rilevazione": "06/06/2022 12:06:03"}, {"Gestore": "IP SERVICES S.R.L.", "Bandiera": "Api-Ip", "Tipo impianto": "Altro", "Indirizzo": "Ex Strada Statale 233  ", "Nome impianto": "Saronno", "Comune": "SARONNO", "idImpianto": 23529, "points": [{"type": "Feature", "properties": {}, "geometry": {"type": "Point", "coordinates": [9.019711017608644, 45.61628089502815]}}], "price": 1.859, "ultima_rilevazione": "06/06/2022 12:06:38"}, {"Gestore": "ET CAR SERVICE DI SAMMARCO EMILIANO", "Bandiera": "Q8", "Tipo impianto": "Altro", "Indirizzo": "VIALE DEI FONTANILI SNC 20017", "Nome impianto": "ET CAR SERVICE DI SAMMARCO EMILIANO", "Comune": "RHO", "idImpianto": 10515, "points": [{"type": "Feature", "properties": {}, "geometry": {"type": "Point", "coordinates": [9.04581935707779, 45.515450649237735]}}], "price": 1.949, "ultima_rilevazione": "06/06/2022 14:33:47"}, {"Gestore": "ET CAR SERVICE DI SAMMARCO EMILIANO", "Bandiera": "Q8", "Tipo impianto": "Altro", "Indirizzo": "VIALE DEI FONTANILI ang. Via Vallassa snc 20017", "Nome impianto": "ET CAR SERVICE SUD", "Comune": "RHO", "idImpianto": 46011, "points": [{"type": "Feature", "properties": {}, "geometry": {"type": "Point", "coordinates": [9.041621482519416, 45.51462320631299]}}], "price": 1.949, "ultima_rilevazione": "06/06/2022 14:34:04"}, {"Gestore": "GALLUCCI SABRINA", "Bandiera": "Tamoil", "Tipo impianto": "Altro", "Indirizzo": "VIA XIV STRADA 10 20020", "Nome impianto": "Tamoil ", "Comune": "CESATE", "idImpianto": 35748, "points": [{"type": "Feature", "properties": {}, "geometry": {"type": "Point", "coordinates": [9.095667153596878, 45.59531739094676]}}], "price": 1.909, "ultima_rilevazione": "07/06/2022 07:52:10"}, {"Gestore": "ZAPPIA SARA", "Bandiera": "Agip Eni", "Tipo impianto": "Altro", "Indirizzo": "VIA PACE 58 20017", "Nome impianto": "STAZIONE DI SERVIZIO ENI", "Comune": "RHO", "idImpianto": 50557, "points": [{"type": "Feature", "properties": {}, "geometry": {"type": "Point", "coordinates": [9.057194292545311, 45.52911650922827]}}], "price": 1.914, "ultima_rilevazione": "06/06/2022 15:41:33"}, {"Gestore": "KEROPETROL S.P.A.", "Bandiera": "KEROPETROL", "Tipo impianto": "Altro", "Indirizzo": "via 4 novembre  21040", "Nome impianto": "KEROPETROL SPA UBOLDO", "Comune": "UBOLDO", "idImpianto": 23842, "points": [{"type": "Feature", "properties": {}, "geometry": {"type": "Point", "coordinates": [8.979483246803284, 45.61317586572184]}}], "price": 1.889, "ultima_rilevazione": "06/06/2022 16:44:44"}, {"Gestore": "KEROPETROL S.P.A.", "Bandiera": "KEROPETROL", "Tipo impianto": "Altro", "Indirizzo": "Via Resegone snc 20015", "Nome impianto": "KEROPETROL SPA PARABIAGO", "Comune": "PARABIAGO", "idImpianto": 48490, "points": [{"type": "Feature", "properties": {}, "geometry": {"type": "Point", "coordinates": [8.943785056471825, 45.569222869311744]}}], "price": 1.879, "ultima_rilevazione": "06/06/2022 17:59:44"}, {"Gestore": "SERVIZI E GESTIONI ZENIT S.R.L. IN SIGLA - ZENIT S.R.L.", "Bandiera": "Giap", "Tipo impianto": "Altro", "Indirizzo": "VIA XXIV MAGGIO  20030", "Nome impianto": "VIA XXIV MAGGIO SENAGO", "Comune": "SENAGO", "idImpianto": 24400, "points": [{"type": "Feature", "properties": {}, "geometry": {"type": "Point", "coordinates": [9.116305728836096, 45.57547650985402]}}], "price": 1.888, "ultima_rilevazione": "06/06/2022 18:10:39"}, {"Gestore": "NUOVA SIDAP  S.R.L.", "Bandiera": "Esso", "Tipo impianto": "Altro", "Indirizzo": "VIA ALCIDE DE GASPERI 1 20017", "Nome impianto": "Rho", "Comune": "RHO", "idImpianto": 43733, "points": [{"type": "Feature", "properties": {}, "geometry": {"type": "Point", "coordinates": [9.061585664749146, 45.52971514886303]}}], "price": 1.922, "ultima_rilevazione": "06/06/2022 20:03:47"}, {"Gestore": "CIRAOLO S.A.S. DI CIRAOLO GIANMATTEO & C.", "Bandiera": "Agip Eni", "Tipo impianto": "Altro", "Indirizzo": "VIA VARESE  35 21047", "Nome impianto": "ENI", "Comune": "SARONNO", "idImpianto": 47221, "points": [{"type": "Feature", "properties": {}, "geometry": {"type": "Point", "coordinates": [9.026269221096436, 45.62484664921547]}}], "price": 1.899, "ultima_rilevazione": "07/06/2022 00:18:11"}, {"Gestore": "ENI FUEL S.P.A.", "Bandiera": "Agip Eni", "Tipo impianto": "Altro", "Indirizzo": "GARIBALDI / BRERA  20010", "Nome impianto": "57560 \u2013 Cornaredo", "Comune": "CORNAREDO", "idImpianto": 49789, "points": [{"type": "Feature", "properties": {}, "geometry": {"type": "Point", "coordinates": [9.026622191118353, 45.49735782137639]}}], "price": 1.899, "ultima_rilevazione": "07/06/2022 07:20:03"}, {"Gestore": "SOMMESE CARBURANTE S.R.L.", "Bandiera": "Sommese Petroli", "Tipo impianto": "Altro", "Indirizzo": "VIALE LOMBARDIA 91 21047", "Nome impianto": "SOMMESE - SARONNO", "Comune": "SARONNO", "idImpianto": 45765, "points": [{"type": "Feature", "properties": {}, "geometry": {"type": "Point", "coordinates": [9.052836298942566, 45.61677197919744]}}], "price": 1.859, "ultima_rilevazione": "07/06/2022 00:20:11"}, {"Gestore": "SERVIZI & GESTIONI ITALIA S.R.L.", "Bandiera": "Q8", "Tipo impianto": "Altro", "Indirizzo": "VIA ROMA 43 20020", "Nome impianto": "CESATE-VIA ROMA 43", "Comune": "CESATE", "idImpianto": 11703, "points": [{"type": "Feature", "properties": {}, "geometry": {"type": "Point", "coordinates": [9.078240991401684, 45.59066381652534]}}], "price": 1.889, "ultima_rilevazione": "07/06/2022 07:07:14"}, {"Gestore": "MOPE S.N.C. DI FUSCALDO G. E PATICELLA F.", "Bandiera": "Agip Eni", "Tipo impianto": "Altro", "Indirizzo": "VIA ROMA ANGOLO VIA MIOLA  21047", "Nome impianto": "ENI 56817 Mope S.n.c.", "Comune": "SARONNO", "idImpianto": 19040, "points": [{"type": "Feature", "properties": {}, "geometry": {"type": "Point", "coordinates": [9.046116239300543, 45.62424442587159]}}], "price": 1.949, "ultima_rilevazione": "07/06/2022 07:33:34"}]}, "Metano": {"1": [{"Gestore": "IPER MONTEBELLO S.P.A.", "Bandiera": "Iper Station", "Tipo impianto": "Altro", "Indirizzo": "Via Luraghi sn 20020", "Nome impianto": "Iper Station Arese", "Comune": "ARESE", "idImpianto": 30892, "points": [{"type": "Feature", "properties": {}, "geometry": {"type": "Point", "coordinates": [9.053292274475098, 45.56176087890731]}}], "price": 1.999, "ultima_rilevazione": "06/06/2022 10:33:05"}, {"Gestore": "villoresi di vitale gaetano &c. snc", "Bandiera": "Esso", "Tipo impianto": "Autostradale", "Indirizzo": "Autostrada A8-A9 MILANO-LAGHI, Km. 7+600, dir. Sud 20020", "Nome impianto": "VILLORESI OVEST", "Comune": "LAINATE", "idImpianto": 3927, "points": [{"type": "Feature", "properties": {}, "geometry": {"type": "Point", "coordinates": [9.04014393386842, 45.55834880837939]}}], "price": 2.88, "ultima_rilevazione": "06/06/2022 11:56:50"}, {"Gestore": "GHULAM PAK DI ANWAR SAEED & C. S.A.S.", "Bandiera": "Esso", "Tipo impianto": "Altro", "Indirizzo": "S.S.33 DEL SEMPIONE, KM.16+030  20017", "Nome impianto": "GHULAM PAK", "Comune": "RHO", "idImpianto": 24279, "points": [{"type": "Feature", "properties": {}, "geometry": {"type": "Point", "coordinates": [9.019233584403992, 45.54109280194033]}}], "price": 1.543, "ultima_rilevazione": "06/06/2022 19:43:04"}], "3": [{"Gestore": "FREBAR DI AGNANI CRISTIAN", "Bandiera": "Pompe Bianche", "Tipo impianto": "Altro", "Indirizzo": "via Parma  2H 21047", "Nome impianto": "Frebar di  Agnani Cristian", "Comune": "SARONNO", "idImpianto": 43853, "points": [{"type": "Feature", "properties": {}, "geometry": {"type": "Point", "coordinates": [9.029931209821711, 45.6118111237518]}}], "price": 0.01, "ultima_rilevazione": "30/05/2022 07:05:26"}, {"Gestore": "MOTORCLIMA S.R.L.", "Bandiera": "Eco Fuel", "Tipo impianto": "Altro", "Indirizzo": "VIA GRIEG 81 21047", "Nome impianto": "motorclima", "Comune": "SARONNO", "idImpianto": 33505, "points": [{"type": "Feature", "properties": {}, "geometry": {"type": "Point", "coordinates": [9.043757021427156, 45.61205763783735]}}], "price": 1.535, "ultima_rilevazione": "04/06/2022 07:51:44"}, {"Gestore": "C- PETROL S.R.L.", "Bandiera": "Pompe Bianche", "Tipo impianto": "Altro", "Indirizzo": "VIA TRATTATI DI ROMA  20024", "Nome impianto": "EKO POINT", "Comune": "GARBAGNATE MILANESE", "idImpianto": 28454, "points": [{"type": "Feature", "properties": {}, "geometry": {"type": "Point", "coordinates": [9.057772904634476, 45.578883991894855]}}], "price": 1.749, "ultima_rilevazione": "06/06/2022 09:14:26"}], "5": [{"Gestore": "GE.MAR. SRL", "Bandiera": "Q8", "Tipo impianto": "Autostradale", "Indirizzo": "Autostrada A4 TORINO-MILANO, Km. 119.25, dir. Est ", "Nome impianto": "RHO SUD", "Comune": "RHO", "idImpianto": 3928, "points": [{"type": "Feature", "properties": {}, "geometry": {"type": "Point", "coordinates": [9.040060937404633, 45.50970194291012]}}], "price": 1.999, "ultima_rilevazione": "06/06/2022 10:11:52"}, {"Gestore": "ET CAR SERVICE DI SAMMARCO EMILIANO", "Bandiera": "Q8", "Tipo impianto": "Altro", "Indirizzo": "VIALE DEI FONTANILI SNC 20017", "Nome impianto": "ET CAR SERVICE DI SAMMARCO EMILIANO", "Comune": "RHO", "idImpianto": 10515, "points": [{"type": "Feature", "properties": {}, "geometry": {"type": "Point", "coordinates": [9.04581935707779, 45.515450649237735]}}], "price": 1.999, "ultima_rilevazione": "06/06/2022 14:33:47"}, {"Gestore": "KEROPETROL S.P.A.", "Bandiera": "KEROPETROL", "Tipo impianto": "Altro", "Indirizzo": "via 4 novembre  21040", "Nome impianto": "KEROPETROL SPA UBOLDO", "Comune": "UBOLDO", "idImpianto": 23842, "points": [{"type": "Feature", "properties": {}, "geometry": {"type": "Point", "coordinates": [8.979483246803284, 45.61317586572184]}}], "price": 1.799, "ultima_rilevazione": "06/06/2022 16:44:44"}]}, "GPL": {"1": [{"Gestore": "Nuova Sidap SRL", "Bandiera": "Q8", "Tipo impianto": "Autostradale", "Indirizzo": "Autostrada A8-A9 MILANO-LAGHI, Km. 7+600, dir. Nord 20020", "Nome impianto": "VILLORESI EST", "Comune": "LAINATE", "idImpianto": 3555, "points": [{"type": "Feature", "properties": {}, "geometry": {"type": "Point", "coordinates": [9.039123033065836, 45.55996995230018]}}], "price": 0.853, "ultima_rilevazione": "05/06/2022 09:00:07"}, {"Gestore": "OFFICINA MGK DI LONGO GIUSEPPE", "Bandiera": "Agip Eni", "Tipo impianto": "Altro", "Indirizzo": "via Trento 80 20017", "Nome impianto": "Brixia", "Comune": "RHO", "idImpianto": 47000, "points": [{"type": "Feature", "properties": {}, "geometry": {"type": "Point", "coordinates": [9.03206993005938, 45.54899381752294]}}], "price": 0.899, "ultima_rilevazione": "05/06/2022 21:43:44"}, {"Gestore": "villoresi di vitale gaetano &c. snc", "Bandiera": "Esso", "Tipo impianto": "Autostradale", "Indirizzo": "Autostrada A8-A9 MILANO-LAGHI, Km. 7+600, dir. Sud 20020", "Nome impianto": "VILLORESI OVEST", "Comune": "LAINATE", "idImpianto": 3927, "points": [{"type": "Feature", "properties": {}, "geometry": {"type": "Point", "coordinates": [9.04014393386842, 45.55834880837939]}}], "price": 1.129, "ultima_rilevazione": "06/06/2022 11:56:50"}, {"Gestore": "GHULAM PAK DI ANWAR SAEED & C. S.A.S.", "Bandiera": "Esso", "Tipo impianto": "Altro", "Indirizzo": "S.S.33 DEL SEMPIONE, KM.16+030  20017", "Nome impianto": "GHULAM PAK", "Comune": "RHO", "idImpianto": 24279, "points": [{"type": "Feature", "properties": {}, "geometry": {"type": "Point", "coordinates": [9.019233584403992, 45.54109280194033]}}], "price": 0.809, "ultima_rilevazione": "06/06/2022 19:43:04"}], "3": [{"Gestore": "FREBAR DI AGNANI CRISTIAN", "Bandiera": "Pompe Bianche", "Tipo impianto": "Altro", "Indirizzo": "via Parma  2H 21047", "Nome impianto": "Frebar di  Agnani Cristian", "Comune": "SARONNO", "idImpianto": 43853, "points": [{"type": "Feature", "properties": {}, "geometry": {"type": "Point", "coordinates": [9.029931209821711, 45.6118111237518]}}], "price": 0.799, "ultima_rilevazione": "30/05/2022 07:05:26"}, {"Gestore": "GIO & ARI S.N.C. DI GUGLIELMETTI LORENZO & C.", "Bandiera": "Api-Ip", "Tipo impianto": "Altro", "Indirizzo": "via milano 2 20010", "Nome impianto": "gio&ari snc", "Comune": "VANZAGO", "idImpianto": 17510, "points": [{"type": "Feature", "properties": {}, "geometry": {"type": "Point", "coordinates": [8.992369728836024, 45.52500890041976]}}], "price": 0.809, "ultima_rilevazione": "01/06/2022 20:28:08"}, {"Gestore": "G.PETROLI S.A.S. DI GABANELLI LIVIO & C.", "Bandiera": "Pompe Bianche", "Tipo impianto": "Altro", "Indirizzo": "VIA Lampedusa 49 21042", "Nome impianto": "G.  Gabanelli", "Comune": "CARONNO PERTUSELLA", "idImpianto": 39660, "points": [{"type": "Feature", "properties": {}, "geometry": {"type": "Point", "coordinates": [9.05009038746357, 45.59071153491578]}}], "price": 0.799, "ultima_rilevazione": "06/06/2022 06:34:06"}, {"Gestore": "C- PETROL S.R.L.", "Bandiera": "Pompe Bianche", "Tipo impianto": "Altro", "Indirizzo": "VIA TRATTATI DI ROMA  20024", "Nome impianto": "EKO POINT", "Comune": "GARBAGNATE MILANESE", "idImpianto": 28454, "points": [{"type": "Feature", "properties": {}, "geometry": {"type": "Point", "coordinates": [9.057772904634476, 45.578883991894855]}}], "price": 0.799, "ultima_rilevazione": "06/06/2022 09:14:26"}, {"Gestore": "DE CAPRARIS PASQUALE", "Bandiera": "Agip Eni", "Tipo impianto": "Altro", "Indirizzo": "VIA JF KENNEDY  61 20024", "Nome impianto": "DISTRIBUTORE GPL BRIXIA", "Comune": "GARBAGNATE MILANESE", "idImpianto": 47133, "points": [{"type": "Feature", "properties": {}, "geometry": {"type": "Point", "coordinates": [9.070534000123, 45.562744000123]}}], "price": 0.819, "ultima_rilevazione": "06/06/2022 12:52:03"}], "5": [{"Gestore": "GE.MAR. SRL", "Bandiera": "Q8", "Tipo impianto": "Autostradale", "Indirizzo": "Autostrada A4 TORINO-MILANO, Km. 119.25, dir. Est ", "Nome impianto": "RHO SUD", "Comune": "RHO", "idImpianto": 3928, "points": [{"type": "Feature", "properties": {}, "geometry": {"type": "Point", "coordinates": [9.040060937404633, 45.50970194291012]}}], "price": 0.899, "ultima_rilevazione": "06/06/2022 10:11:52"}, {"Gestore": "ET CAR SERVICE DI SAMMARCO EMILIANO", "Bandiera": "Q8", "Tipo impianto": "Altro", "Indirizzo": "VIALE DEI FONTANILI ang. Via Vallassa snc 20017", "Nome impianto": "ET CAR SERVICE SUD", "Comune": "RHO", "idImpianto": 46011, "points": [{"type": "Feature", "properties": {}, "geometry": {"type": "Point", "coordinates": [9.041621482519416, 45.51462320631299]}}], "price": 0.889, "ultima_rilevazione": "06/06/2022 14:34:04"}, {"Gestore": "KEROPETROL S.P.A.", "Bandiera": "KEROPETROL", "Tipo impianto": "Altro", "Indirizzo": "via 4 novembre  21040", "Nome impianto": "KEROPETROL SPA UBOLDO", "Comune": "UBOLDO", "idImpianto": 23842, "points": [{"type": "Feature", "properties": {}, "geometry": {"type": "Point", "coordinates": [8.979483246803284, 45.61317586572184]}}], "price": 0.799, "ultima_rilevazione": "06/06/2022 16:44:44"}, {"Gestore": "KEROPETROL S.P.A.", "Bandiera": "KEROPETROL", "Tipo impianto": "Altro", "Indirizzo": "Via Resegone snc 20015", "Nome impianto": "KEROPETROL SPA PARABIAGO", "Comune": "PARABIAGO", "idImpianto": 48490, "points": [{"type": "Feature", "properties": {}, "geometry": {"type": "Point", "coordinates": [8.943785056471825, 45.569222869311744]}}], "price": 0.799, "ultima_rilevazione": "06/06/2022 17:59:44"}]}, "Blue Diesel": {"1": [{"Gestore": "AUTOSERVICE LOTTO SRL", "Bandiera": "Agip Eni", "Tipo impianto": "Altro", "Indirizzo": "strada provinciale 101 km. 3+500  20020", "Nome impianto": "Autoservice Lotto srl", "Comune": "LAINATE", "idImpianto": 8061, "points": [{"type": "Feature", "properties": {}, "geometry": {"type": "Point", "coordinates": [9.014978259801865, 45.56237402569371]}}], "price": 2.109, "ultima_rilevazione": "03/06/2022 09:15:41"}, {"Gestore": "AUTOSERVICE LOTTO SRL", "Bandiera": "Agip Eni", "Tipo impianto": "Altro", "Indirizzo": "strada provinciale 101 km. 3+500  20020", "Nome impianto": "Autoservice Lotto srl", "Comune": "LAINATE", "idImpianto": 8061, "points": [{"type": "Feature", "properties": {}, "geometry": {"type": "Point", "coordinates": [9.014978259801865, 45.56237402569371]}}], "price": 2.019, "ultima_rilevazione": "03/06/2022 09:15:41"}], "3": [{"Gestore": "PETROL STORE S.A.S. DI RE FRASCHINI MARCO E C.", "Bandiera": "Agip Eni", "Tipo impianto": "Strada Statale", "Indirizzo": "233 Varesina, Km. 20+110, Milano 21040", "Nome impianto": "Petrol Store", "Comune": "ORIGGIO", "idImpianto": 44094, "points": [{"type": "Feature", "properties": {}, "geometry": {"type": "Point", "coordinates": [9.027523822090188, 45.60036151957927]}}], "price": 2.154, "ultima_rilevazione": "07/06/2022 07:44:14"}, {"Gestore": "STEFANO CLAUDIO", "Bandiera": "Agip Eni", "Tipo impianto": "Altro", "Indirizzo": "VIA ITALIA 23 20017", "Nome impianto": "Eni di Stefano Claudio", "Comune": "RHO", "idImpianto": 36375, "points": [{"type": "Feature", "properties": {}, "geometry": {"type": "Point", "coordinates": [9.039467324536872, 45.52622836219744]}}], "price": 2.019, "ultima_rilevazione": "01/06/2022 11:29:31"}, {"Gestore": "ENI FUEL S.P.A.", "Bandiera": "Agip Eni", "Tipo impianto": "Altro", "Indirizzo": "PAPA GIOVANNI XXIII  20014", "Nome impianto": "2514 \u2013 Nerviano", "Comune": "NERVIANO", "idImpianto": 49790, "points": [{"type": "Feature", "properties": {}, "geometry": {"type": "Point", "coordinates": [8.980694983699001, 45.549712309697576]}}], "price": 2.019, "ultima_rilevazione": "07/06/2022 07:02:07"}, {"Gestore": "PETROL STORE S.A.S. DI RE FRASCHINI MARCO E C.", "Bandiera": "Agip Eni", "Tipo impianto": "Strada Statale", "Indirizzo": "233 Varesina, Km. 20+110, Milano 21040", "Nome impianto": "Petrol Store", "Comune": "ORIGGIO", "idImpianto": 44094, "points": [{"type": "Feature", "properties": {}, "geometry": {"type": "Point", "coordinates": [9.027523822090188, 45.60036151957927]}}], "price": 2.044, "ultima_rilevazione": "07/06/2022 07:44:14"}], "5": [{"Gestore": "GUERRA SAVERIO", "Bandiera": "Agip Eni", "Tipo impianto": "Altro", "Indirizzo": "VIA LOMBARDIA  20015", "Nome impianto": "GUERRA SAVERIO IMPIANTO ENI", "Comune": "PARABIAGO", "idImpianto": 10476, "points": [{"type": "Feature", "properties": {}, "geometry": {"type": "Point", "coordinates": [8.956485986709595, 45.54327570741985]}}], "price": 2.109, "ultima_rilevazione": "01/06/2022 11:53:06"}, {"Gestore": "CIRAOLO S.A.S. DI CIRAOLO GIANMATTEO & C.", "Bandiera": "Agip Eni", "Tipo impianto": "Altro", "Indirizzo": "VIA VARESE  35 21047", "Nome impianto": "ENI", "Comune": "SARONNO", "idImpianto": 47221, "points": [{"type": "Feature", "properties": {}, "geometry": {"type": "Point", "coordinates": [9.026269221096436, 45.62484664921547]}}], "price": 2.109, "ultima_rilevazione": "07/06/2022 00:18:11"}, {"Gestore": "ENI FUEL S.P.A.", "Bandiera": "Agip Eni", "Tipo impianto": "Altro", "Indirizzo": "GARIBALDI / BRERA  20010", "Nome impianto": "57560 \u2013 Cornaredo", "Comune": "CORNAREDO", "idImpianto": 49789, "points": [{"type": "Feature", "properties": {}, "geometry": {"type": "Point", "coordinates": [9.026622191118353, 45.49735782137639]}}], "price": 2.129, "ultima_rilevazione": "07/06/2022 07:20:03"}, {"Gestore": "GUERRA SAVERIO", "Bandiera": "Agip Eni", "Tipo impianto": "Altro", "Indirizzo": "VIA LOMBARDIA  20015", "Nome impianto": "GUERRA SAVERIO IMPIANTO ENI", "Comune": "PARABIAGO", "idImpianto": 10476, "points": [{"type": "Feature", "properties": {}, "geometry": {"type": "Point", "coordinates": [8.956485986709595, 45.54327570741985]}}], "price": 2.019, "ultima_rilevazione": "01/06/2022 11:53:06"}, {"Gestore": "D. & V. S.N.C. DI VALENTI MORGAN E CURRO' STEFANO", "Bandiera": "Agip Eni", "Tipo impianto": "Altro", "Indirizzo": "VIA CRISTOFORO COLOMBO 19 21047", "Nome impianto": "ENI ", "Comune": "SARONNO", "idImpianto": 13898, "points": [{"type": "Feature", "properties": {}, "geometry": {"type": "Point", "coordinates": [9.037899439950593, 45.63058096614678]}}], "price": 1.999, "ultima_rilevazione": "01/06/2022 13:18:16"}, {"Gestore": "ENI FUEL S.P.A.", "Bandiera": "Agip Eni", "Tipo impianto": "Altro", "Indirizzo": "Via Marconi 64 20015", "Nome impianto": "2531 PARABIAGO", "Comune": "PARABIAGO", "idImpianto": 5416, "points": [{"type": "Feature", "properties": {}, "geometry": {"type": "Point", "coordinates": [8.953312818784866, 45.5619190150919]}}], "price": 1.959, "ultima_rilevazione": "06/06/2022 09:02:11"}, {"Gestore": "ZAPPIA SARA", "Bandiera": "Agip Eni", "Tipo impianto": "Altro", "Indirizzo": "VIA PACE 58 20017", "Nome impianto": "STAZIONE DI SERVIZIO ENI", "Comune": "RHO", "idImpianto": 50557, "points": [{"type": "Feature", "properties": {}, "geometry": {"type": "Point", "coordinates": [9.057194292545311, 45.52911650922827]}}], "price": 2.014, "ultima_rilevazione": "06/06/2022 15:41:33"}, {"Gestore": "CIRAOLO S.A.S. DI CIRAOLO GIANMATTEO & C.", "Bandiera": "Agip Eni", "Tipo impianto": "Altro", "Indirizzo": "VIA VARESE  35 21047", "Nome impianto": "ENI", "Comune": "SARONNO", "idImpianto": 47221, "points": [{"type": "Feature", "properties": {}, "geometry": {"type": "Point", "coordinates": [9.026269221096436, 45.62484664921547]}}], "price": 1.999, "ultima_rilevazione": "07/06/2022 00:18:11"}, {"Gestore": "ENI FUEL S.P.A.", "Bandiera": "Agip Eni", "Tipo impianto": "Altro", "Indirizzo": "GARIBALDI / BRERA  20010", "Nome impianto": "57560 \u2013 Cornaredo", "Comune": "CORNAREDO", "idImpianto": 49789, "points": [{"type": "Feature", "properties": {}, "geometry": {"type": "Point", "coordinates": [9.026622191118353, 45.49735782137639]}}], "price": 1.999, "ultima_rilevazione": "07/06/2022 07:20:03"}, {"Gestore": "MOPE S.N.C. DI FUSCALDO G. E PATICELLA F.", "Bandiera": "Agip Eni", "Tipo impianto": "Altro", "Indirizzo": "VIA ROMA ANGOLO VIA MIOLA  21047", "Nome impianto": "ENI 56817 Mope S.n.c.", "Comune": "SARONNO", "idImpianto": 19040, "points": [{"type": "Feature", "properties": {}, "geometry": {"type": "Point", "coordinates": [9.046116239300543, 45.62424442587159]}}], "price": 2.049, "ultima_rilevazione": "07/06/2022 07:33:34"}]}, "Diesel High Quality": {"1": [{"Gestore": "SERVIZI & GESTIONI ITALIA S.R.L.", "Bandiera": "Q8", "Tipo impianto": "Altro", "Indirizzo": "SS. 33 DEL SEMPIONE KM.15+660 S/N 20017", "Nome impianto": "RHO-SS. 33 DEL SEMPIONE KM.15+660", "Comune": "RHO", "idImpianto": 11686, "points": [{"type": "Feature", "properties": {}, "geometry": {"type": "Point", "coordinates": [9.02422338161466, 45.540303757278025]}}], "price": 2.189, "ultima_rilevazione": "02/06/2022 07:11:01"}, {"Gestore": "Nuova Sidap SRL", "Bandiera": "Q8", "Tipo impianto": "Autostradale", "Indirizzo": "Autostrada A8-A9 MILANO-LAGHI, Km. 7+600, dir. Nord 20020", "Nome impianto": "VILLORESI EST", "Comune": "LAINATE", "idImpianto": 3555, "points": [{"type": "Feature", "properties": {}, "geometry": {"type": "Point", "coordinates": [9.039123033065836, 45.55996995230018]}}], "price": 2.279, "ultima_rilevazione": "05/06/2022 09:00:07"}, {"Gestore": "SERVIZI & GESTIONI ITALIA S.R.L.", "Bandiera": "Q8", "Tipo impianto": "Altro", "Indirizzo": "VIA GARBAGNATE 58/60 20020", "Nome impianto": "LAINATE-VIA GARBAGNATE 58/60", "Comune": "LAINATE", "idImpianto": 11685, "points": [{"type": "Feature", "properties": {}, "geometry": {"type": "Point", "coordinates": [9.042500000000018, 45.57374541847877]}}], "price": 2.189, "ultima_rilevazione": "07/06/2022 07:07:15"}, {"Gestore": "SERVIZI & GESTIONI ITALIA S.R.L.", "Bandiera": "Q8", "Tipo impianto": "Altro", "Indirizzo": "SS. 33 DEL SEMPIONE KM.15+660 S/N 20017", "Nome impianto": "RHO-SS. 33 DEL SEMPIONE KM.15+660", "Comune": "RHO", "idImpianto": 11686, "points": [{"type": "Feature", "properties": {}, "geometry": {"type": "Point", "coordinates": [9.02422338161466, 45.540303757278025]}}], "price": 2.289, "ultima_rilevazione": "02/06/2022 07:11:01"}, {"Gestore": "Nuova Sidap SRL", "Bandiera": "Q8", "Tipo impianto": "Autostradale", "Indirizzo": "Autostrada A8-A9 MILANO-LAGHI, Km. 7+600, dir. Nord 20020", "Nome impianto": "VILLORESI EST", "Comune": "LAINATE", "idImpianto": 3555, "points": [{"type": "Feature", "properties": {}, "geometry": {"type": "Point", "coordinates": [9.039123033065836, 45.55996995230018]}}], "price": 2.359, "ultima_rilevazione": "05/06/2022 09:00:07"}, {"Gestore": "SERVIZI & GESTIONI ITALIA S.R.L.", "Bandiera": "Q8", "Tipo impianto": "Altro", "Indirizzo": "VIA GARBAGNATE 58/60 20020", "Nome impianto": "LAINATE-VIA GARBAGNATE 58/60", "Comune": "LAINATE", "idImpianto": 11685, "points": [{"type": "Feature", "properties": {}, "geometry": {"type": "Point", "coordinates": [9.042500000000018, 45.57374541847877]}}], "price": 2.299, "ultima_rilevazione": "07/06/2022 07:07:15"}], "3": [{"Gestore": "MCR S.N.C. DI MARTELLA FRANCESCO E C.", "Bandiera": "Q8", "Tipo impianto": "Altro", "Indirizzo": "VIA ANTONIO PARMA 3-5 21047", "Nome impianto": "area servizio q8", "Comune": "SARONNO", "idImpianto": 20637, "points": [{"type": "Feature", "properties": {}, "geometry": {"type": "Point", "coordinates": [9.031153321266174, 45.61241187080537]}}], "price": 2.199, "ultima_rilevazione": "04/06/2022 10:51:46"}, {"Gestore": "SERVIZI & GESTIONI ITALIA S.R.L.", "Bandiera": "Q8", "Tipo impianto": "Altro", "Indirizzo": "VIA GARIBALDI FZ. S MARIA ROSSA 89 20024", "Nome impianto": "GARBAGNATE-VIA GARIBALDI 89 FZ. S MARIA ROSSA", "Comune": "GARBAGNATE MILANESE", "idImpianto": 11689, "points": [{"type": "Feature", "properties": {}, "geometry": {"type": "Point", "coordinates": [9.07466973743442, 45.5674187773307]}}], "price": 2.189, "ultima_rilevazione": "07/06/2022 07:07:14"}, {"Gestore": "SERVIZI & GESTIONI ITALIA S.R.L.", "Bandiera": "Q8", "Tipo impianto": "Altro", "Indirizzo": "VIALE 5 GIORNATE  21042", "Nome impianto": "CARONNO PERTUSELLA - VIALE 5 GIORNATE", "Comune": "CARONNO PERTUSELLA", "idImpianto": 30797, "points": [{"type": "Feature", "properties": {}, "geometry": {"type": "Point", "coordinates": [9.060047826983691, 45.58166503439931]}}], "price": 2.189, "ultima_rilevazione": "07/06/2022 07:07:22"}, {"Gestore": "SERVIZI & GESTIONI ITALIA S.R.L.", "Bandiera": "Q8", "Tipo impianto": "Altro", "Indirizzo": "VIA GARIBALDI FZ. S MARIA ROSSA 89 20024", "Nome impianto": "GARBAGNATE-VIA GARIBALDI 89 FZ. S MARIA ROSSA", "Comune": "GARBAGNATE MILANESE", "idImpianto": 11689, "points": [{"type": "Feature", "properties": {}, "geometry": {"type": "Point", "coordinates": [9.07466973743442, 45.5674187773307]}}], "price": 2.299, "ultima_rilevazione": "07/06/2022 07:07:14"}, {"Gestore": "SERVIZI & GESTIONI ITALIA S.R.L.", "Bandiera": "Q8", "Tipo impianto": "Altro", "Indirizzo": "VIALE 5 GIORNATE  21042", "Nome impianto": "CARONNO PERTUSELLA - VIALE 5 GIORNATE", "Comune": "CARONNO PERTUSELLA", "idImpianto": 30797, "points": [{"type": "Feature", "properties": {}, "geometry": {"type": "Point", "coordinates": [9.060047826983691, 45.58166503439931]}}], "price": 2.299, "ultima_rilevazione": "07/06/2022 07:07:22"}, {"Gestore": "ARBOLINO DI ARBOLINO TIZIANA E C. SAS", "Bandiera": "Esso", "Tipo impianto": "Altro", "Indirizzo": "VIA PELORITANA 0056 20024", "Nome impianto": "Esso", "Comune": "GARBAGNATE MILANESE", "idImpianto": 27947, "points": [{"type": "Feature", "properties": {}, "geometry": {"type": "Point", "coordinates": [9.06746388085014, 45.57460538609306]}}], "price": 2.049, "ultima_rilevazione": "06/06/2022 07:11:39"}, {"Gestore": "NUOVA SIDAP  S.R.L.", "Bandiera": "Esso", "Tipo impianto": "Strada Statale", "Indirizzo": "33 del Sempione, Km. 18+92, Nord 20014", "Nome impianto": "Nerviano", "Comune": "NERVIANO", "idImpianto": 43734, "points": [{"type": "Feature", "properties": {}, "geometry": {"type": "Point", "coordinates": [8.993886113166809, 45.548350551694746]}}], "price": 2.052, "ultima_rilevazione": "07/06/2022 06:25:10"}, {"Gestore": "IP SERVICES S.R.L.", "Bandiera": "Api-Ip", "Tipo impianto": "Altro", "Indirizzo": "via Lainate ang. via Diaz  20017", "Nome impianto": "Rho via Lainate", "Comune": "RHO", "idImpianto": 36451, "points": [{"type": "Feature", "properties": {}, "geometry": {"type": "Point", "coordinates": [9.036739021539688, 45.53643383759013]}}], "price": 1.869, "ultima_rilevazione": "06/06/2022 12:06:25"}], "5": [{"Gestore": "SERVIZI & GESTIONI ITALIA S.R.L.", "Bandiera": "Q8", "Tipo impianto": "Altro", "Indirizzo": "FZ. OSPIATE VIA REPUBBLICA 16 20021", "Nome impianto": "BOLLATE-FZ. OSPIATE VIA REPUBBLICA 16", "Comune": "BOLLATE", "idImpianto": 11699, "points": [{"type": "Feature", "properties": {}, "geometry": {"type": "Point", "coordinates": [9.105332186508122, 45.54173005746877]}}], "price": 2.199, "ultima_rilevazione": "02/06/2022 07:10:54"}, {"Gestore": "SERVIZI & GESTIONI ITALIA S.R.L.", "Bandiera": "Q8", "Tipo impianto": "Altro", "Indirizzo": "VIA VARESE ANGOLO VIA AMENDOLA S/N 21047", "Nome impianto": "SARONNO-VIA VARESE ANGOLO VIA AMENDOLA", "Comune": "SARONNO", "idImpianto": 11921, "points": [{"type": "Feature", "properties": {}, "geometry": {"type": "Point", "coordinates": [9.031083906745948, 45.61766623106788]}}], "price": 2.199, "ultima_rilevazione": "06/06/2022 00:34:17"}, {"Gestore": "GE.MAR. SRL", "Bandiera": "Q8", "Tipo impianto": "Autostradale", "Indirizzo": "Autostrada A4 TORINO-MILANO, Km. 119.25, dir. Est ", "Nome impianto": "RHO SUD", "Comune": "RHO", "idImpianto": 3928, "points": [{"type": "Feature", "properties": {}, "geometry": {"type": "Point", "coordinates": [9.040060937404633, 45.50970194291012]}}], "price": 2.249, "ultima_rilevazione": "06/06/2022 10:11:52"}, {"Gestore": "ET CAR SERVICE DI SAMMARCO EMILIANO", "Bandiera": "Q8", "Tipo impianto": "Altro", "Indirizzo": "VIALE DEI FONTANILI ang. Via Vallassa snc 20017", "Nome impianto": "ET CAR SERVICE SUD", "Comune": "RHO", "idImpianto": 46011, "points": [{"type": "Feature", "properties": {}, "geometry": {"type": "Point", "coordinates": [9.041621482519416, 45.51462320631299]}}], "price": 2.249, "ultima_rilevazione": "06/06/2022 14:34:04"}, {"Gestore": "SERVIZI & GESTIONI ITALIA S.R.L.", "Bandiera": "Q8", "Tipo impianto": "Altro", "Indirizzo": "VIA ROMA 43 20020", "Nome impianto": "CESATE-VIA ROMA 43", "Comune": "CESATE", "idImpianto": 11703, "points": [{"type": "Feature", "properties": {}, "geometry": {"type": "Point", "coordinates": [9.078240991401684, 45.59066381652534]}}], "price": 2.189, "ultima_rilevazione": "07/06/2022 07:07:14"}, {"Gestore": "SERVIZI & GESTIONI ITALIA S.R.L.", "Bandiera": "Q8", "Tipo impianto": "Altro", "Indirizzo": "FZ. OSPIATE VIA REPUBBLICA 16 20021", "Nome impianto": "BOLLATE-FZ. OSPIATE VIA REPUBBLICA 16", "Comune": "BOLLATE", "idImpianto": 11699, "points": [{"type": "Feature", "properties": {}, "geometry": {"type": "Point", "coordinates": [9.105332186508122, 45.54173005746877]}}], "price": 2.299, "ultima_rilevazione": "02/06/2022 07:10:54"}, {"Gestore": "SERVIZI & GESTIONI ITALIA S.R.L.", "Bandiera": "Q8", "Tipo impianto": "Altro", "Indirizzo": "VIA VARESE ANGOLO VIA AMENDOLA S/N 21047", "Nome impianto": "SARONNO-VIA VARESE ANGOLO VIA AMENDOLA", "Comune": "SARONNO", "idImpianto": 11921, "points": [{"type": "Feature", "properties": {}, "geometry": {"type": "Point", "coordinates": [9.031083906745948, 45.61766623106788]}}], "price": 2.299, "ultima_rilevazione": "06/06/2022 00:34:17"}, {"Gestore": "GE.MAR. SRL", "Bandiera": "Q8", "Tipo impianto": "Autostradale", "Indirizzo": "Autostrada A4 TORINO-MILANO, Km. 119.25, dir. Est ", "Nome impianto": "RHO SUD", "Comune": "RHO", "idImpianto": 3928, "points": [{"type": "Feature", "properties": {}, "geometry": {"type": "Point", "coordinates": [9.040060937404633, 45.50970194291012]}}], "price": 2.299, "ultima_rilevazione": "06/06/2022 10:11:52"}, {"Gestore": "ET CAR SERVICE DI SAMMARCO EMILIANO", "Bandiera": "Q8", "Tipo impianto": "Altro", "Indirizzo": "VIALE DEI FONTANILI ang. Via Vallassa snc 20017", "Nome impianto": "ET CAR SERVICE SUD", "Comune": "RHO", "idImpianto": 46011, "points": [{"type": "Feature", "properties": {}, "geometry": {"type": "Point", "coordinates": [9.041621482519416, 45.51462320631299]}}], "price": 2.329, "ultima_rilevazione": "06/06/2022 14:34:04"}, {"Gestore": "SERVIZI & GESTIONI ITALIA S.R.L.", "Bandiera": "Q8", "Tipo impianto": "Altro", "Indirizzo": "VIA ROMA 43 20020", "Nome impianto": "CESATE-VIA ROMA 43", "Comune": "CESATE", "idImpianto": 11703, "points": [{"type": "Feature", "properties": {}, "geometry": {"type": "Point", "coordinates": [9.078240991401684, 45.59066381652534]}}], "price": 2.299, "ultima_rilevazione": "07/06/2022 07:07:14"}, {"Gestore": "SUSANI MARCO", "Bandiera": "Esso", "Tipo impianto": "Altro", "Indirizzo": "VIALE GUGLIELMO MARCONI 66, 20015", "Nome impianto": "STAZIONE DI SERVIZIO CARBURANTI ESSO", "Comune": "PARABIAGO", "idImpianto": 17785, "points": [{"type": "Feature", "properties": {}, "geometry": {"type": "Point", "coordinates": [8.953870765698184, 45.56241016951922]}}], "price": 2.049, "ultima_rilevazione": "03/06/2022 09:20:14"}, {"Gestore": "NUOVA SIDAP  S.R.L.", "Bandiera": "Esso", "Tipo impianto": "Altro", "Indirizzo": "VIA ALCIDE DE GASPERI 1 20017", "Nome impianto": "Rho", "Comune": "RHO", "idImpianto": 43733, "points": [{"type": "Feature", "properties": {}, "geometry": {"type": "Point", "coordinates": [9.061585664749146, 45.52971514886303]}}], "price": 2.072, "ultima_rilevazione": "06/06/2022 20:03:47"}, {"Gestore": "IP SERVICES S.R.L.", "Bandiera": "Api-Ip", "Tipo impianto": "Altro", "Indirizzo": "Via fratelli Bandiera  ", "Nome impianto": "Canegrate", "Comune": "CANEGRATE", "idImpianto": 10086, "points": [{"type": "Feature", "properties": {}, "geometry": {"type": "Point", "coordinates": [8.933268785476685, 45.56434859566271]}}], "price": 1.799, "ultima_rilevazione": "06/06/2022 12:06:03"}]}, "Gasolio High Quality": {"1": [{"Gestore": "villoresi di vitale gaetano &c. snc", "Bandiera": "Esso", "Tipo impianto": "Autostradale", "Indirizzo": "Autostrada A8-A9 MILANO-LAGHI, Km. 7+600, dir. Sud 20020", "Nome impianto": "VILLORESI OVEST", "Comune": "LAINATE", "idImpianto": 3927, "points": [{"type": "Feature", "properties": {}, "geometry": {"type": "Point", "coordinates": [9.04014393386842, 45.55834880837939]}}], "price": 2.322, "ultima_rilevazione": "06/06/2022 11:56:50"}], "3": [{"Gestore": "MORGANTI ALESSANDRO", "Bandiera": "Esso", "Tipo impianto": "Altro", "Indirizzo": "VIA VARESE 2 21047", "Nome impianto": "ESSO Morganti", "Comune": "SARONNO", "idImpianto": 17547, "points": [{"type": "Feature", "properties": {},