{"area_comune": "[{\"type\": \"Feature\", \"properties\": {}, \"geometry\": {\"type\": \"Polygon\", \"coordinates\": [[[9.123085399938729, 45.62071029264378], [9.128226383225387, 45.617683964134045], [9.130352748277517, 45.616637465394895], [9.134286990292829, 45.615732824131115], [9.137412930145292, 45.61459498401961], [9.140242422290545, 45.609311635204435], [9.139063972620201, 45.60231617185225], [9.141922026083678, 45.59872537696557], [9.14415307085037, 45.59889361472529], [9.14676822880475, 45.587780622138716], [9.144874243890701, 45.58370870355409], [9.127959296347624, 45.58454541313577], [9.124427634335808, 45.58444331949225], [9.12172297674605, 45.58418565074899], [9.119299502835217, 45.58418391292401], [9.110199607500634, 45.58608365536474], [9.101510817134601, 45.58834774096747], [9.095589680721355, 45.58793382647131], [9.093355002428979, 45.58885187777634], [9.09331807524987, 45.589779003185434], [9.093782097542563, 45.59104776048505], [9.096780768400311, 45.59077523956915], [9.100567794505352, 45.593607247068604], [9.100869353957412, 45.59688782500646], [9.099866141658374, 45.601668185654965], [9.094640920535538, 45.60455292451041], [9.094362419176358, 45.606470348674165], [9.098546180178465, 45.60851901848665], [9.101135731704314, 45.60821972981145], [9.104351609829443, 45.60703771827092], [9.104928510581448, 45.606938181917634], [9.105365157143737, 45.6072708058866], [9.106030169009392, 45.61268874088239], [9.109394700698871, 45.62088087347106], [9.115883347799583, 45.62056843652162], [9.1156691269853, 45.622233816544004], [9.114798384020121, 45.622783744218346], [9.116701114288528, 45.62484302715952], [9.12295332101255, 45.62197418271873], [9.123085399938729, 45.62071029264378]]]}}]", "comune": "limbiate", "buffer_1": "[{\"type\": \"Feature\", \"properties\": {}, \"geometry\": {\"type\": \"Polygon\", \"coordinates\": [[[9.130844150585117, 45.62793420622626], [9.144079764977313, 45.622284560313624], [9.145090576029801, 45.62180533783408], [9.14603192218644, 45.62126089739488], [9.146895288715159, 45.62065616483109], [9.147672867146074, 45.619996611305], [9.148357625892837, 45.61928820375747], [9.148943373811639, 45.61853735087687], [9.149424816124355, 45.61775084507605], [9.149797602202602, 45.61693580100473], [9.150058364784297, 45.61609959115538], [9.157512937275033, 45.58521250190553], [9.15766259661241, 45.584328328924734], [9.157687110549373, 45.5834380993267], [9.157586245121315, 45.5825505245887], [9.15736099319913, 45.581674289802834], [9.157013564545217, 45.58081796870045], [9.156547363973328, 45.579989939781676], [9.155966957834417, 45.57919830436977], [9.155278029164087, 45.57845080739019], [9.154487321937095, 45.57775476164768], [9.153602574979635, 45.57711697633969], [9.152632446189738, 45.57654369050289], [9.151586427809342, 45.57604051204091], [9.150474753577306, 45.575612362926876], [9.149308298670375, 45.57526343111378], [9.148098473407954, 45.57499712962054], [9.14685711175598, 45.57481606319129], [9.145596355714684, 45.574722002852056], [9.144328536714191, 45.574715868611925], [9.143066055170257, 45.57479772047688], [9.091554795538245, 45.57994008119652], [9.090290114725075, 45.580111937357806], [9.089056373099245, 45.58037204863292], [9.08786602555373, 45.58071778924217], [9.086731089514439, 45.58114566893456], [9.085663023748001, 45.58165136817596], [9.084672612772893, 45.58222978170127], [9.083769858035684, 45.58287506999405], [9.082963876947721, 45.58358071817678], [9.08226281080007, 45.584339601720444], [9.081673742486887, 45.58514405831329], [9.081202624870327, 45.585985965166365], [9.080854220514604, 45.58685682097838], [9.080632053403614, 45.58774783173468], [9.080538373137214, 45.58864999947659], [9.080574131976265, 45.58955421314599], [9.080738974977772, 45.59045134058922], [9.081031243329756, 45.591332320791416], [9.08144799086218, 45.592188255409646], [9.081985013577004, 45.59301049867948], [9.082636891908143, 45.59379074478557], [9.086188401802275, 45.5975898951691], [9.082787338611473, 45.602596547643174], [9.082291317651713, 45.60343246987487], [9.081917450646037, 45.604299143649065], [9.081669526755672, 45.60518779841299], [9.081550061036564, 45.606089440755625], [9.081560268750906, 45.606994945398576], [9.081700052819796, 45.60789514753852], [9.081968004553989, 45.608780935607356], [9.08236141766555, 45.60964334351064], [9.082876315428477, 45.61047364141076], [9.083507490722756, 45.61126342413397], [9.084248558564815, 45.61200469630475], [9.08509202059967, 45.61268995334303], [9.086029340907357, 45.613312257501825], [9.087051032359847, 45.613865308171896], [9.088146752655943, 45.61434350573882], [9.089305409061598, 45.61474200834223], [9.090515270792956, 45.61505678095968], [9.091764087900199, 45.61528463631484], [9.093039215442689, 45.61542326719354], [9.096717545706875, 45.61569098845147], [9.105014430293458, 45.62855518546529], [9.105597805218123, 45.62935146964844], [9.106291064872398, 45.63010314802813], [9.107087352472497, 45.63080278143233], [9.107978790717414, 45.631443445501276], [9.10895655967589, 45.632018799279294], [9.110010984047001, 45.632523148036285], [9.111131628931197, 45.632951499694045], [9.112307403162617, 45.633299614296], [9.113526669176798, 45.63356404602764], [9.114777358321653, 45.63374217736936], [9.116047090464205, 45.63383224504131], [9.117323296701871, 45.63383335748169], [9.118593343955503, 45.63374550368452], [9.11984466020215, 45.633569553308426], [9.121064859099064, 45.63330724805568], [9.122241862756644, 45.63296118440722], [9.12336402143684, 45.632534787886016], [9.124420228984969, 45.632032279104926], [9.125400032846152, 45.63145863193754], [9.130844150585117, 45.62793420622626]]]}}]", "buffer_3": "[{\"type\": \"Feature\", \"properties\": {}, \"geometry\": {\"type\": \"Polygon\", \"coordinates\": [[[9.057562808792973, 45.59871972022987], [9.057030390172342, 45.599952662592266], [9.056285473368703, 45.60261846539831], [9.055925860981851, 45.60532331377582], [9.055955247855957, 45.608039835081186], [9.056373392678985, 45.61074053462287], [9.057176118158784, 45.61339807395105], [9.058355351086647, 45.61598554772319], [9.05989920197247, 45.618476756336584], [9.061792083529564, 45.620846471556135], [9.064014866885081, 45.6230706924301], [9.066545073998075, 45.62512688888066], [9.069357104386162, 45.6269942304768], [9.07242249389797, 45.628653798043686], [9.075710202926114, 45.63008877593567], [9.078448483442198, 45.63103064143397], [9.081636429334173, 45.63597591141493], [9.083385842423086, 45.63836511020862], [9.085465120702578, 45.64062053357987], [9.087853713643785, 45.64271984867932], [9.090528000048497, 45.64464226603673], [9.093461521282912, 45.64636874598434], [9.09662524300992, 45.64788218778587], [9.099987842832705, 45.64916759957021], [9.103516020989257, 45.6502122473596], [9.107174830992768, 45.651005781689705], [9.110928026900524, 45.651540340544365], [9.114738423715858, 45.65181062756476], [9.11856826728683, 45.65181396474296], [9.122379609963167, 45.651550319066544], [9.126134688210882, 45.65102230284499], [9.129796298362988, 45.65023514771458], [9.13332816670473, 45.64919665258485], [9.136695310152993, 45.64791710605332], [9.13986438389063, 45.64640918407275], [9.142804012456654, 45.644687823904775], [9.146367635810153, 45.64238041769183], [9.157418909464711, 45.63766250729272], [9.160451777183972, 45.63622446212595], [9.163276036752677, 45.63459074148998], [9.16586613601778, 45.6327761373207], [9.168198649616269, 45.63079707779144], [9.170252490834676, 45.62867147813602], [9.172009101992172, 45.62641857803431], [9.173452621637537, 45.62405876705169], [9.174570027071384, 45.62161339973143], [9.175351250938588, 45.61910460203005], [9.18279233604055, 45.58821589945112], [9.18324013273019, 45.58556328338437], [9.183312460967723, 45.582892580151004], [9.183008666248256, 45.580229924731434], [9.182331773965933, 45.577601369700794], [9.181288457756459, 45.57503263040964], [9.1798889722475, 45.572548833602156], [9.178147050950681, 45.570174271922006], [9.176079770362822, 45.56793216669259], [9.17370738166481, 45.5658444412737], [9.171053111711311, 45.56393150718945], [9.16814293529123, 45.56221206509437], [9.16500532090469, 45.56070292249805], [9.161670952545705, 45.55941883000371], [9.15817243019867, 45.55837233763587], [9.154543951949817, 45.55757367263696], [9.150820980780633, 45.55703063990487], [9.14703989924773, 45.55674854602617], [9.143237655361972, 45.55673014763208], [9.139451403058201, 45.55697562457191], [9.087956096327906, 45.56211635977902], [9.084163197239242, 45.56263176752889], [9.080463000679234, 45.56341186453737], [9.076892829927361, 45.564448782991334], [9.073488702150517, 45.56573206434231], [9.070284966239178, 45.56724876438056], [9.06731395714474, 45.568983583313766], [9.06460567015904, 45.57091901956275], [9.062187458391556, 45.57303554575001], [9.060083756482745, 45.57531180513449], [9.058315833345022, 45.577724826539885], [9.056901576447496, 45.58025025563661], [9.055855309859464, 45.58286260027038], [9.055187647942283, 45.58553548738512], [9.054905386233054, 45.588241928967335], [9.05501143069909, 45.59095459434231], [9.055504766162576, 45.593646086083325], [9.056380464303972, 45.59628921675165], [9.057562808792973, 45.59871972022987]]]}}]", "buffer_5": "[{\"type\": \"Feature\", \"properties\": {}, \"geometry\": {\"type\": \"Polygon\", \"coordinates\": [[[9.031098698480893, 45.59934694080242], [9.030903734475377, 45.60004349031491], [9.030302355650582, 45.60455143898548], [9.030349273280638, 45.60907898588698], [9.031044168390473, 45.6135803061275], [9.032380160175222, 45.61800982944213], [9.034343869482218, 45.62232270187947], [9.036915548448954, 45.62647524065752], [9.04006927521954, 45.63042537755053], [9.04377321197873, 45.634133086268086], [9.047989923868734, 45.637560789436975], [9.052676755697274, 45.64067374099099], [9.057786262714126, 45.6434403800151], [9.058523172690096, 45.643762077224444], [9.06116675340243, 45.6473744215014], [9.064631380821268, 45.65113410742052], [9.06861191755359, 45.65463365751419], [9.073069012930986, 45.65783839532315], [9.07795857128904, 45.660716560027865], [9.083232188094195, 45.66323962277465], [9.088837629892957, 45.66538257099426], [9.094719353295298, 45.66712415781902], [9.100819057771883, 45.66844711405273], [9.107076266667653, 45.66933832052701], [9.113428930517417, 45.669788939078884], [9.119814046497545, 45.669794500806525], [9.12616828766508, 45.66935495069839], [9.132428635524485, 45.66847464817664], [9.138533009424465, 45.66716232355029], [9.144420886323342, 45.66543099082522], [9.150033904571089, 45.66329781776596], [9.155316445537103, 45.66078395454208], [9.160216187162991, 45.65791432271421], [9.161899105755978, 45.65682447225099], [9.170765360187463, 45.65303884471786], [9.175820863597947, 45.65064147272108], [9.180528330493656, 45.64791793903819], [9.18484516076312, 45.64489292099131], [9.188732312318077, 45.64159382338192], [9.192154654176539, 45.638050528975015], [9.195081283267418, 45.63429512660458], [9.197485802126245, 45.63036161941903], [9.199346555036854, 45.626285615960605], [9.200646820578742, 45.62210400692276], [9.208074411796316, 45.591213696670074], [9.208818770081084, 45.58679250886195], [9.208937294415136, 45.58234131362606], [9.208428972947603, 45.57790367011694], [9.207298925930962, 45.57352299473284], [9.20555834991965, 45.56924213660021], [9.203224402813, 45.56510295899127], [9.20032003107689, 45.561145930741894], [9.196873741023923, 45.5574097316259], [9.192919316551519, 45.5539308754928], [9.188495486227385, 45.550743354792644], [9.183645543068732, 45.54787830989512], [9.178416920782604, 45.545363726362694], [9.17286073061698, 45.54322416306255], [9.167031263314174, 45.541480513701636], [9.160985460957502, 45.54014980404675], [9.15478236375809, 45.5392450267487], [9.148482537039989, 45.538775015332156], [9.14214748384742, 45.53874435854026], [9.135839048717873, 45.53915335584211], [9.084359680558569, 45.54429246752543], [9.078040086032715, 45.54515121287463], [9.071874804385244, 45.5464509803131], [9.06592597219504, 45.54817867264953], [9.060253559622783, 45.550316879255256], [9.054914769153177, 45.55284405037589], [9.049963461328986, 45.555734712970846], [9.04544961313808, 45.55895972597338], [9.041418814428352, 45.562486572472544], [9.037911807388955, 45.566279685951436], [9.034964073750762, 45.57030080737356], [9.032605473926605, 45.57450936959582], [9.030859941834962, 45.57886290530547], [9.029745238632229, 45.5833174744323], [9.029272768022066, 45.58782810677989], [9.029447455219577, 45.592349255451566], [9.030267691027927, 45.59683525652271], [9.031098698480893, 45.59934694080242]]]}}]", "centroid": "[{\"type\": \"Feature\", \"properties\": {}, \"geometry\": {\"type\": \"Point\", \"coordinates\": [9.119775807006945, 45.60105896998444]}}]", "Diesel High Quality": {"1": [{"Gestore": "SERVIZI & GESTIONI ITALIA S.R.L.", "Bandiera": "Q8", "Tipo impianto": "Altro", "Indirizzo": "VIA DEI MILLE 106 20051", "Nome impianto": "LIMBIATE-VIA DEI MILLE 106", "Comune": "LIMBIATE", "idImpianto": 11648, "points": [{"type": "Feature", "properties": {}, "geometry": {"type": "Point", "coordinates": [9.138557492065388, 45.59771501375995]}}], "price": 2.054, "ultima_rilevazione": "25/04/2022 00:33:02"}, {"Gestore": "SERVIZI & GESTIONI ITALIA S.R.L.", "Bandiera": "Q8", "Tipo impianto": "Altro", "Indirizzo": "VIA DEI MILLE 106 20051", "Nome impianto": "LIMBIATE-VIA DEI MILLE 106", "Comune": "LIMBIATE", "idImpianto": 11648, "points": [{"type": "Feature", "properties": {}, "geometry": {"type": "Point", "coordinates": [9.138557492065388, 45.59771501375995]}}], "price": 2.044, "ultima_rilevazione": "25/04/2022 00:33:02"}, {"Gestore": "NUOVA SIDAP  S.R.L.", "Bandiera": "Esso", "Tipo impianto": "Altro", "Indirizzo": "VIA REALI 106 20037", "Nome impianto": "Paderno Dugnano", "Comune": "PADERNO DUGNANO", "idImpianto": 43746, "points": [{"type": "Feature", "properties": {}, "geometry": {"type": "Point", "coordinates": [9.146991968154907, 45.57574929016682]}}], "price": 1.912, "ultima_rilevazione": "27/04/2022 06:33:39"}], "3": [{"Gestore": "SAETTI MARA", "Bandiera": "Q8", "Tipo impianto": "Altro", "Indirizzo": "VIA NAZIONALE DEI GIOVI 26 20811", "Nome impianto": "Q8 di saetti mara", "Comune": "CESANO MADERNO", "idImpianto": 7811, "points": [{"type": "Feature", "properties": {}, "geometry": {"type": "Point", "coordinates": [9.138087630271912, 45.63401191390325]}}], "price": 2.039, "ultima_rilevazione": "22/04/2022 09:26:36"}, {"Gestore": "FABIO AUTOFFICINA DI DI CICCO FABIO", "Bandiera": "Esso", "Tipo impianto": "Altro", "Indirizzo": "VIA SARDEGNA 24 20811", "Nome impianto": "FABIO AUTOFFICINA", "Comune": "CESANO MADERNO", "idImpianto": 12717, "points": [{"type": "Feature", "properties": {}, "geometry": {"type": "Point", "coordinates": [9.1229827355819, 45.6363123611598]}}], "price": 1.909, "ultima_rilevazione": "23/04/2022 08:22:19"}, {"Gestore": "SERVIZI & GESTIONI ITALIA S.R.L.", "Bandiera": "Q8", "Tipo impianto": "Altro", "Indirizzo": "VIA ROMA 43 20020", "Nome impianto": "CESATE-VIA ROMA 43", "Comune": "CESATE", "idImpianto": 11703, "points": [{"type": "Feature", "properties": {}, "geometry": {"type": "Point", "coordinates": [9.078240991401684, 45.59066381652534]}}], "price": 2.069, "ultima_rilevazione": "25/04/2022 00:33:07"}, {"Gestore": "SERVIZI & GESTIONI ITALIA S.R.L.", "Bandiera": "Q8", "Tipo impianto": "Altro", "Indirizzo": "VIA ROMA 43 20020", "Nome impianto": "CESATE-VIA ROMA 43", "Comune": "CESATE", "idImpianto": 11703, "points": [{"type": "Feature", "properties": {}, "geometry": {"type": "Point", "coordinates": [9.078240991401684, 45.59066381652534]}}], "price": 2.099, "ultima_rilevazione": "25/04/2022 00:33:07"}, {"Gestore": "SERVIZI & GESTIONI ITALIA S.R.L.", "Bandiera": "Q8", "Tipo impianto": "Altro", "Indirizzo": "VIA GARIBALDI FZ. S MARIA ROSSA 89 20024", "Nome impianto": "GARBAGNATE-VIA GARIBALDI 89 FZ. S MARIA ROSSA", "Comune": "GARBAGNATE MILANESE", "idImpianto": 11689, "points": [{"type": "Feature", "properties": {}, "geometry": {"type": "Point", "coordinates": [9.07466973743442, 45.5674187773307]}}], "price": 2.069, "ultima_rilevazione": "25/04/2022 00:33:09"}, {"Gestore": "SERVIZI & GESTIONI ITALIA S.R.L.", "Bandiera": "Q8", "Tipo impianto": "Altro", "Indirizzo": "VIA GARIBALDI FZ. S MARIA ROSSA 89 20024", "Nome impianto": "GARBAGNATE-VIA GARIBALDI 89 FZ. S MARIA ROSSA", "Comune": "GARBAGNATE MILANESE", "idImpianto": 11689, "points": [{"type": "Feature", "properties": {}, "geometry": {"type": "Point", "coordinates": [9.07466973743442, 45.5674187773307]}}], "price": 2.099, "ultima_rilevazione": "25/04/2022 00:33:09"}, {"Gestore": "SERVIZI & GESTIONI ITALIA S.R.L.", "Bandiera": "Q8", "Tipo impianto": "Altro", "Indirizzo": "VIALE 5 GIORNATE  21042", "Nome impianto": "CARONNO PERTUSELLA - VIALE 5 GIORNATE", "Comune": "CARONNO PERTUSELLA", "idImpianto": 30797, "points": [{"type": "Feature", "properties": {}, "geometry": {"type": "Point", "coordinates": [9.060047826983691, 45.58166503439931]}}], "price": 2.069, "ultima_rilevazione": "25/04/2022 00:33:20"}, {"Gestore": "SERVIZI & GESTIONI ITALIA S.R.L.", "Bandiera": "Q8", "Tipo impianto": "Altro", "Indirizzo": "VIALE 5 GIORNATE  21042", "Nome impianto": "CARONNO PERTUSELLA - VIALE 5 GIORNATE", "Comune": "CARONNO PERTUSELLA", "idImpianto": 30797, "points": [{"type": "Feature", "properties": {}, "geometry": {"type": "Point", "coordinates": [9.060047826983691, 45.58166503439931]}}], "price": 2.099, "ultima_rilevazione": "25/04/2022 00:33:20"}, {"Gestore": "ARBOLINO DI ARBOLINO TIZIANA E C. SAS", "Bandiera": "Esso", "Tipo impianto": "Altro", "Indirizzo": "VIA PELORITANA 0056 20024", "Nome impianto": "Esso", "Comune": "GARBAGNATE MILANESE", "idImpianto": 27947, "points": [{"type": "Feature", "properties": {}, "geometry": {"type": "Point", "coordinates": [9.06746388085014, 45.57460538609306]}}], "price": 1.919, "ultima_rilevazione": "26/04/2022 07:28:06"}, {"Gestore": "SERVIZI & GESTIONI ITALIA S.R.L.", "Bandiera": "Q8", "Tipo impianto": "Altro", "Indirizzo": "FZ.PALAZZOLO SS/SP 35 KM.6+550 OVEST S/N 20037", "Nome impianto": "PADERNO DUGNANO-FZ.PALAZZOLO SS/SP35KM.6+550 OVEST", "Comune": "PADERNO DUGNANO", "idImpianto": 11678, "points": [{"type": "Feature", "properties": {}, "geometry": {"type": "Point", "coordinates": [9.173264373016307, 45.588769325187954]}}], "price": 2.029, "ultima_rilevazione": "27/04/2022 07:10:18"}, {"Gestore": "SERVIZI & GESTIONI ITALIA S.R.L.", "Bandiera": "Q8", "Tipo impianto": "Altro", "Indirizzo": "FZ.PALAZZOLO SS/SP 35 KM.6+550 OVEST S/N 20037", "Nome impianto": "PADERNO DUGNANO-FZ.PALAZZOLO SS/SP35KM.6+550 OVEST", "Comune": "PADERNO DUGNANO", "idImpianto": 11678, "points": [{"type": "Feature", "properties": {}, "geometry": {"type": "Point", "coordinates": [9.173264373016307, 45.588769325187954]}}], "price": 1.989, "ultima_rilevazione": "27/04/2022 07:10:18"}, {"Gestore": "SERVIZI & GESTIONI ITALIA S.R.L.", "Bandiera": "Q8", "Tipo impianto": "Altro", "Indirizzo": "VIA DON ANGHILERI S/N 20037", "Nome impianto": "PADERNO DUGNANO-VIA DON ANGHILERI", "Comune": "PADERNO DUGNANO", "idImpianto": 11705, "points": [{"type": "Feature", "properties": {}, "geometry": {"type": "Point", "coordinates": [9.164721865081788, 45.583733789381526]}}], "price": 2.049, "ultima_rilevazione": "27/04/2022 07:10:19"}, {"Gestore": "SERVIZI & GESTIONI ITALIA S.R.L.", "Bandiera": "Q8", "Tipo impianto": "Altro", "Indirizzo": "VIA DON ANGHILERI S/N 20037", "Nome impianto": "PADERNO DUGNANO-VIA DON ANGHILERI", "Comune": "PADERNO DUGNANO", "idImpianto": 11705, "points": [{"type": "Feature", "properties": {}, "geometry": {"type": "Point", "coordinates": [9.164721865081788, 45.583733789381526]}}], "price": 2.009, "ultima_rilevazione": "27/04/2022 07:10:19"}], "5": [{"Gestore": "STAZIONE DI SERVIZIO KUWAIT DI MUNARI MAURO", "Bandiera": "Q8", "Tipo impianto": "Altro", "Indirizzo": "via seveso s.n.c. snc 20095", "Nome impianto": "stazione di servizio Q8 di mauro Munari", "Comune": "CUSANO MILANINO", "idImpianto": 50046, "points": [{"type": "Feature", "properties": {}, "geometry": {"type": "Point", "coordinates": [9.172633886337277, 45.555949923215685]}}], "price": 2.139, "ultima_rilevazione": "20/04/2022 07:58:31"}, {"Gestore": "STAZIONE DI SERVIZIO KUWAIT DI MUNARI MAURO", "Bandiera": "Q8", "Tipo impianto": "Altro", "Indirizzo": "via seveso s.n.c. snc 20095", "Nome impianto": "stazione di servizio Q8 di mauro Munari", "Comune": "CUSANO MILANINO", "idImpianto": 50046, "points": [{"type": "Feature", "properties": {}, "geometry": {"type": "Point", "coordinates": [9.172633886337277, 45.555949923215685]}}], "price": 2.149, "ultima_rilevazione": "20/04/2022 07:58:31"}, {"Gestore": "MCR S.N.C. DI MARTELLA FRANCESCO E C.", "Bandiera": "Q8", "Tipo impianto": "Altro", "Indirizzo": "VIA ANTONIO PARMA 3-5 21047", "Nome impianto": "area servizio q8", "Comune": "SARONNO", "idImpianto": 20637, "points": [{"type": "Feature", "properties": {}, "geometry": {"type": "Point", "coordinates": [9.031153321266174, 45.61241187080537]}}], "price": 2.084, "ultima_rilevazione": "22/04/2022 05:42:57"}, {"Gestore": "NUOVA SIDAP  S.R.L.", "Bandiera": "Api-Ip", "Tipo impianto": "Autostradale", "Indirizzo": "A52 TANG.LE NORD DI MILANO, Km. 10,9, Est 20092", "Nome impianto": "CINISELLO B. NORD", "Comune": "CINISELLO BALSAMO", "idImpianto": 43748, "points": [{"type": "Feature", "properties": {}, "geometry": {"type": "Point", "coordinates": [9.19825166463852, 45.57018517883253]}}], "price": 1.864, "ultima_rilevazione": "24/04/2022 10:51:49"}, {"Gestore": "SERVIZI & GESTIONI ITALIA S.R.L.", "Bandiera": "Q8", "Tipo impianto": "Altro", "Indirizzo": "VIA MILANO 165 20033", "Nome impianto": "DESIO-VIA MILANO 165", "Comune": "DESIO", "idImpianto": 11642, "points": [{"type": "Feature", "properties": {}, "geometry": {"type": "Point", "coordinates": [9.20041492757798, 45.61516903593563]}}], "price": 2.129, "ultima_rilevazione": "25/04/2022 00:33:02"}, {"Gestore": "SERVIZI & GESTIONI ITALIA S.R.L.", "Bandiera": "Q8", "Tipo impianto": "Altro", "Indirizzo": "VIA MILANO 165 20033", "Nome impianto": "DESIO-VIA MILANO 165", "Comune": "DESIO", "idImpianto": 11642, "points": [{"type": "Feature", "properties": {}, "geometry": {"type": "Point", "coordinates": [9.20041492757798, 45.61516903593563]}}], "price": 2.059, "ultima_rilevazione": "25/04/2022 00:33:02"}, {"Gestore": "EGI-2GO S.R.L.", "Bandiera": "Esso", "Tipo impianto": "Altro", "Indirizzo": "VIA A. LOCATELLI 10 20834", "Nome impianto": "Nova Milanese", "Comune": "NOVA MILANESE", "idImpianto": 48753, "points": [{"type": "Feature", "properties": {}, "geometry": {"type": "Point", "coordinates": [9.195352999999995, 45.59261673865961]}}], "price": 1.969, "ultima_rilevazione": "26/04/2022 13:37:37"}, {"Gestore": "SERVIZI & GESTIONI ITALIA S.R.L.", "Bandiera": "Q8", "Tipo impianto": "Altro", "Indirizzo": "S.S.35(EX SP 44 MI-MEDA)  20822", "Nome impianto": "SEVESO S.S.35(EX SP 44 MI-MEDA)DIS.Q8", "Comune": "SEVESO", "idImpianto": 32483, "points": [{"type": "Feature", "properties": {}, "geometry": {"type": "Point", "coordinates": [9.157673791050913, 45.64048315913963]}}], "price": 2.049, "ultima_rilevazione": "27/04/2022 07:10:17"}, {"Gestore": "SERVIZI & GESTIONI ITALIA srl", "Bandiera": "Q8", "Tipo impianto": "Altro", "Indirizzo": "S.S.35 DEI GIOVI KM 143+750 SNC 20036", "Nome impianto": "MEDA S.S.35 DEI GIOVI KM 143+750", "Comune": "MEDA", "idImpianto": 6432, "points": [{"type": "Feature", "properties": {}, "geometry": {"type": "Point", "coordinates": [9.14577267050015, 45.6566811525372]}}], "price": 2.049, "ultima_rilevazione": "27/04/2022 07:10:17"}, {"Gestore": "SERVIZI & GESTIONI ITALIA srl", "Bandiera": "Q8", "Tipo impianto": "Altro", "Indirizzo": "S.S.35 DEI GIOVI KM 143+750 SNC 20036", "Nome impianto": "MEDA S.S.35 DEI GIOVI KM 143+750", "Comune": "MEDA", "idImpianto": 6432, "points": [{"type": "Feature", "properties": {}, "geometry": {"type": "Point", "coordinates": [9.14577267050015, 45.6566811525372]}}], "price": 2.009, "ultima_rilevazione": "27/04/2022 07:10:17"}, {"Gestore": "SERVIZI & GESTIONI ITALIA S.R.L.", "Bandiera": "Q8", "Tipo impianto": "Altro", "Indirizzo": "S.PROV. 44  MILANO-MEDA  20032", "Nome impianto": "CORMANO S.PROV. 44  MILANO-MEDA", "Comune": "CORMANO", "idImpianto": 51187, "points": [{"type": "Feature", "properties": {}, "geometry": {"type": "Point", "coordinates": [9.164995610692491, 45.55296297937115]}}], "price": 2.049, "ultima_rilevazione": "27/04/2022 07:10:18"}, {"Gestore": "SERVIZI & GESTIONI ITALIA S.R.L.", "Bandiera": "Q8", "Tipo impianto": "Altro", "Indirizzo": "S.PROV. 44  MILANO-MEDA  20032", "Nome impianto": "CORMANO S.PROV. 44  MILANO-MEDA", "Comune": "CORMANO", "idImpianto": 51187, "points": [{"type": "Feature", "properties": {}, "geometry": {"type": "Point", "coordinates": [9.164995610692491, 45.55296297937115]}}], "price": 2.009, "ultima_rilevazione": "27/04/2022 07:10:18"}, {"Gestore": "SERVIZI & GESTIONI ITALIA S.R.L.", "Bandiera": "Q8", "Tipo impianto": "Altro", "Indirizzo": " VIA C.BATTISTI  20020", "Nome impianto": "COGLIATE VIA C.BATTISTI", "Comune": "COGLIATE", "idImpianto": 33177, "points": [{"type": "Feature", "properties": {}, "geometry": {"type": "Point", "coordinates": [9.079532912897548, 45.64368872008721]}}], "price": 2.089, "ultima_rilevazione": "27/04/2022 07:10:18"}, {"Gestore": "SERVIZI & GESTIONI ITALIA S.R.L.", "Bandiera": "Q8", "Tipo impianto": "Altro", "Indirizzo": "VIA GARBAGNATE 58/60 20020", "Nome impianto": "LAINATE-VIA GARBAGNATE 58/60", "Comune": "LAINATE", "idImpianto": 11685, "points": [{"type": "Feature", "properties": {}, "geometry": {"type": "Point", "coordinates": [9.042500000000018, 45.57374541847877]}}], "price": 2.119, "ultima_rilevazione": "27/04/2022 07:39:32"}, {"Gestore": "SERVIZI & GESTIONI ITALIA S.R.L.", "Bandiera": "Q8", "Tipo impianto": "Altro", "Indirizzo": "VIA GARBAGNATE 58/60 20020", "Nome impianto": "LAINATE-VIA GARBAGNATE 58/60", "Comune": "LAINATE", "idImpianto": 11685, "points": [{"type": "Feature", "properties": {}, "geometry": {"type": "Point", "coordinates": [9.042500000000018, 45.57374541847877]}}], "price": 2.079, "ultima_rilevazione": "27/04/2022 07:39:32"}]}, "Blue Diesel": {"1": [{"Gestore": "CASOLO STEFANO", "Bandiera": "Agip Eni", "Tipo impianto": "Altro", "Indirizzo": "Via risorgimento 70/1 20037", "Nome impianto": "Eni di Casolo Stefano", "Comune": "PADERNO DUGNANO", "idImpianto": 39661, "points": [{"type": "Feature", "properties": {}, "geometry": {"type": "Point", "coordinates": [9.144410267472267, 45.57794022591459]}}], "price": 2.294, "ultima_rilevazione": "26/04/2022 17:55:14"}, {"Gestore": "LOMBARDI STEFANO", "Bandiera": "Agip Eni", "Tipo impianto": "Altro", "Indirizzo": "VIA TOGLIATTI 47 20037", "Nome impianto": "stazione di servizio eni di lombardi stefano", "Comune": "PADERNO DUGNANO", "idImpianto": 44608, "points": [{"type": "Feature", "properties": {}, "geometry": {"type": "Point", "coordinates": [9.15239831590361, 45.57772291146348]}}], "price": 1.924, "ultima_rilevazione": "26/04/2022 08:44:13"}, {"Gestore": "AGOSTINI OLIVIERO E PIERI GIACOMO S.N.C.", "Bandiera": "Agip Eni", "Tipo impianto": "Altro", "Indirizzo": "VIALE DEI MILLE 34 20812", "Nome impianto": "AGOSTINI O E PIERI G", "Comune": "LIMBIATE", "idImpianto": 12872, "points": [{"type": "Feature", "properties": {}, "geometry": {"type": "Point", "coordinates": [9.128793612372649, 45.600501986426245]}}], "price": 1.929, "ultima_rilevazione": "26/04/2022 15:03:04"}], "3": [{"Gestore": "ROSS BENZ DI PONTI ROSSANO", "Bandiera": "Agip Eni", "Tipo impianto": "Altro", "Indirizzo": "CORSO ISONZO 5 20822", "Nome impianto": "ROSSBENZ", "Comune": "SEVESO", "idImpianto": 9678, "points": [{"type": "Feature", "properties": {}, "geometry": {"type": "Point", "coordinates": [9.143085253967229, 45.64273849574598]}}], "price": 1.944, "ultima_rilevazione": "21/04/2022 08:40:03"}, {"Gestore": "F.LLI PANDOLFO S.N.C. DI PANDOLFO LEOPOLDO E GIANNI", "Bandiera": "Agip Eni", "Tipo impianto": "Altro", "Indirizzo": "via roma 50 ", "Nome impianto": "ENI F.LLI PANDOLFO snc", "Comune": "SOLARO", "idImpianto": 18067, "points": [{"type": "Feature", "properties": {}, "geometry": {"type": "Point", "coordinates": [9.092313051223757, 45.61864135275116]}}], "price": 1.949, "ultima_rilevazione": "27/04/2022 06:46:51"}], "5": [{"Gestore": "SCARFONE COSIMO", "Bandiera": "Agip Eni", "Tipo impianto": "Altro", "Indirizzo": "via milano 230 20832", "Nome impianto": "ENI DESIO", "Comune": "DESIO", "idImpianto": 32877, "points": [{"type": "Feature", "properties": {}, "geometry": {"type": "Point", "coordinates": [9.199714064598083, 45.62074583216158]}}], "price": 1.909, "ultima_rilevazione": "19/04/2022 09:48:03"}, {"Gestore": "STAZIONE AGIP DI VETRI PAOLO E C. S.A.S.", "Bandiera": "Agip Eni", "Tipo impianto": "Altro", "Indirizzo": "VIA ANTONIO GRAMSCI 109 20037", "Nome impianto": "staz.agip di vetri paolo ", "Comune": "PADERNO DUGNANO", "idImpianto": 13647, "points": [{"type": "Feature", "properties": {}, "geometry": {"type": "Point", "coordinates": [9.17061626441796, 45.558841461515954]}}], "price": 1.959, "ultima_rilevazione": "21/04/2022 08:02:24"}, {"Gestore": "STAZIONE AGIP DI VETRI PAOLO E C. S.A.S.", "Bandiera": "Agip Eni", "Tipo impianto": "Altro", "Indirizzo": "VIA ANTONIO GRAMSCI 109 20037", "Nome impianto": "staz.agip di vetri paolo ", "Comune": "PADERNO DUGNANO", "idImpianto": 13647, "points": [{"type": "Feature", "properties": {}, "geometry": {"type": "Point", "coordinates": [9.17061626441796, 45.558841461515954]}}], "price": 1.93, "ultima_rilevazione": "21/04/2022 08:02:24"}, {"Gestore": "VASTOLA SIMONE", "Bandiera": "Agip Eni", "Tipo impianto": "Altro", "Indirizzo": "Via Adua angolo via Fantoni  20822", "Nome impianto": "Imp. Eni 2520 di Vastola Simone ", "Comune": "SEVESO", "idImpianto": 51050, "points": [{"type": "Feature", "properties": {}, "geometry": {"type": "Point", "coordinates": [9.143256416357657, 45.647692603352894]}}], "price": 1.929, "ultima_rilevazione": "21/04/2022 14:52:55"}, {"Gestore": "NIGRO SNC DI NIGRO ANTONINO E MAURO", "Bandiera": "Agip Eni", "Tipo impianto": "Altro", "Indirizzo": "VIA F. FILZI 9 20032", "Nome impianto": "NIGRO SNC Cormano", "Comune": "CORMANO", "idImpianto": 12665, "points": [{"type": "Feature", "properties": {}, "geometry": {"type": "Point", "coordinates": [9.166926741600037, 45.54489498527752]}}], "price": 1.949, "ultima_rilevazione": "27/04/2022 05:48:22"}, {"Gestore": "NIGRO SNC DI NIGRO ANTONINO E MAURO", "Bandiera": "Agip Eni", "Tipo impianto": "Strada Statale", "Indirizzo": "35 dei Giovi, Km. 132+300, Nord 20037", "Nome impianto": "enimilanomeda", "Comune": "PADERNO DUGNANO", "idImpianto": 50212, "points": [{"type": "Feature", "properties": {}, "geometry": {"type": "Point", "coordinates": [9.173606993586697, 45.559938200567736]}}], "price": 1.949, "ultima_rilevazione": "27/04/2022 05:48:52"}, {"Gestore": "NIGRO SNC DI NIGRO ANTONINO E MAURO", "Bandiera": "Agip Eni", "Tipo impianto": "Strada Statale", "Indirizzo": "35 dei Giovi, Km. 132+300, Nord 20037", "Nome impianto": "enimilanomeda", "Comune": "PADERNO DUGNANO", "idImpianto": 50212, "points": [{"type": "Feature", "properties": {}, "geometry": {"type": "Point", "coordinates": [9.173606993586697, 45.559938200567736]}}], "price": 1.889, "ultima_rilevazione": "27/04/2022 05:48:52"}, {"Gestore": "STAZIONE DI SERVIZIO DI DI BERNARDO IVANO", "Bandiera": "Agip Eni", "Tipo impianto": "Altro", "Indirizzo": "VIA SORMANI 29 20095", "Nome impianto": "Stazione di servizio di Di Bernardo Ivano", "Comune": "CUSANO MILANINO", "idImpianto": 51338, "points": [{"type": "Feature", "properties": {}, "geometry": {"type": "Point", "coordinates": [9.185928728641352, 45.54929389932906]}}], "price": 1.944, "ultima_rilevazione": "27/04/2022 06:59:41"}, {"Gestore": "MOPE S.N.C. DI FUSCALDO G. E PATICELLA F.", "Bandiera": "Agip Eni", "Tipo impianto": "Altro", "Indirizzo": "VIA ROMA ANGOLO VIA MIOLA  21047", "Nome impianto": "ENI 56817 Mope S.n.c.", "Comune": "SARONNO", "idImpianto": 19040, "points": [{"type": "Feature", "properties": {}, "geometry": {"type": "Point", "coordinates": [9.046116239300543, 45.62424442587159]}}], "price": 1.909, "ultima_rilevazione": "27/04/2022 07:20:37"}]}, "Benzina": {"1": [{"Gestore": "GALLUCCI SABRINA", "Bandiera": "Tamoil", "Tipo impianto": "Altro", "Indirizzo": "VIA XIV STRADA 10 20020", "Nome impianto": "Tamoil ", "Comune": "CESATE", "idImpianto": 35748, "points": [{"type": "Feature", "properties": {}, "geometry": {"type": "Point", "coordinates": [9.095667153596878, 45.59531739094676]}}], "price": 1.699, "ultima_rilevazione": "26/04/2022 10:14:06"}, {"Gestore": "CASOLO STEFANO", "Bandiera": "Agip Eni", "Tipo impianto": "Altro", "Indirizzo": "Via risorgimento 70/1 20037", "Nome impianto": "Eni di Casolo Stefano", "Comune": "PADERNO DUGNANO", "idImpianto": 39661, "points": [{"type": "Feature", "properties": {}, "geometry": {"type": "Point", "coordinates": [9.144410267472267, 45.57794022591459]}}], "price": 2.164, "ultima_rilevazione": "26/04/2022 17:55:14"}, {"Gestore": "FRANCESCON MARCO", "Bandiera": "Api-Ip", "Tipo impianto": "Altro", "Indirizzo": "C.SO MILANO 75, 00230630968 75 20813", "Nome impianto": "FRANCESCONMARCO", "Comune": "BOVISIO-MASCIAGO", "idImpianto": 46083, "points": [{"type": "Feature", "properties": {}, "geometry": {"type": "Point", "coordinates": [9.145811621881194, 45.6069888381622]}}], "price": 1.729, "ultima_rilevazione": "21/04/2022 17:52:23"}, {"Gestore": "CURSIO MAURIZIO", "Bandiera": "Moro", "Tipo impianto": "Altro", "Indirizzo": "CORSO ITALIA 48 20813", "Nome impianto": "distributore IP _ Cursio", "Comune": "BOVISIO-MASCIAGO", "idImpianto": 18309, "points": [{"type": "Feature", "properties": {}, "geometry": {"type": "Point", "coordinates": [9.14758187609209, 45.613089508461904]}}], "price": 1.743, "ultima_rilevazione": "22/04/2022 20:29:00"}, {"Gestore": "RE.PA. S.A.S. DI REPARATO VINCENZO & C.", "Bandiera": "Retitalia", "Tipo impianto": "Strada Statale", "Indirizzo": "527 Bustese, Km. 10+488, Nord 20812", "Nome impianto": "RETITALIA ", "Comune": "LIMBIATE", "idImpianto": 44911, "points": [{"type": "Feature", "properties": {}, "geometry": {"type": "Point", "coordinates": [9.125187234533996, 45.60680536884407]}}], "price": 1.769, "ultima_rilevazione": "23/04/2022 07:53:03"}, {"Gestore": "SERVIZI & GESTIONI ITALIA S.R.L.", "Bandiera": "Q8", "Tipo impianto": "Altro", "Indirizzo": "VIA DEI MILLE 106 20051", "Nome impianto": "LIMBIATE-VIA DEI MILLE 106", "Comune": "LIMBIATE", "idImpianto": 11648, "points": [{"type": "Feature", "properties": {}, "geometry": {"type": "Point", "coordinates": [9.138557492065388, 45.59771501375995]}}], "price": 1.744, "ultima_rilevazione": "25/04/2022 00:33:02"}, {"Gestore": "SERVIZI & GESTIONI ITALIA srl", "Bandiera": "Q8", "Tipo impianto": "Altro", "Indirizzo": "VIA TRIESTE  105 - DISTR. Q8 SNC 20051", "Nome impianto": "LIMBIATE VIA TRIESTE  105 - DISTR. Q8", "Comune": "LIMBIATE", "idImpianto": 6450, "points": [{"type": "Feature", "properties": {}, "geometry": {"type": "Point", "coordinates": [9.132589945368975, 45.595337657608255]}}], "price": 1.724, "ultima_rilevazione": "25/04/2022 00:33:16"}, {"Gestore": "ESSO SERVICE S.A.S. DI STELLUTI DANIELE & C.", "Bandiera": "Esso", "Tipo impianto": "Altro", "Indirizzo": "Via Nazionale dei Giovi 4 20813", "Nome impianto": "Esso", "Comune": "BOVISIO-MASCIAGO", "idImpianto": 38135, "points": [{"type": "Feature", "properties": {}, "geometry": {"type": "Point", "coordinates": [9.145391285419464, 45.60054215871005]}}], "price": 1.699, "ultima_rilevazione": "26/04/2022 08:11:12"}, {"Gestore": "LOMBARDI STEFANO", "Bandiera": "Agip Eni", "Tipo impianto": "Altro", "Indirizzo": "VIA TOGLIATTI 47 20037", "Nome impianto": "stazione di servizio eni di lombardi stefano", "Comune": "PADERNO DUGNANO", "idImpianto": 44608, "points": [{"type": "Feature", "properties": {}, "geometry": {"type": "Point", "coordinates": [9.15239831590361, 45.57772291146348]}}], "price": 1.794, "ultima_rilevazione": "26/04/2022 08:44:13"}, {"Gestore": "PETROL CRI DI REPARATO CRISTIAN", "Bandiera": "Api-Ip", "Tipo impianto": "Altro", "Indirizzo": "VIA XXV APRILE   20812", "Nome impianto": "ITALIANA PETROLI ", "Comune": "LIMBIATE", "idImpianto": 45380, "points": [{"type": "Feature", "properties": {}, "geometry": {"type": "Point", "coordinates": [9.119485169649124, 45.58977655922272]}}], "price": 1.939, "ultima_rilevazione": "26/04/2022 08:57:15"}, {"Gestore": "PETROL CRI DI REPARATO CRISTIAN", "Bandiera": "Api-Ip", "Tipo impianto": "Altro", "Indirizzo": "VIA DEI MILLE 22 20812", "Nome impianto": "ITALIANA PETROLI", "Comune": "LIMBIATE", "idImpianto": 45383, "points": [{"type": "Feature", "properties": {}, "geometry": {"type": "Point", "coordinates": [9.126281657558025, 45.60125590649502]}}], "price": 1.819, "ultima_rilevazione": "26/04/2022 08:58:45"}, {"Gestore": "GALLUCCI SABRINA", "Bandiera": "Tamoil", "Tipo impianto": "Altro", "Indirizzo": "VIA XIV STRADA 10 20020", "Nome impianto": "Tamoil ", "Comune": "CESATE", "idImpianto": 35748, "points": [{"type": "Feature", "properties": {}, "geometry": {"type": "Point", "coordinates": [9.095667153596878, 45.59531739094676]}}], "price": 1.749, "ultima_rilevazione": "26/04/2022 10:14:06"}, {"Gestore": "AGOSTINI OLIVIERO E PIERI GIACOMO S.N.C.", "Bandiera": "Agip Eni", "Tipo impianto": "Altro", "Indirizzo": "VIALE DEI MILLE 34 20812", "Nome impianto": "AGOSTINI O E PIERI G", "Comune": "LIMBIATE", "idImpianto": 12872, "points": [{"type": "Feature", "properties": {}, "geometry": {"type": "Point", "coordinates": [9.128793612372649, 45.600501986426245]}}], "price": 1.799, "ultima_rilevazione": "26/04/2022 15:03:04"}, {"Gestore": "ARTICO & PALAZZI S.N.C. DI ARTICO NICHOLAS", "Bandiera": "Tamoil", "Tipo impianto": "Altro", "Indirizzo": "CORSO EUROPA 72 20020", "Nome impianto": "STAZIONE DI SERVIZIO TAMOIL", "Comune": "SOLARO", "idImpianto": 25413, "points": [{"type": "Feature", "properties": {}, "geometry": {"type": "Point", "coordinates": [9.093176202945417, 45.6092497143197]}}], "price": 1.749, "ultima_rilevazione": "26/04/2022 15:08:13"}, {"Gestore": "SERVIZI E GESTIONI ZENIT S.R.L. IN SIGLA - ZENIT S.R.L.", "Bandiera": "Esso", "Tipo impianto": "Altro", "Indirizzo": "VIA CAVOUR 79 20030", "Nome impianto": "VIA CAVOUR, 79 SENAGO", "Comune": "SENAGO", "idImpianto": 24399, "points": [{"type": "Feature", "properties": {}, "geometry": {"type": "Point", "coordinates": [9.129318813491864, 45.58245416727176]}}], "price": 1.718, "ultima_rilevazione": "26/04/2022 17:44:55"}, {"Gestore": "NUOVA SIDAP  S.R.L.", "Bandiera": "Esso", "Tipo impianto": "Altro", "Indirizzo": "VIA REALI 106 20037", "Nome impianto": "Paderno Dugnano", "Comune": "PADERNO DUGNANO", "idImpianto": 43746, "points": [{"type": "Feature", "properties": {}, "geometry": {"type": "Point", "coordinates": [9.146991968154907, 45.57574929016682]}}], "price": 1.732, "ultima_rilevazione": "27/04/2022 06:33:39"}], "3": [{"Gestore": "GM S.A.S. DI CALANDRA GIOVANNI & C.", "Bandiera": "Api-Ip", "Tipo impianto": "Strada Statale", "Indirizzo": "527 Bustese, Km. 6+829, Sud-Est 20814", "Nome impianto": "IP", "Comune": "VAREDO", "idImpianto": 48651, "points": [{"type": "Feature", "properties": {}, "geometry": {"type": "Point", "coordinates": [9.16818677389342, 45.59807912912228]}}], "price": 1.689, "ultima_rilevazione": "12/04/2022 21:35:49"}, {"Gestore": "ROSS BENZ DI PONTI ROSSANO", "Bandiera": "Agip Eni", "Tipo impianto": "Altro", "Indirizzo": "CORSO ISONZO 5 20822", "Nome impianto": "ROSSBENZ", "Comune": "SEVESO", "idImpianto": 9678, "points": [{"type": "Feature", "properties": {}, "geometry": {"type": "Point", "coordinates": [9.143085253967229, 45.64273849574598]}}], "price": 1.794, "ultima_rilevazione": "21/04/2022 08:40:03"}, {"Gestore": "WANG LIZHEN DISTRIBUTORE", "Bandiera": "Api-Ip", "Tipo impianto": "Altro", "Indirizzo": "CORSO EUROPA 9 20020", "Nome impianto": "Distributore IP", "Comune": "SOLARO", "idImpianto": 50233, "points": [{"type": "Feature", "properties": {}, "geometry": {"type": "Point", "coordinates": [9.090636670589449, 45.61698480286472]}}], "price": 1.92, "ultima_rilevazione": "21/04/2022 09:04:11"}, {"Gestore": "F.LLI CERUTI S.N.C. DI ANGELO E ATTILIO CERUTI", "Bandiera": "Tamoil", "Tipo impianto": "Altro", "Indirizzo": "STRADA PROVINCIALE 35 MILANO MEDA  20037", "Nome impianto": "TAMOIL", "Comune": "PADERNO DUGNANO", "idImpianto": 16979, "points": [{"type": "Feature", "properties": {}, "geometry": {"type": "Point", "coordinates": [9.17536363005638, 45.583678765520126]}}], "price": 1.679, "ultima_rilevazione": "21/04/2022 12:02:11"}, {"Gestore": "SAETTI MARA", "Bandiera": "Q8", "Tipo impianto": "Altro", "Indirizzo": "VIA NAZIONALE DEI GIOVI 26 20811", "Nome impianto": "Q8 di saetti mara", "Comune": "CESANO MADERNO", "idImpianto": 7811, "points": [{"type": "Feature", "properties": {}, "geometry": {"type": "Point", "coordinates": [9.138087630271912, 45.63401191390325]}}], "price": 1.729, "ultima_rilevazione": "22/04/2022 09:26:36"}, {"Gestore": "GS SPA", "Bandiera": "Q8", "Tipo impianto": "Altro", "Indirizzo": "S.S. 35 dei Giovi  20037", "Nome impianto": "Carrefour Q8 Paderno", "Comune": "PADERNO DUGNANO", "idImpianto": 48742, "points": [{"type": "Feature", "properties": {}, "geometry": {"type": "Point", "coordinates": [9.17677844662704, 45.574291657480615]}}], "price": 1.699, "ultima_rilevazione": "22/04/2022 16:05:36"}, {"Gestore": "FABIO AUTOFFICINA DI DI CICCO FABIO", "Bandiera": "Esso", "Tipo impianto": "Altro", "Indirizzo": "VIA SARDEGNA 24 20811", "Nome impianto": "FABIO AUTOFFICINA", "Comune": "CESANO MADERNO", "idImpianto": 12717, "points": [{"type": "Feature", "properties": {}, "geometry": {"type": "Point", "coordinates": [9.1229827355819, 45.6363123611598]}}], "price": 1.719, "ultima_rilevazione": "23/04/2022 08:22:19"}, {"Gestore": "S.M.C. SNC DI AGNANI MASSIMO E STEFANO", "Bandiera": "Beyfin", "Tipo impianto": "Strada Statale", "Indirizzo": "Statale 35 dei Giovi, Km. 134, dir. sud", "Nome impianto": "S.M.C. SNC DI AGNANI MASSIMO E STEFANO", "Comune": "PADERNO DUGNANO", "idImpianto": 24113, "points": [{"type": "Feature", "properties": {}, "geometry": {"type": "Point", "coordinates": [9.17557418346405, 45.57421087244983]}}], "price": 1.679, "ultima_rilevazione": "23/04/2022 11:18:00"}, {"Gestore": "SERVIZI & GESTIONI ITALIA S.R.L.", "Bandiera": "Q8", "Tipo impianto": "Altro", "Indirizzo": "VIA ROMA 43 20020", "Nome impianto": "CESATE-VIA ROMA 43", "Comune": "CESATE", "idImpianto": 11703, "points": [{"type": "Feature", "properties": {}, "geometry": {"type": "Point", "coordinates": [9.078240991401684, 45.59066381652534]}}], "price": 1.799, "ultima_rilevazione": "25/04/2022 00:33:07"}, {"Gestore": "SERVIZI & GESTIONI ITALIA S.R.L.", "Bandiera": "Q8", "Tipo impianto": "Altro", "Indirizzo": "VIA GARIBALDI FZ. S MARIA ROSSA 89 20024", "Nome impianto": "GARBAGNATE-VIA GARIBALDI 89 FZ. S MARIA ROSSA", "Comune": "GARBAGNATE MILANESE", "idImpianto": 11689, "points": [{"type": "Feature", "properties": {}, "geometry": {"type": "Point", "coordinates": [9.07466973743442, 45.5674187773307]}}], "price": 1.799, "ultima_rilevazione": "25/04/2022 00:33:09"}, {"Gestore": "SERVIZI & GESTIONI ITALIA S.R.L.", "Bandiera": "Q8", "Tipo impianto": "Altro", "Indirizzo": "S.S. BUSTESE VIA VARESE 216 20020", "Nome impianto": "SOLARO-S.S. BUSTESE VIA VARESE 216", "Comune": "SOLARO", "idImpianto": 11665, "points": [{"type": "Feature", "properties": {}, "geometry": {"type": "Point", "coordinates": [9.064423789024318, 45.61763752107878]}}], "price": 1.769, "ultima_rilevazione": "25/04/2022 00:33:15"}, {"Gestore": "SERVIZI & GESTIONI ITALIA S.R.L.", "Bandiera": "Q8", "Tipo impianto": "Altro", "Indirizzo": "VIALE 5 GIORNATE  21042", "Nome impianto": "CARONNO PERTUSELLA - VIALE 5 GIORNATE", "Comune": "CARONNO PERTUSELLA", "idImpianto": 30797, "points": [{"type": "Feature", "properties": {}, "geometry": {"type": "Point", "coordinates": [9.060047826983691, 45.58166503439931]}}], "price": 1.799, "ultima_rilevazione": "25/04/2022 00:33:20"}, {"Gestore": "ARBOLINO DI ARBOLINO TIZIANA E C. SAS", "Bandiera": "Esso", "Tipo impianto": "Altro", "Indirizzo": "VIA PELORITANA 0056 20024", "Nome impianto": "Esso", "Comune": "GARBAGNATE MILANESE", "idImpianto": 27947, "points": [{"type": "Feature", "properties": {}, "geometry": {"type": "Point", "coordinates": [9.06746388085014, 45.57460538609306]}}], "price": 1.789, "ultima_rilevazione": "26/04/2022 07:28:06"}, {"Gestore": "MIKKA SAS DI CAVALLO STEFANO & C.", "Bandiera": "Api-Ip", "Tipo impianto": "Altro", "Indirizzo": "VIA VARESE 56 20024", "Nome impianto": "TOTALERG", "Comune": "GARBAGNATE MILANESE", "idImpianto": 28768, "points": [{"type": "Feature", "properties": {}, "geometry": {"type": "Point", "coordinates": [9.076316356658936, 45.57581724330161]}}], "price": 1.934, "ultima_rilevazione": "26/04/2022 08:48:35"}, {"Gestore": "IEVA VINCENZO", "Bandiera": "OIL ONE", "Tipo impianto": "Altro", "Indirizzo": "EX S.S. 527 KM 7+885  20814", "Nome impianto": "OIL ONE", "Comune": "VAREDO", "idImpianto": 48993, "points": [{"type": "Feature", "properties": {}, "geometry": {"type": "Point", "coordinates": [9.158191955959492, 45.60393141410619]}}], "price": 1.709, "ultima_rilevazione": "26/04/2022 09:59:23"}, {"Gestore": "IP SERVICES S.R.L.", "Bandiera": "Api-Ip", "Tipo impianto": "Altro", "Indirizzo": "VIA MONTERESEGONE 67 20031", "Nome impianto": "CESANO MADERNO-RESEGONE", "Comune": "CESANO MADERNO", "idImpianto": 28719, "points": [{"type": "Feature", "properties": {}, "geometry": {"type": "Point", "coordinates": [9.16732570982174, 45.62525623601152]}}], "price": 1.719, "ultima_rilevazione": "26/04/2022 12:02:52"}, {"Gestore": "SERVIZI E GESTIONI ZENIT S.R.L. IN SIGLA - ZENIT S.R.L.", "Bandiera": "Giap", "Tipo impianto": "Altro", "Indirizzo": "VIA DESIO 50 20030", "Nome impianto": "VIA DESIO - BOVISIO MASCIAGO", "Comune": "BOVISIO-MASCIAGO", "idImpianto": 32972, "points": [{"type": "Feature", "properties": {}, "geometry": {"type": "Point", "coordinates": [9.16067808673222, 45.61334190429158]}}], "price": 1.749, "ultima_rilevazione": "26/04/2022 17:44:50"}, {"Gestore": "SERVIZI E GESTIONI ZENIT S.R.L. IN SIGLA - ZENIT S.R.L.", "Bandiera": "Esso", "Tipo impianto": "Altro", "Indirizzo": "VIA CIRCONVALLAZIONE (EX SS 527 BUSTESE)  20814", "Nome impianto": "VIA CIRCONVALLAZIONE VAREDO", "Comune": "VAREDO", "idImpianto": 22380, "points": [{"type": "Feature", "properties": {}, "geometry": {"type": "Point", "coordinates": [9.153016898147598, 45.60391424697533]}}], "price": 1.709, "ultima_rilevazione": "26/04/2022 17:44:51"}, {"Gestore": "SERVIZI E GESTIONI ZENIT S.R.L. IN SIGLA - ZENIT S.R.L.", "Bandiera": "Giap", "Tipo impianto": "Altro", "Indirizzo": "VIA XXIV MAGGIO  20030", "Nome impianto": "VIA XXIV MAGGIO SENAGO", "Comune": "SENAGO", "idImpianto": 24400, "points": [{"type": "Feature", "properties": {}, "geometry": {"type": "Point", "coordinates": [9.116305728836096, 45.57547650985402]}}], "price": 1.718, "ultima_rilevazione": "26/04/2022 17:44:53"}, {"Gestore": "SERVIZI E GESTIONI ZENIT S.R.L. IN SIGLA - ZENIT S.R.L.", "Bandiera": "Esso", "Tipo impianto": "Altro", "Indirizzo": "VIA GAVINANA 18 20024", "Nome impianto": "V.GAVINANA GARBA", "Comune": "GARBAGNATE MILANESE", "idImpianto": 12063, "points": [{"type": "Feature", "properties": {}, "geometry": {"type": "Point", "coordinates": [9.07853596808809, 45.57874058957802]}}], "price": 1.788, "ultima_rilevazione": "26/04/2022 17:44:54"}, {"Gestore": "SERVIZI E GESTIONI ZENIT S.R.L. IN SIGLA - ZENIT S.R.L.", "Bandiera": "Esso", "Tipo impianto": "Altro", "Indirizzo": "VIA PACE 38 20021", "Nome impianto": "VIA PACE BOLLATE", "Comune": "BOLLATE", "idImpianto": 28598, "points": [{"type": "Feature", "properties": {}, "geometry": {"type": "Point", "coordinates": [9.131144732236862, 45.55917463931419]}}], "price": 1.719, "ultima_rilevazione": "26/04/2022 17:44:56"}, {"Gestore": "F.LLI PANDOLFO S.N.C. DI PANDOLFO LEOPOLDO E GIANNI", "Bandiera": "Agip Eni", "Tipo impianto": "Altro", "Indirizzo": "via roma 50 ", "Nome impianto": "ENI F.LLI PANDOLFO snc", "Comune": "SOLARO", "idImpianto": 18067, "points": [{"type": "Feature", "properties": {}, "geometry": {"type": "Point", "coordinates": [9.092313051223757, 45.61864135275116]}}], "price": 1.799, "ultima_rilevazione": "27/04/2022 06:46:51"}, {"Gestore": "SERVIZI & GESTIONI ITALIA S.R.L.", "Bandiera": "Q8", "Tipo impianto": "Altro", "Indirizzo": "FZ.PALAZZOLO SS/SP 35 KM.6+550 OVEST S/N 20037", "Nome impianto": "PADERNO DUGNANO-FZ.PALAZZOLO SS/SP35KM.6+550 OVEST", "Comune": "PADERNO DUGNANO", "idImpianto": 11678, "points": [{"type": "Feature", "properties": {}, "geometry": {"type": "Point", "coordinates": [9.173264373016307, 45.588769325187954]}}], "price": 1.689, "ultima_rilevazione": "27/04/2022 07:10:18"}, {"Gestore": "SERVIZI & GESTIONI ITALIA S.R.L.", "Bandiera": "Q8", "Tipo impianto": "Altro", "Indirizzo": "VIA DON ANGHILERI S/N 20037", "Nome impianto": "PADERNO DUGNANO-VIA DON ANGHILERI", "Comune": "PADERNO DUGNANO", "idImpianto": 11705, "points": [{"type": "Feature", "properties": {}, "geometry": {"type": "Point", "coordinates": [9.164721865081788, 45.583733789381526]}}], "price": 1.709, "ultima_rilevazione": "27/04/2022 07:10:19"}, {"Gestore": "ESSO SERVICE S.A.S. DI STELLUTI DANIELE & C.", "Bandiera": "Esso", "Tipo impianto": "Altro", "Indirizzo": "Via Giuseppe Garibaldi 132 20024", "Nome impianto": "Esso", "Comune": "GARBAGNATE MILANESE", "idImpianto": 42136, "points": [{"type": "Feature", "properties": {}, "geometry": {"type": "Point", "coordinates": [9.076157453967426, 45.56543979927998]}}], "price": 1.779, "ultima_rilevazione": "27/04/2022 07:40:22"}], "5": [{"Gestore": "EUROGAS NOVA S.R.L.", "Bandiera": "Pompe Bianche", "Tipo impianto": "Altro", "Indirizzo": "Via G. A. Diaz 31 20834", "Nome impianto": "EUROGAS", "Comune": "NOVA MILANESE", "idImpianto": 49274, "points": [{"type": "Feature", "properties": {}, "geometry": {"type": "Point", "coordinates": [9.200202285811043, 45.59990726284961]}}], "price": 1.699, "ultima_rilevazione": "06/10/2021 00:08:48"}, {"Gestore": "SCARFONE COSIMO", "Bandiera": "Agip Eni", "Tipo impianto": "Altro", "Indirizzo": "via milano 230 20832", "Nome impianto": "ENI DESIO", "Comune": "DESIO", "idImpianto": 32877, "points": [{"type": "Feature", "properties": {}, "geometry": {"type": "Point", "coordinates": [9.199714064598083, 45.62074583216158]}}], "price": 1.759, "ultima_rilevazione": "19/04/2022 09:48:03"}, {"Gestore": "STAZIONE DI SERVIZIO KUWAIT DI MUNARI MAURO", "Bandiera": "Q8", "Tipo impianto": "Altro", "Indirizzo": "via seveso s.n.c. snc 20095", "Nome impianto": "stazione di servizio Q8 di mauro Munari", "Comune": "CUSANO MILANINO", "idImpianto": 50046, "points": [{"type": "Feature", "properties": {}, "geometry": {"type": "Point", "coordinates": [9.172633886337277, 45.555949923215685]}}], "price": 1.819, "ultima_rilevazione": "20/04/2022 07:58:31"}, {"Gestore": "MANDIA ANTONIO", "Bandiera": "Pompe Bianche", "Tipo impianto": "Altro", "Indirizzo": "VIA PER CESANO 44 20832", "Nome impianto": "NUOVA COMA SRL", "Comune": "DESIO", "idImpianto": 14095, "points": [{"type": "Feature", "properties": {}, "geometry": {"type": "Point", "coordinates": [9.195360888360597, 45.62368386848299]}}], "price": 1.789, "ultima_rilevazione": "21/04/2022 07:07:53"}, {"Gestore": "STAZIONE AGIP DI VETRI PAOLO E C. S.A.S.", "Bandiera": "Agip Eni", "Tipo impianto": "Altro", "Indirizzo": "VIA ANTONIO GRAMSCI 109 20037", "Nome impianto": "staz.agip di vetri paolo ", "Comune": "PADERNO DUGNANO", "idImpianto": 13647, "points": [{"type": "Feature", "properties": {}, "geometry": {"type": "Point", "coordinates": [9.17061626441796, 45.558841461515954]}}], "price": 1.809, "ultima_rilevazione": "21/04/2022 08:02:24"}, {"Gestore": "UBO.VAS. SNC DI MAURO UBOLDI & C.", "Bandiera": "Pompe Bianche", "Tipo impianto": "Altro", "Indirizzo": "corso della vittoria 919 21042", "Nome impianto": "Stazione Carburanti MORO", "Comune": "CARONNO PERTUSELLA", "idImpianto": 45857, "points": [{"type": "Feature", "properties": {}, "geometry": {"type": "Point", "coordinates": [9.040553000123, 45.604790000123]}}], "price": 1.719, "ultima_rilevazione": "21/04/2022 12:00:38"}, {"Gestore": "VASTOLA SIMONE", "Bandiera": "Agip Eni", "Tipo impianto": "Altro", "Indirizzo": "Via Adua angolo via Fantoni  20822", "Nome impianto": "Imp. Eni 2520 di Vastola Simone ", "Comune": "SEVESO", "idImpianto": 51050, "points": [{"type": "Feature", "properties": {}, "geometry": {"type": "Point", "coordinates": [9.143256416357657, 45.647692603352894]}}], "price": 1.799, "ultima_rilevazione": "21/04/2022 14:52:55"}, {"Gestore": "STAGNI RAFFAELE SNC DI STAGNI SERGIO, ENRICO & C.", "Bandiera": "Api-Ip", "Tipo impianto": "Altro", "Indirizzo": "VIA MILANO 2 20821", "Nome impianto": "STAGNI RAFFAELE S.N.C. di Stagni Sergio, Enrico & C.", "Comune": "MEDA", "idImpianto": 21486, "points": [{"type": "Feature", "properties": {}, "geometry": {"type": "Point", "coordinates": [9.14745536501232, 45.66213661846616]}}], "price": 1.91, "ultima_rilevazione": "21/04/2022 20:26:40"}, {"Gestore": "SERVIZI & GESTIONI ITALIA srl", "Bandiera": "Q8", "Tipo impianto": "Altro", "Indirizzo": "VIA OSPITALETTO SNC 20021", "Nome impianto": "BOLLATE VIA OSPITALETTO", "Comune": "BOLLATE", "idImpianto": 6447, "points": [{"type": "Feature", "properties": {}, "geometry": {"type": "Point", "coordinates": [9.144175796364609, 45.546976439492525]}}], "price": 1.699, "ultima_rilevazione": "22/04/2022 01:37:39"}, {"Gestore": "MCR S.N.C. DI MARTELLA FRANCESCO E C.", "Bandiera": "Q8", "Tipo impianto": "Altro", "Indirizzo": "VIA ANTONIO PARMA 3-5 21047", "Nome impianto": "area servizio q8", "Comune": "SARONNO", "idImpianto": 20637, "points": [{"type": "Feature", "properties": {}, "geometry": {"type": "Point", "coordinates": [9.031153321266174, 45.61241187080537]}}], "price": 1.759, "ultima_rilevazione": "22/04/2022 05:42:57"}, {"Gestore": "DI MULO CLAUDIO", "Bandiera": "Q8", "Tipo impianto": "Altro", "Indirizzo": "VIA BELLINI 8 20823", "Nome impianto": "Distributore Q8", "Comune": "LENTATE SUL SEVESO", "idImpianto": 35995, "points": [{"type": "Feature", "properties": {}, "geometry": {"type": "Point", "coordinates": [9.125770926475523, 45.66167910091443]}}], "price": 1.789, "ultima_rilevazione": "22/04/2022 07:14:38"}, {"Gestore": "T.D.M. S.R.L.", "Bandiera": "Tamoil", "Tipo impianto": "Altro", "Indirizzo": "VIA DELLA REPUBBLICA 6 20021", "Nome impianto": "8483", "Comune": "BOLLATE", "idImpianto": 46839, "points": [{"type": "Feature", "properties": {}, "geometry": {"type": "Point", "coordinates": [9.111826769940537, 45.54182715694789]}}], "price": 1.729, "ultima_rilevazione": "22/04/2022 13:00:05"}, {"Gestore": "F.LLI SCURATTI AUTORIPARAZIONI S.N.C. DI DANIELE E STEFANO SCURAT TI", "Bandiera": "KEROPETROL", "Tipo impianto": "Altro", "Indirizzo": "VIA PER CINISELLO 8 20834", "Nome impianto": "F.lli scuratti", "Comune": "NOVA MILANESE", "idImpianto": 25385, "points": [{"type": "Feature", "properties": {}, "geometry": {"type": "Point", "coordinates": [9.204874733839231, 45.58543539394178]}}], "price": 1.799, "ultima_rilevazione": "23/04/2022 12:08:42"}, {"Gestore": "*PREZIOSA MAURIZIO", "Bandiera": "Esso", "Tipo impianto": "Altro", "Indirizzo": "VIA MARCONI ANGOLO VIA SONCINO SNC 21047", "Nome impianto": "Stazione Esso Preziosa Maurizio", "Comune": "SARONNO", "idImpianto": 43372, "points": [{"type": "Feature", "properties": {}, "geometry": {"type": "Point", "coordinates": [9.038958012067724, 45.62395234624892]}}], "price": 1.759, "ultima_rilevazione": "23/04/2022 15:47:31"}, {"Gestore": "STAZIONE SERVIZIO Q8 DI DI PADOVA FRANCESCO E MATTEO S.N.C.", "Bandiera": "Q8", "Tipo impianto": "Altro", "Indirizzo": "VIA GIUSEPPE GARIBALDI 130 20834", "Nome impianto": "stazione di servizio di padova francesco e matteo", "Comune": "NOVA MILANESE", "idImpianto": 7752, "points": [{"type": "Feature", "properties": {}, "geometry": {"type": "Point", "coordinates": [9.195328474204985, 45.585064792838175]}}], "price": 1.779, "ultima_rilevazione": "23/04/2022 16:16:58"}, {"Gestore": "AUTOSERVICE SARONNO SNC DI ABDELAZIZ E C.", "Bandiera": "Api-Ip", "Tipo impianto": "Altro", "Indirizzo": "VIALE LOMBARDIA 20 21047", "Nome impianto": "IP", "Comune": "SARONNO", "idImpianto": 48575, "points": [{"type": "Feature", "properties": {}, "geometry": {"type": "Point", "coordinates": [9.038802629753595, 45.61398057974159]}}], "price": 1.914, "ultima_rilevazione": "23/04/2022 17:36:53"}, {"Gestore": "NUOVA SIDAP  S.R.L.", "Bandiera": "Api-Ip", "Tipo impianto": "Autostradale", "Indirizzo": "A52 TANG.LE NORD DI MILANO, Km. 10,9, Est 20092", "Nome impianto": "CINISELLO B. NORD", "Comune": "CINISELLO BALSAMO", "idImpianto": 43748, "points": [{"type": "Feature", "properties": {}, "geometry": {"type": "Point", "coordinates": [9.19825166463852, 45.57018517883253]}}], "price": 1.854, "ultima_rilevazione": "24/04/2022 10:51:49"}, {"Gestore": "SERVIZI & GESTIONI ITALIA S.R.L.", "Bandiera": "Q8", "Tipo impianto": "Altro", "Indirizzo": "VIA MILANO 165 20033", "Nome impianto": "DESIO-VIA MILANO 165", "Comune": "DESIO", "idImpianto": 11642, "points": [{"type": "Feature", "properties": {}, "geometry": {"type": "Point", "coordinates": [9.20041492757798, 45.61516903593563]}}], "price": 1.759, "ultima_rilevazione": "25/04/2022 00:33:02"}, {"Gestore": "MC SERVIZI S.A.S. DI FERTONANI CHIARA E C.", "Bandiera": "Api-Ip", "Tipo impianto": "Altro", "Indirizzo": "VIA PER PASSIRANA   20020", "Nome impianto": "MC SERVIZI SAS", "Comune": "ARESE", "idImpianto": 37165, "points": [{"type": "Feature", "properties": {}, "geometry": {"type": "Point", "coordinates": [9.052507728338242, 45.55435987700847]}}], "price": 1.899, "ultima_rilevazione": "25/04/2022 19:32:17"}, {"Gestore": "ROSSI ALBERTO", "Bandiera": "Api-Ip", "Tipo impianto": "Altro", "Indirizzo": "VIA SABOTINO 53, 20832", "Nome impianto": "IP Rossi", "Comune": "DESIO", "idImpianto": 20022, "points": [{"type": "Feature", "properties": {}, "geometry": {"type": "Point", "coordinates": [9.194773435592651, 45.60774196976108]}}], "price": 1.759, "ultima_rilevazione": "26/04/2022 08:07:30"}, {"Gestore": "NOCE SAMUELE", "Bandiera": "Api-Ip", "Tipo impianto": "Altro", "Indirizzo": "VIA VITTORIO VENETO 25 20834", "Nome impianto": "Italiana Petroli", "Comune": "NOVA MILANESE", "idImpianto": 37257, "points": [{"type": "Feature", "properties": {}, "geometry": {"type": "Point", "coordinates": [9.201848411045034, 45.5914146691208]}}], "price": 1.914, "ultima_rilevazione": "26/04/2022 08:31:09"}, {"Gestore": "RUSSO GIORGIO", "Bandiera": "Esso", "Tipo impianto": "Altro", "Indirizzo": "VIA GIUSEPPE GARIBALDI 306 20832", "Nome impianto": "ESSO ", "Comune": "DESIO", "idImpianto": 21100, "points": [{"type": "Feature", "properties": {}, "geometry": {"type": "Point", "coordinates": [9.202510938048365, 45.6069307654106]}}], "price": 1.749, "ultima_rilevazione": "26/04/2022 08:37:26"}, {"Gestore": "IPER MONTEBELLO S.P.A.", "Bandiera": "Iper Station", "Tipo impianto": "Altro", "Indirizzo": "Via Luraghi sn 20020", "Nome impianto": "Iper Station Arese", "Comune": "ARESE", "idImpianto": 30892, "points": [{"type": "Feature", "properties": {}, "geometry": {"type": "Point", "coordinates": [9.053292274475098, 45.56176087890731]}}], "price": 1.679, "ultima_rilevazione": "26/04/2022 08:58:40"}, {"Gestore": "T.D.M. S.R.L.", "Bandiera": "Tamoil", "Tipo impianto": "Altro", "Indirizzo": "Viale Marconi/Ang. Via Manzoni  20095", "Nome impianto": "2517", "Comune": "CUSANO MILANINO", "idImpianto": 27870, "points": [{"type": "Feature", "properties": {}, "geometry": {"type": "Point", "coordinates": [9.17568951845169, 45.54620994598323]}}], "price": 1.779, "ultima_rilevazione": "26/04/2022 11:42:04"}, {"Gestore": "T.D.M. S.R.L.", "Bandiera": "Tamoil", "Tipo impianto": "Altro", "Indirizzo": "VIA DON LUIGI VIGANO' FRAZ: CASSINA SAVINA 4 20811", "Nome impianto": "4022", "Comune": "CESANO MADERNO", "idImpianto": 46375, "points": [{"type": "Feature", "properties": {}, "geometry": {"type": "Point", "coordinates": [9.179304599524926, 45.63849701505329]}}], "price": 1.719, "ultima_rilevazione": "26/04/2022 12:22:01"}, {"Gestore": "EGI-2GO S.R.L.", "Bandiera": "Esso", "Tipo impianto": "Altro", "Indirizzo": "VIA A. LOCATELLI 10 20834", "Nome impianto": "Nova Milanese", "Comune": "NOVA MILANESE", "idImpianto": 48753, "points": [{"type": "Feature", "properties": {}, "geometry": {"type": "Point", "coordinates": [9.195352999999995, 45.59261673865961]}}], "price": 1.769, "ultima_rilevazione": "26/04/2022 13:37:37"}, {"Gestore": "AMBROGIO MORO S.P.A.", "Bandiera": "Moro", "Tipo impianto": "Altro", "Indirizzo": "Piazza Del Seminario SNC 20822", "Nome impianto": "Moro_Seveso Piazza Del Seminario", "Comune": "SEVESO", "idImpianto": 24181, "points": [{"type": "Feature", "properties": {}, "geometry": {"type": "Point", "coordinates": [9.143888851284032, 45.64989895124354]}}], "price": 1.719, "ultima_rilevazione": "26/04/2022 17:28:51"}, {"Gestore": "SERVIZI E GESTIONI ZENIT S.R.L. IN SIGLA - ZENIT S.R.L.", "Bandiera": "Giap", "Tipo impianto": "Altro", "Indirizzo": "VIA SEVESO ANG. VIA LIBERTA' SNC 20095", "Nome impianto": "VIA SEVESO CUSAN", "Comune": "CUSANO MILANINO", "idImpianto": 12068, "points": [{"type": "Feature", "properties": {}, "geometry": {"type": "Point", "coordinates": [9.174054974204978, 45.5546165379325]}}], "price": 1.789, "ultima_rilevazione": "26/04/2022 17:44:53"}, {"Gestore": "SERVIZI E GESTIONI ZENIT S.R.L. IN SIGLA - ZENIT S.R.L.", "Bandiera": "Esso", "Tipo impianto": "Altro", "Indirizzo": "VIA DE GASPERI 23 20020", "Nome impianto": "VIA DEGASP.ARESE", "Comune": "ARESE", "idImpianto": 12065, "points": [{"type": "Feature", "properties": {}, "geometry": {"type": "Point", "coordinates": [9.080279892030717, 45.55094687828335]}}], "price": 1.769, "ultima_rilevazione": "26/04/2022 17:44:54"}, {"Gestore": "SERVIZI E GESTIONI ZENIT S.R.L. IN SIGLA - ZENIT S.R.L.", "Bandiera": "Esso", "Tipo impianto": "Altro", "Indirizzo": "VIA S. PELLICO 20 20021", "Nome impianto": "VIA PELLICO BOLL", "Comune": "BOLLATE", "idImpianto": 12069, "points": [{"type": "Feature", "properties": {}, "geometry": {"type": "Point", "coordinates": [9.130003201223415, 45.54511030892274]}}], "price": 1.719, "ultima_rilevazione": "26/04/2022 17:44:55"}, {"Gestore": "SOMMESE CARBURANTE S.R.L.", "Bandiera": "Sommese Petroli", "Tipo impianto": "Altro", "Indirizzo": "VIALE LOMBARDIA 91 21047", "Nome impianto": "SOMMESE - SARONNO", "Comune": "SARONNO", "idImpianto": 45765, "points": [{"type": "Feature", "properties": {}, "geometry": {"type": "Point", "coordinates": [9.052836298942566, 45.61677197919744]}}], "price": 1.749, "ultima_rilevazione": "27/04/2022 00:18:14"}, {"Gestore": "NIGRO SNC DI NIGRO ANTONINO E MAURO", "Bandiera": "Agip Eni", "Tipo impianto": "Altro", "Indirizzo": "VIA F. FILZI 9 20032", "Nome impianto": "NIGRO SNC Cormano", "Comune": "CORMANO", "idImpianto": 12665, "points": [{"type": "Feature", "properties": {}, "geometry": {"type": "Point", "coordinates": [9.166926741600037, 45.54489498527752]}}], "price": 1.799, "ultima_rilevazione": "27/04/2022 05:48:22"}, {"Gestore": "NIGRO SNC DI NIGRO ANTONINO E MAURO", "Bandiera": "Agip Eni", "Tipo impianto": "Strada Statale", "Indirizzo": "35 dei Giovi, Km. 132+300, Nord 20037", "Nome impianto": "enimilanomeda", "Comune": "PADERNO DUGNANO", "idImpianto": 50212, "points": [{"type": "Feature", "properties": {}, "geometry": {"type": "Point", "coordinates": [9.173606993586697, 45.559938200567736]}}], "price": 1.799, "ultima_rilevazione": "27/04/2022 05:48:52"}, {"Gestore": "CUSITEX DI CIRRINCIONE DOMENICO E C. S.N.C.", "Bandiera": "Esso", "Tipo impianto": "Altro", "Indirizzo": "VIA G. VERDI  20021", "Nome impianto": "via verdi", "Comune": "BOLLATE", "idImpianto": 8741, "points": [{"type": "Feature", "properties": {}, "geometry": {"type": "Point", "coordinates": [9.112526178359984, 45.54750564381035]}}], "price": 1.776, "ultima_rilevazione": "27/04/2022 06:26:37"}, {"Gestore": "G.PETROLI S.A.S. DI GABANELLI LIVIO & C.", "Bandiera": "Pompe Bianche", "Tipo impianto": "Altro", "Indirizzo": "VIA Lampedusa 49 21042", "Nome impianto": "G.  Gabanelli", "Comune": "CARONNO PERTUSELLA", "idImpianto": 39660, "points": [{"type": "Feature", "properties": {}, "geometry": {"type": "Point", "coordinates": [9.05009038746357, 45.59071153491578]}}], "price": 1.719, "ultima_rilevazione": "27/04/2022 06:31:01"}, {"Gestore": "MORGANTI ALESSANDRO", "Bandiera": "Esso", "Tipo impianto": "Altro", "Indirizzo": "VIA VARESE 2 21047", "Nome impianto": "ESSO Morganti", "Comune": "SARONNO", "idImpianto": 17547, "points": [{"type": "Feature", "properties": {}, "geometry": {"type": "Point", "coordinates": [9.035031798147545, 45.61231131468677]}}], "price": 1.766, "ultima_rilevazione": "27/04/2022 06:40:17"}, {"Gestore": "STAZIONE DI SERVIZIO DI DI BERNARDO IVANO", "Bandiera": "Agip Eni", "Tipo impianto": "Altro", "Indirizzo": "VIA SORMANI 29 20095", "Nome impianto": "Stazione di servizio di Di Bernardo Ivano", "Comune": "CUSANO MILANINO", "idImpianto": 51338, "points": [{"type": "Feature", "properties": {}, "geometry": {"type": "Point", "coordinates": [9.185928728641352, 45.54929389932906]}}], "price": 1.794, "ultima_rilevazione": "27/04/2022 06:59:41"}, {"Gestore": "SERVIZI & GESTIONI ITALIA S.R.L.", "Bandiera": "Q8", "Tipo impianto": "Altro", "Indirizzo": "S.S.35(EX SP 44 MI-MEDA)  20822", "Nome impianto": "SEVESO S.S.35(EX SP 44 MI-MEDA)DIS.Q8", "Comune": "SEVESO", "idImpianto": 32483, "points": [{"type": "Feature", "properties": {}, "geometry": {"type": "Point", "coordinates": [9.157673791050913, 45.64048315913963]}}], "price": 1.709, "ultima_rilevazione": "27/04/2022 07:10:17"}, {"Gestore": "SERVIZI & GESTIONI ITALIA srl", "Bandiera": "Q8", "Tipo impianto": "Altro", "Indirizzo": "S.S.35 DEI GIOVI KM 143+750 SNC 20036", "Nome impianto": "MEDA S.S.35 DEI GIOVI KM 143+750", "Comune": "MEDA", "idImpianto": 6432, "points": [{"type": "Feature", "properties": {}, "geometry": {"type": "Point", "coordinates": [9.14577267050015, 45.6566811525372]}}], "price": 1.709, "ultima_rilevazione": "27/04/2022 07:10:17"}, {"Gestore": "SERVIZI & GESTIONI ITALIA S.R.L.", "Bandiera": "Q8", "Tipo impianto": "Altro", "Indirizzo": "S.PROV. 44  MILANO-MEDA  20032", "Nome impianto": "CORMANO S.PROV. 44  MILANO-MEDA", "Comune": "CORMANO", "idImpianto": 51187, "points": [{"type": "Feature", "properties": {}, "geometry": {"type": "Point", "coordinates": [9.164995610692491, 45.55296297937115]}}], "price": 1.709, "ultima_rilevazione": "27/04/2022 07:10:18"}, {"Gestore": "SERVIZI & GESTIONI ITALIA S.R.L.", "Bandiera": "Q8", "Tipo impianto": "Altro", "Indirizzo": " VIA C.BATTISTI  20020", "Nome impianto": "COGLIATE VIA C.BATTISTI", "Comune": "COGLIATE", "idImpianto": 33177, "points": [{"type": "Feature", "properties": {}, "geometry": {"type": "Point", "coordinates": [9.079532912897548, 45.64368872008721]}}], "price": 1.749, "ultima_rilevazione": "27/04/2022 07:10:18"}, {"Gestore": "MOPE S.N.C. DI FUSCALDO G. E PATICELLA F.", "Bandiera": "Agip Eni", "Tipo impianto": "Altro", "Indirizzo": "VIA ROMA ANGOLO VIA MIOLA  21047", "Nome impianto": "ENI 56817 Mope S.n.c.", "Comune": "SARONNO", "idImpianto": 19040, "points": [{"type": "Feature", "properties": {}, "geometry": {"type": "Point", "coordinates": [9.046116239300543, 45.62424442587159]}}], "price": 1.779, "ultima_rilevazione": "27/04/2022 07:20:37"}, {"Gestore": "DICOMI S.R.L.", "Bandiera": "Q8", "Tipo impianto": "Altro", "Indirizzo": "VIA ARMANDO DIAZ 31 20834", "Nome impianto": "Q8", "Comune": "NOVA MILANESE", "idImpianto": 51349, "points": [{"type": "Feature", "properties": {}, "geometry": {"type": "Point", "coordinates": [9.200262000000016, 45.59991908386896]}}], "price": 1.719, "ultima_rilevazione": "27/04/2022 07:24:13"}, {"Gestore": "F.LLI TIRINATO NICOLA & PIETRO S.N.C.", "Bandiera": "Tamoil", "Tipo impianto": "Altro", "Indirizzo": "VIA SORMANI 38 20095", "Nome impianto": "Tamoil", "Comune": "CUSANO MILANINO", "idImpianto": 15514, "points": [{"type": "Feature", "properties": {}, "geometry": {"type": "Point", "coordinates": [9.186291620135307, 45.55366889427864]}}], "price": 1.989, "ultima_rilevazione": "27/04/2022 07:26:04"}, {"Gestore": "F.LLI TIRINATO NICOLA & PIETRO S.N.C.", "Bandiera": "Tamoil", "Tipo impianto": "Altro", "Indirizzo": "VIA SORMANI 38 20095", "Nome impianto": "Tamoil", "Comune": "CUSANO MILANINO", "idImpianto": 15514, "points": [{"type": "Feature", "properties": {}, "geometry": {"type": "Point", "coordinates": [9.186291620135307, 45.55366889427864]}}], "price": 1.849, "ultima_rilevazione": "27/04/2022 07:26:04"}, {"Gestore": "SERVIZI & GESTIONI ITALIA S.R.L.", "Bandiera": "Q8", "Tipo impianto": "Altro", "Indirizzo": "VIA GARBAGNATE 58/60 20020", "Nome impianto": "LAINATE-VIA GARBAGNATE 58/60", "Comune": "LAINATE", "idImpianto": 11685, "points": [{"type": "Feature", "properties": {}, "geometry": {"type": "Point", "coordinates": [9.042500000000018, 45.57374541847877]}}], "price": 1.779, "ultima_rilevazione": "27/04/2022 07:39:32"}, {"Gestore": "REPACI FRANCESCO", "Bandiera": "Agip Eni", "Tipo impianto": "Strada Statale", "Indirizzo": "Strada Statale, Km. 30, Milano-Seveso 20825", "Nome impianto": "Eni Station ", "Comune": "BARLASSINA", "idImpianto": 48637, "points": [{"type": "Feature", "properties": {}, "geometry": {"type": "Point", "coordinates": [9.131331868717174, 45.65231387403775]}}], "price": 1.799, "ultima_rilevazione": "27/04/2022 07:50:03"}]}, "Gasolio High Quality": {"1": [{"Gestore": "ESSO SERVICE S.A.S. DI STELLUTI DANIELE & C.", "Bandiera": "Esso", "Tipo impianto": "Altro", "Indirizzo": "Via Nazionale dei Giovi 4 20813", "Nome impianto": "Esso", "Comune": "BOVISIO-MASCIAGO", "idImpianto": 38135, "points": [{"type": "Feature", "properties": {}, "geometry": {"type": "Point", "coordinates": [9.145391285419464, 45.60054215871005]}}], "price": 1.889, "ultima_rilevazione": "26/04/2022 08:11:12"}], "3": [{"Gestore": "IEVA VINCENZO", "Bandiera": "OIL ONE", "Tipo impianto": "Altro", "Indirizzo": "EX S.S. 527 KM 7+885  20814", "Nome impianto": "OIL ONE", "Comune": "VAREDO", "idImpianto": 48993, "points": [{"type": "Feature", "properties": {}, "geometry": {"type": "Point", "coordinates": [9.158191955959492, 45.60393141410619]}}], "price": 1.859, "ultima_rilevazione": "26/04/2022 09:59:23"}, {"Gestore": "ESSO SERVICE S.A.S. DI STELLUTI DANIELE & C.", "Bandiera": "Esso", "Tipo impianto": "Altro", "Indirizzo": "Via Giuseppe Garibaldi 132 20024", "Nome impianto": "Esso", "Comune": "GARBAGNATE MILANESE", "idImpianto": 42136, "points": [{"type": "Feature", "properties": {}, "geometry": {"type": "Point", "coordinates": [9.076157453967426, 45.56543979927998]}}], "price": 1.909, "ultima_rilevazione": "27/04/2022 07:40:22"}], "5": [{"Gestore": "RUSSO GIORGIO", "Bandiera": "Esso", "Tipo impianto": "Altro", "Indirizzo": "VIA GIUSEPPE GARIBALDI 306 20832", "Nome impianto": "ESSO ", "Comune": "DESIO", "idImpianto": 21100, "points": [{"type": "Feature", "properties": {}, "geometry": {"type": "Point", "coordinates": [9.202510938048365, 45.6069307654106]}}], "price": 1.939, "ultima_rilevazione": "26/04/2022 08:37:26"}, {"Gestore": "CUSITEX DI CIRRINCIONE DOMENICO E C. S.N.C.", "Bandiera": "Esso", "Tipo impianto": "Altro", "Indirizzo": "VIA G. VERDI  20021", "Nome impianto": "via verdi", "Comune": "BOLLATE", "idImpianto": 8741, "points": [{"type": "Feature", "properties": {}, "geometry": {"type": "Point", "coordinates": [9.112526178359984, 45.54750564381035]}}], "price": 1.936, "ultima_rilevazione": "27/04/2022 06:26:37"}, {"Gestore": "MORGANTI ALESSANDRO", "Bandiera": "Esso", "Tipo impianto": "Altro", "Indirizzo": "VIA VARESE 2 21047", "Nome impianto": "ESSO Morganti", "Comune": "SARONNO", "idImpianto": 17547, "points": [{"type": "Feature", "properties": {}, "geometry": {"type": "Point", "coordinates": [9.035031798147545, 45.61231131468677]}}], "price": 1.936, "ultima_rilevazione": "27/04/2022 06:40:17"}]}, "null": {}, "GPL": {"1": [{"Gestore": "CASOLO STEFANO", "Bandiera": "Agip Eni", "Tipo impianto": "Altro", "Indirizzo": "Via risorgimento 70/1 20037", "Nome impianto": "Eni di Casolo Stefano", "Comune": "PADERNO DUGNANO", "idImpianto": 39661, "points": [{"type": "Feature", "properties": {}, "geometry": {"type": "Point", "coordinates": [9.144410267472267, 45.57794022591459]}}], "price": 0.869, "ultima_rilevazione": "26/04/2022 17:55:14"}, {"Gestore": "GOLDEN WASH S.R.L.", "Bandiera": "Pompe Bianche", "Tipo impianto": "Altro", "Indirizzo": "via monte grappa 1 20051", "Nome impianto": "golden wash ", "Comune": "LIMBIATE", "idImpianto": 24545, "points": [{"type": "Feature", "properties": {}, "geometry": {"type": "Point", "coordinates": [9.122843666838548, 45.60645584861527]}}], "price": 0.869, "ultima_rilevazione": "26/04/2022 18:04:38"}], "3": [{"Gestore": "S.M.C. SNC DI AGNANI MASSIMO E STEFANO", "Bandiera": "Beyfin", "Tipo impianto": "Strada Statale", "Indirizzo": "Statale 35 dei Giovi, Km. 134, dir. sud", "Nome impianto": "S.M.C. SNC DI AGNANI MASSIMO E STEFANO", "Comune": "PADERNO DUGNANO", "idImpianto": 24113, "points": [{"type": "Feature", "properties": {}, "geometry": {"type": "Point", "coordinates": [9.17557418346405, 45.57421087244983]}}], "price": 0.879, "ultima_rilevazione": "23/04/2022 11:18:00"}, {"Gestore": "C- PETROL S.R.L.", "Bandiera": "Pompe Bianche", "Tipo impianto": "Altro", "Indirizzo": "VIA TRATTATI DI ROMA  20024", "Nome impianto": "EKO POINT", "Comune": "GARBAGNATE MILANESE", "idImpianto": 28454, "points": [{"type": "Feature", "properties": {}, "geometry": {"type": "Point", "coordinates": [9.057772904634476, 45.578883991894855]}}], "price": 0.879, "ultima_rilevazione": "26/04/2022 08:59:01"}, {"Gestore": "SERVIZI & GESTIONI ITALIA S.R.L.", "Bandiera": "Q8", "Tipo impianto": "Altro", "Indirizzo": "FZ.PALAZZOLO SS/SP 35 KM.6+550 OVEST S/N 20037", "Nome impianto": "PADERNO DUGNANO-FZ.PALAZZOLO SS/SP35KM.6+550 OVEST", "Comune": "PADERNO DUGNANO", "idImpianto": 11678, "points": [{"type": "Feature", "properties": {}, "geometry": {"type": "Point", "coordinates": [9.173264373016307, 45.588769325187954]}}], "price": 0.879, "ultima_rilevazione": "27/04/2022 07:10:18"}], "5": [{"Gestore": "EUROGAS NOVA S.R.L.", "Bandiera": "Pompe Bianche", "Tipo impianto": "Altro", "Indirizzo": "Via G. A. Diaz 31 20834", "Nome impianto": "EUROGAS", "Comune": "NOVA MILANESE", "idImpianto": 49274, "points": [{"type": "Feature", "properties": {}, "geometry": {"type": "Point", "coordinates": [9.200202285811043, 45.59990726284961]}}], "price": 0.799, "ultima_rilevazione": "06/10/2021 00:08:48"}, {"Gestore": "NUOVA SIDAP  S.R.L.", "Bandiera": "Api-Ip", "Tipo impianto": "Autostradale", "Indirizzo": "A52 TANG.LE NORD DI MILANO, Km. 10,9, Est 20092", "Nome impianto": "CINISELLO B. NORD", "Comune": "CINISELLO BALSAMO", "idImpianto": 43748, "points": [{"type": "Feature", "properties": {}, "geometry": {"type": "Point", "coordinates": [9.19825166463852, 45.57018517883253]}}], "price": 0.965, "ultima_rilevazione": "24/04/2022 10:51:49"}, {"Gestore": "DE CAPRARIS PASQUALE", "Bandiera": "Agip Eni", "Tipo impianto": "Altro", "Indirizzo": "VIA JF KENNEDY  61 20024", "Nome impianto": "DISTRIBUTORE GPL BRIXIA", "Comune": "GARBAGNATE MILANESE", "idImpianto": 47133, "points": [{"type": "Feature", "properties": {}, "geometry": {"type": "Point", "coordinates": [9.070534000123, 45.562744000123]}}], "price": 0.889, "ultima_rilevazione": "25/04/2022 09:32:48"}, {"Gestore": "DICOMI S.R.L.", "Bandiera": "Q8", "Tipo impianto": "Altro", "Indirizzo": "VIA ARMANDO DIAZ 31 20834", "Nome impianto": "Q8", "Comune": "NOVA MILANESE", "idImpianto": 51349, "points": [{"type": "Feature", "properties": {}, "geometry": {"type": "Point", "coordinates": [9.200262000000016, 45.59991908386896]}}], "price": 0.869, "ultima_rilevazione": "27/04/2022 07:24:13"}, {"Gestore": "NIGRO SNC DI NIGRO ANTONINO E MAURO", "Bandiera": "Agip Eni", "Tipo impianto": "Strada Statale", "Indirizzo": "35 dei Giovi, Km. 132+300, Nord 20037", "Nome impianto": "enimilanomeda", "Comune": "PADERNO DUGNANO", "idImpianto": 50212, "points": [{"type": "Feature", "properties": {}, "geometry": {"type": "Point", "coordinates": [9.173606993586697, 45.559938200567736]}}], "price": 0.905, "ultima_rilevazione": "27/04/2022 05:48:52"}, {"Gestore": "G.PETROLI S.A.S. DI GABANELLI LIVIO & C.", "Bandiera": "Pompe Bianche", "Tipo impianto": "Altro", "Indirizzo": "VIA Lampedusa 49 21042", "Nome impianto": "G.  Gabanelli", "Comune": "CARONNO PERTUSELLA", "idImpianto": 39660, "points": [{"type": "Feature", "properties": {}, "geometry": {"type": "Point", "coordinates": [9.05009038746357, 45.59071153491578]}}], "price": 0.878, "ultima_rilevazione": "27/04/2022 06:31:01"}, {"Gestore": "SERVIZI & GESTIONI ITALIA srl", "Bandiera": "Q8", "Tipo impianto": "Altro", "Indirizzo": "S.S.35 DEI GIOVI KM 143+750 SNC 20036", "Nome impianto": "MEDA S.S.35 DEI GIOVI KM 143+750", "Comune": "MEDA", "idImpianto": 6432, "points": [{"type": "Feature", "properties": {}, "geometry": {"type": "Point", "coordinates": [9.14577267050015, 45.6566811525372]}}], "price": 0.879, "ultima_rilevazione": "27/04/2022 07:10:17"}, {"Gestore": "SERVIZI & GESTIONI ITALIA S.R.L.", "Bandiera": "Q8", "Tipo impianto": "Altro", "Indirizzo": "S.PROV. 44  MILANO-MEDA  20032", "Nome impianto": "CORMANO S.PROV. 44  MILANO-MEDA", "Comune": "CORMANO", "idImpianto": 51187, "points": [{"type": "Feature", "properties": {}, "geometry": {"type": "Point", "coordinates": [9.164995610692491, 45.55296297937115]}}], "price": 0.879, "ultima_rilevazione": "27/04/2022 07:10:18"}]}, "Gasolio": {"1": [{"Gestore": "CASOLO STEFANO", "Bandiera": "Agip Eni", "Tipo impianto": "Altro", "Indirizzo": "Via risorgimento 70/1 20037", "Nome impianto": "Eni di Casolo Stefano", "Comune": "PADERNO DUGNANO", "idImpianto": 39661, "points": [{"type": "Feature", "properties": {}, "geometry": {"type": "Point", "coordinates": [9.144410267472267, 45.57794022591459]}}], "price": 2.194, "ultima_rilevazione": "26/04/2022 17:55:14"}, {"Gestore": "FRANCESCON MARCO", "Bandiera": "Api-Ip", "Tipo impianto": "Altro", "Indirizzo": "C.SO MILANO 75, 00230630968 75 20813", "Nome impianto": "FRANCESCONMARCO", "Comune": "BOVISIO-MASCIAGO", "idImpianto": 46083, "points": [{"type": "Feature", "properties": {}, "geometry": {"type": "Point", "coordinates": [9.145811621881194, 45.6069888381622]}}], "price": 1.739, "ultima_rilevazione": "21/04/2022 17:52:23"}, {"Gestore": "CURSIO MAURIZIO", "Bandiera": "Moro", "Tipo impianto": "Altro", "Indirizzo": "CORSO ITALIA 48 20813", "Nome impianto": "distributore IP _ Cursio", "Comune": "BOVISIO-MASCIAGO", "idImpianto": 18309, "points": [{"type": "Feature", "properties": {}, "geometry": {"type": "Point", "coordinates": [9.14758187609209, 45.613089508461904]}}], "price": 1.769, "ultima_rilevazione": "22/04/2022 20:29:00"}, {"Gestore": "RE.PA. S.A.S. DI REPARATO VINCENZO & C.", "Bandiera": "Retitalia", "Tipo impianto": "Strada Statale", "Indirizzo": "527 Bustese, Km. 10+488, Nord 20812", "Nome impianto": "RETITALIA ", "Comune": "LIMBIATE", "idImpianto": 44911, "points": [{"type": "Feature", "properties": {}, "geometry": {"type": "Point", "coordinates": [9.125187234533996, 45.60680536884407]}}], "price": 1.829, "ultima_rilevazione": "23/04/2022 07:53:03"}, {"Gestore": "SERVIZI & GESTIONI ITALIA S.R.L.", "Bandiera": "Q8", "Tipo impianto": "Altro", "Indirizzo": "VIA DEI MILLE 106 20051", "Nome impianto": "LIMBIATE-VIA DEI MILLE 106", "Comune": "LIMBIATE", "idImpianto": 11648, "points": [{"type": "Feature", "properties": {}, "geometry": {"type": "Point", "coordinates": [9.138557492065388, 45.59771501375995]}}], "price": 1.754, "ultima_rilevazione": "25/04/2022 00:33:02"}, {"Gestore": "SERVIZI & GESTIONI ITALIA srl", "Bandiera": "Q8", "Tipo impianto": "Altro", "Indirizzo": "VIA TRIESTE  105 - DISTR. Q8 SNC 20051", "Nome impianto": "LIMBIATE VIA TRIESTE  105 - DISTR. Q8", "Comune": "LIMBIATE", "idImpianto": 6450, "points": [{"type": "Feature", "properties": {}, "geometry": {"type": "Point", "coordinates": [9.132589945368975, 45.595337657608255]}}], "price": 1.734, "ultima_rilevazione": "25/04/2022 00:33:16"}, {"Gestore": "ESSO SERVICE S.A.S. DI STELLUTI DANIELE & C.", "Bandiera": "Esso", "Tipo impianto": "Altro", "Indirizzo": "Via Nazionale dei Giovi 4 20813", "Nome impianto": "Esso", "Comune": "BOVISIO-MASCIAGO", "idImpianto": 38135, "points": [{"type": "Feature", "properties": {}, "geometry": {"type": "Point", "coordinates": [9.145391285419464, 45.60054215871005]}}], "price": 1.739, "ultima_rilevazione": "26/04/2022 08:11:12"}, {"Gestore": "LOMBARDI STEFANO", "Bandiera": "Agip Eni", "Tipo impianto": "Altro", "Indirizzo": "VIA TOGLIATTI 47 20037", "Nome impianto": "stazione di servizio eni di lombardi stefano", "Comune": "PADERNO DUGNANO", "idImpianto": 44608, "points": [{"type": "Feature", "properties": {}, "geometry": {"type": "Point", "coordinates": [9.15239831590361, 45.57772291146348]}}], "price": 1.824, "ultima_rilevazione": "26/04/2022 08:44:13"}, {"Gestore": "PETROL CRI DI REPARATO CRISTIAN", "Bandiera": "Api-Ip", "Tipo impianto": "Altro", "Indirizzo": "VIA XXV APRILE   20812", "Nome impianto": "ITALIANA PETROLI ", "Comune": "LIMBIATE", "idImpianto": 45380, "points": [{"type": "Feature", "properties": {}, "geometry": {"type": "Point", "coordinates": [9.119485169649124, 45.58977655922272]}}], "price": 1.949, "ultima_rilevazione": "26/04/2022 08:57:15"}, {"Gestore": "PETROL CRI DI REPARATO CRISTIAN", "Bandiera": "Api-Ip", "Tipo impianto": "Altro", "Indirizzo": "VIA DEI MILLE 22 20812", "Nome impianto": "ITALIANA PETROLI", "Comune": "LIMBIATE", "idImpianto": 45383, "points": [{"type": "Feature", "properties": {}, "geometry": {"type": "Point", "coordinates": [9.126281657558025, 45.60125590649502]}}], "price": 1.779, "ultima_rilevazione": "26/04/2022 08:58:45"}, {"Gestore": "GALLUCCI SABRINA", "Bandiera": "Tamoil", "Tipo impianto": "Altro", "Indirizzo": "VIA XIV STRADA 10 20020", "Nome impianto": "Tamoil ", "Comune": "CESATE", "idImpianto": 35748, "points": [{"type": "Feature", "properties": {}, "geometry": {"type": "Point", "coordinates": [9.095667153596878, 45.59531739094676]}}], "price": 1.759, "ultima_rilevazione": "26/04/2022 10:14:06"}, {"Gestore": "AGOSTINI OLIVIERO E PIERI GIACOMO S.N.C.", "Bandiera": "Agip Eni", "Tipo impianto": "Altro", "Indirizzo": "VIALE DEI MILLE 34 20812", "Nome impianto": "AGOSTINI O E PIERI G", "Comune": "LIMBIATE", "idImpianto": 12872, "points": [{"type": "Feature", "properties": {}, "geometry": {"type": "Point", "coordinates": [9.128793612372649, 45.600501986426245]}}], "price": 1.829, "ultima_rilevazione": "26/04/2022 15:03:04"}, {"Gestore": "ARTICO & PALAZZI S.N.C. DI ARTICO NICHOLAS", "Bandiera": "Tamoil", "Tipo impianto": "Altro", "Indirizzo": "CORSO EUROPA 72 20020", "Nome impianto": "STAZIONE DI SERVIZIO TAMOIL", "Comune": "SOLARO", "idImpianto": 25413, "points": [{"type": "Feature", "properties": {}, "geometry": {"type": "Point", "coordinates": [9.093176202945417, 45.6092497143197]}}], "price": 1.759, "ultima_rilevazione": "26/04/2022 15:08:13"}, {"Gestore": "SERVIZI E GESTIONI ZENIT S.R.L. IN SIGLA - ZENIT S.R.L.", "Bandiera": "Esso", "Tipo impianto": "Altro", "Indirizzo": "VIA CAVOUR 79 20030", "Nome impianto": "VIA CAVOUR, 79 SENAGO", "Comune": "SENAGO", "idImpianto": 24399, "points": [{"type": "Feature", "properties": {}, "geometry": {"type": "Point", "coordinates": [9.129318813491864, 45.58245416727176]}}], "price": 1.758, "ultima_rilevazione": "26/04/2022 17:44:55"}, {"Gestore": "NUOVA SIDAP  S.R.L.", "Bandiera": "Esso", "Tipo impianto": "Altro", "Indirizzo": "VIA REALI 106 20037", "Nome impianto": "Paderno Dugnano", "Comune": "PADERNO DUGNANO", "idImpianto": 43746, "points": [{"type": "Feature", "properties": {}, "geometry": {"type": "Point", "coordinates": [9.146991968154907, 45.57574929016682]}}], "price": 1.752, "ultima_rilevazione": "27/04/2022 06:33:39"}], "3": [{"Gestore": "GM S.A.S. DI CALANDRA GIOVANNI & C.", "Bandiera": "Api-Ip", "Tipo impianto": "Strada Statale", "Indirizzo": "527 Bustese, Km. 6+829, Sud-Est 20814", "Nome impianto": "IP", "Comune": "VAREDO", "idImpianto": 48651, "points": [{"type": "Feature", "properties": {}, "geometry": {"type": "Point", "coordinates": [9.16818677389342, 45.59807912912228]}}], "price": 1.689, "ultima_rilevazione": "12/04/2022 21:35:49"}, {"Gestore": "ROSS BENZ DI PONTI ROSSANO", "Bandiera": "Agip Eni", "Tipo impianto": "Altro", "Indirizzo": "CORSO ISONZO 5 20822", "Nome impianto": "ROSSBENZ", "Comune": "SEVESO", "idImpianto": 9678, "points": [{"type": "Feature", "properties": {}, "geometry": {"type": "Point", "coordinates": [9.143085253967229, 45.64273849574598]}}], "price": 1.824, "ultima_rilevazione": "21/04/2022 08:40:03"}, {"Gestore": "WANG LIZHEN DISTRIBUTORE", "Bandiera": "Api-Ip", "Tipo impianto": "Altro", "Indirizzo": "CORSO EUROPA 9 20020", "Nome impianto": "Distributore IP", "Comune": "SOLARO", "idImpianto": 50233, "points": [{"type": "Feature", "properties": {}, "geometry": {"type": "Point", "coordinates": [9.090636670589449, 45.61698480286472]}}], "price": 1.935, "ultima_rilevazione": "21/04/2022 09:04:11"}, {"Gestore": "F.LLI CERUTI S.N.C. DI ANGELO E ATTILIO CERUTI", "Bandiera": "Tamoil", "Tipo impianto": "Altro", "Indirizzo": "STRADA PROVINCIALE 35 MILANO MEDA  20037", "Nome impianto": "TAMOIL", "Comune": "PADERNO DUGNANO", "idImpianto": 16979, "points": [{"type": "Feature", "properties": {}, "geometry": {"type": "Point", "coordinates": [9.17536363005638, 45.583678765520126]}}], "price": 1.729, "ultima_rilevazione": "21/04/2022 12:02:11"}, {"Gestore": "SAETTI MARA", "Bandiera": "Q8", "Tipo impianto": "Altro", "Indirizzo": "VIA NAZIONALE DEI GIOVI 26 20811", "Nome impianto": "Q8 di saetti mara", "Comune": "CESANO MADERNO", "idImpianto": 7811, "points": [{"type": "Feature", "properties": {}, "geometry": {"type": "Point", "coordinates": [9.138087630271912, 45.63401191390325]}}], "price": 1.799, "ultima_rilevazione": "22/04/2022 09:26:36"}, {"Gestore": "GS SPA", "Bandiera": "Q8", "Tipo impianto": "Altro", "Indirizzo": "S.S. 35 dei Giovi  20037", "Nome impianto": "Carrefour Q8 Paderno", "Comune": "PADERNO DUGNANO", "idImpianto": 48742, "points": [{"type": "Feature", "properties": {}, "geometry": {"type": "Point", "coordinates": [9.17677844662704, 45.574291657480615]}}], "price": 1.709, "ultima_rilevazione": "22/04/2022 16:05:36"}, {"Gestore": "FABIO AUTOFFICINA DI DI CICCO FABIO", "Bandiera": "Esso", "Tipo impianto": "Altro", "Indirizzo": "VIA SARDEGNA 24 20811", "Nome impianto": "FABIO AUTOFFICINA", "Comune": "CESANO MADERNO", "idImpianto": 12717, "points": [{"type": "Feature", "properties": {}, "geometry": {"type": "Point", "coordinates": [9.1229827355819, 45.6363123611598]}}], "price": 1.739, "ultima_rilevazione": "23/04/2022 08:22:19"}, {"Gestore": "S.M.C. SNC DI AGNANI MASSIMO E STEFANO", "Bandiera": "Beyfin", "Tipo impianto": "Strada Statale", "Indirizzo": "Statale 35 dei Giovi, Km. 134, dir. sud", "Nome impianto": "S.M.C. SNC DI AGNANI MASSIMO E STEFANO", "Comune": "PADERNO DUGNANO", "idImpianto": 24113, "points": [{"type": "Feature", "properties": {}, "geometry": {"type": "Point", "coordinates": [9.17557418346405, 45.57421087244983]}}], "price": 1.719, "ultima_rilevazione": "23/04/2022 11:18:00"}, {"Gestore": "SERVIZI & GESTIONI ITALIA S.R.L.", "Bandiera": "Q8", "Tipo impianto": "Altro", "Indirizzo": "VIA ROMA 43 20020", "Nome impianto": "CESATE-VIA ROMA 43", "Comune": "CESATE", "idImpianto": 11703, "points": [{"type": "Feature", "properties": {}, "geometry": {"type": "Point", "coordinates": [9.078240991401684, 45.59066381652534]}}], "price": 1.769, "ultima_rilevazione": "25/04/2022 00:33:07"}, {"Gestore": "SERVIZI & GESTIONI ITALIA S.R.L.", "Bandiera": "Q8", "Tipo impianto": "Altro", "Indirizzo": "VIA GARIBALDI FZ. S MARIA ROSSA 89 20024", "Nome impianto": "GARBAGNATE-VIA GARIBALDI 89 FZ. S MARIA ROSSA", "Comune": "GARBAGNATE MILANESE", "idImpianto": 11689, "points": [{"type": "Feature", "properties": {}, "geometry": {"type": "Point", "coordinates": [9.07466973743442, 45.5674187773307]}}], "price": 1.769, "ultima_rilevazione": "25/04/2022 00:33:09"}, {"Gestore": "SERVIZI & GESTIONI ITALIA S.R.L.", "Bandiera": "Q8", "Tipo impianto": "Altro", "Indirizzo": "S.S. BUSTESE VIA VARESE 216 20020", "Nome impianto": "SOLARO-S.S. BUSTESE VIA VARESE 216", "Comune": "SOLARO", "idImpianto": 11665, "points": [{"type": "Feature", "properties": {}, "geometry": {"type": "Point", "coordinates": [9.064423789024318, 45.61763752107878]}}], "price": 1.779, "ultima_rilevazione": "25/04/2022 00:33:15"}, {"Gestore": "SERVIZI & GESTIONI ITALIA S.R.L.", "Bandiera": "Q8", "Tipo impianto": "Altro", "Indirizzo": "VIALE 5 GIORNATE  21042", "Nome impianto": "CARONNO PERTUSELLA - VIALE 5 GIORNATE", "Comune": "CARONNO PERTUSELLA", "idImpianto": 30797, "points": [{"type": "Feature", "properties": {}, "geometry": {"type": "Point", "coordinates": [9.060047826983691, 45.58166503439931]}}], "price": 1.769, "ultima_rilevazione": "25/04/2022 00:33:20"}, {"Gestore": "ARBOLINO DI ARBOLINO TIZIANA E C. SAS", "Bandiera": "Esso", "Tipo impianto": "Altro", "Indirizzo": "VIA PELORITANA 0056 20024", "Nome impianto": "Esso", "Comune": "GARBAGNATE MILANESE", "idImpianto": 27947, "points": [{"type": "Feature", "properties": {}, "geometry": {"type": "Point", "coordinates": [9.06746388085014, 45.57460538609306]}}], "price": 1.769, "ultima_rilevazione": "26/04/2022 07:28:06"}, {"Gestore": "MIKKA SAS DI CAVALLO STEFANO & C.", "Bandiera": "Api-Ip", "Tipo impianto": "Altro", "Indirizzo": "VIA VARESE 56 20024", "Nome impianto": "TOTALERG", "Comune": "GARBAGNATE MILANESE", "idImpianto": 28768, "points": [{"type": "Feature", "properties": {}, "geometry": {"type": "Point", "coordinates": [9.076316356658936, 45.57581724330161]}}], "price": 1.966, "ultima_rilevazione": "26/04/2022 08:48:35"}, {"Gestore": "IEVA VINCENZO", "Bandiera": "OIL ONE", "Tipo impianto": "Altro", "Indirizzo": "EX S.S. 527 KM 7+885  20814", "Nome impianto": "OIL ONE", "Comune": "VAREDO", "idImpianto": 48993, "points": [{"type": "Feature", "properties": {}, "geometry": {"type": "Point", "coordinates": [9.158191955959492, 45.60393141410619]}}], "price": 1.749, "ultima_rilevazione": "26/04/2022 09:59:23"}, {"Gestore": "IP SERVICES S.R.L.", "Bandiera": "Api-Ip", "Tipo impianto": "Altro", "Indirizzo": "VIA MONTERESEGONE 67 20031", "Nome impianto": "CESANO MADERNO-RESEGONE", "Comune": "CESANO MADERNO", "idImpianto": 28719, "points": [{"type": "Feature", "properties": {}, "geometry": {"type": "Point", "coordinates": [9.16732570982174, 45.62525623601152]}}], "price": 1.729, "ultima_rilevazione": "26/04/2022 12:02:52"}, {"Gestore": "SERVIZI E GESTIONI ZENIT S.R.L. IN SIGLA - ZENIT S.R.L.", "Bandiera": "Giap", "Tipo impianto": "Altro", "Indirizzo": "VIA DESIO 50 20030", "Nome impianto": "VIA DESIO - BOVISIO MASCIAGO", "Comune": "BOVISIO-MASCIAGO", "idImpianto": 32972, "points": [{"type": "Feature", "properties": {}, "geometry": {"type": "Point", "coordinates": [9.16067808673222, 45.61334190429158]}}], "price": 1.759, "ultima_rilevazione": "26/04/2022 17:44:50"}, {"Gestore": "SERVIZI E GESTIONI ZENIT S.R.L. IN SIGLA - ZENIT S.R.L.", "Bandiera": "Esso", "Tipo impianto": "Altro", "Indirizzo": "VIA CIRCONVALLAZIONE (EX SS 527 BUSTESE)  20814", "Nome impianto": "VIA CIRCONVALLAZIONE VAREDO", "Comune": "VAREDO", "idImpianto": 22380, "points": [{"type": "Feature", "properties": {}, "geometry": {"type": "Point", "coordinates": [9.153016898147598, 45.60391424697533]}}], "price": 1.749, "ultima_rilevazione": "26/04/2022 17:44:51"}, {"Gestore": "SERVIZI E GESTIONI ZENIT S.R.L. IN SIGLA - ZENIT S.R.L.", "Bandiera": "Giap", "Tipo impianto": "Altro", "Indirizzo": "VIA XXIV MAGGIO  20030", "Nome impianto": "VIA XXIV MAGGIO SENAGO", "Comune": "SENAGO", "idImpianto": 24400, "points": [{"type": "Feature", "properties": {}, "geometry": {"type": "Point", "coordinates": [9.116305728836096, 45.57547650985402]}}], "price": 1.758, "ultima_rilevazione": "26/04/2022 17:44:53"}, {"Gestore": "SERVIZI E GESTIONI ZENIT S.R.L. IN SIGLA - ZENIT S.R.L.", "Bandiera": "Esso", "Tipo impianto": "Altro", "Indirizzo": "VIA GAVINANA 18 20024", "Nome impianto": "V.GAVINANA GARBA", "Comune": "GARBAGNATE MILANESE", "idImpianto": 12063, "points": [{"type": "Feature", "properties": {}, "geometry": {"type": "Point", "coordinates": [9.07853596808809, 45.57874058957802]}}], "price": 1.768, "ultima_rilevazione": "26/04/2022 17:44:54"}, {"Gestore": "SERVIZI E GESTIONI ZENIT S.R.L. IN SIGLA - ZENIT S.R.L.", "Bandiera": "Esso", "Tipo impianto": "Altro", "Indirizzo": "VIA PACE 38 20021", "Nome impianto": "VIA PACE BOLLATE", "Comune": "BOLLATE", "idImpianto": 28598, "points": [{"type": "Feature", "properties": {}, "geometry": {"type": "Point", "coordinates": [9.131144732236862, 45.55917463931419]}}], "price": 1.759, "ultima_rilevazione": "26/04/2022 17:44:56"}, {"Gestore": "F.LLI PANDOLFO S.N.C. DI PANDOLFO LEOPOLDO E GIANNI", "Bandiera": "Agip Eni", "Tipo impianto": "Altro", "Indirizzo": "via roma 50 ", "Nome impianto": "ENI F.LLI PANDOLFO snc", "Comune": "SOLARO", "idImpianto": 18067, "points": [{"type": "Feature", "properties": {}, "geometry": {"type": "Point", "coordinates": [9.092313051223757, 45.61864135275116]}}], "price": 1.849, "ultima_rilevazione": "27/04/2022 06:46:51"}, {"Gestore": "SERVIZI & GESTIONI ITALIA S.R.L.", "Bandiera": "Q8", "Tipo impianto": "Altro", "Indirizzo": "FZ.PALAZZOLO SS/SP 35 KM.6+550 OVEST S/N 20037", "Nome impianto": "PADERNO DUGNANO-FZ.PALAZZOLO SS/SP35KM.6+550 OVEST", "Comune": "PADERNO DUGNANO", "idImpianto": 11678, "points": [{"type": "Feature", "properties": {}, "geometry": {"type": "Point", "coordinates": [9.173264373016307, 45.588769325187954]}}], "price": 1.729, "ultima_rilevazione": "27/04/2022 07:10:18"}, {"Gestore": "SERVIZI & GESTIONI ITALIA S.R.L.", "Bandiera": "Q8", "Tipo impianto": "Altro", "Indirizzo": "VIA DON ANGHILERI S/N 20037", "Nome impianto": "PADERNO DUGNANO-VIA DON ANGHILERI", "Comune": "PADERNO DUGNANO", "idImpianto": 11705, "points": [{"type": "Feature", "properties": {}, "geometry": {"type": "Point", "coordinates": [9.164721865081788, 45.583733789381526]}}], "price": 1.749, "ultima_rilevazione": "27/04/2022 07:10:19"}, {"Gestore": "ESSO SERVICE S.A.S. DI STELLUTI DANIELE & C.", "Bandiera": "Esso", "Tipo impianto": "Altro", "Indirizzo": "Via Giuseppe Garibaldi 132 20024", "Nome impianto": "Esso", "Comune": "GARBAGNATE MILANESE", "idImpianto": 42136, "points": [{"type": "Feature", "properties": {}, "geometry": {"type": "Point", "coordinates": [9.076157453967426, 45.56543979927998]}}], "price": 1.759, "ultima_rilevazione": "27/04/2022 07:40:22"}], "5": [{"Gestore": "EUROGAS NOVA S.R.L.", "Bandiera": "Pompe Bianche", "Tipo impianto": "Altro", "Indirizzo": "Via G. A. Diaz 31 20834", "Nome impianto": "EUROGAS", "Comune": "NOVA MILANESE", "idImpianto": 49274, "points": [{"type": "Feature", "properties": {}, "geometry": {"type": "Point", "coordinates": [9.200202285811043, 45.59990726284961]}}], "price": 1.539, "ultima_rilevazione": "06/10/2021 00:08:48"}, {"Gestore": "SCARFONE COSIMO", "Bandiera": "Agip Eni", "Tipo impianto": "Altro", "Indirizzo": "via milano 230 20832", "Nome impianto": "ENI DESIO", "Comune": "DESIO", "idImpianto": 32877, "points": [{"type": "Feature", "properties": {}, "geometry": {"type": "Point", "coordinates": [9.199714064598083, 45.62074583216158]}}], "price": 1.809, "ultima_rilevazione": "19/04/2022 09:48:03"}, {"Gestore": "STAZIONE DI SERVIZIO KUWAIT DI MUNARI MAURO", "Bandiera": "Q8", "Tipo impianto": "Altro", "Indirizzo": "via seveso s.n.c. snc 20095", "Nome impianto": "stazione di servizio Q8 di mauro Munari", "Comune": "CUSANO MILANINO", "idImpianto": 50046, "points": [{"type": "Feature", "properties": {}, "geometry": {"type": "Point", "coordinates": [9.172633886337277, 45.555949923215685]}}], "price": 1.829, "ultima_rilevazione": "20/04/2022 07:58:31"}, {"Gestore": "MANDIA ANTONIO", "Bandiera": "Pompe Bianche", "Tipo impianto": "Altro", "Indirizzo": "VIA PER CESANO 44 20832", "Nome impianto": "NUOVA COMA SRL", "Comune": "DESIO", "idImpianto": 14095, "points": [{"type": "Feature", "properties": {}, "geometry": {"type": "Point", "coordinates": [9.195360888360597, 45.62368386848299]}}], "price": 1.799, "ultima_rilevazione": "21/04/2022 07:07:53"}, {"Gestore": "STAZIONE AGIP DI VETRI PAOLO E C. S.A.S.", "Bandiera": "Agip Eni", "Tipo impianto": "Altro", "Indirizzo": "VIA ANTONIO GRAMSCI 109 20037", "Nome impianto": "staz.agip di vetri paolo ", "Comune": "PADERNO DUGNANO", "idImpianto": 13647, "points": [{"type": "Feature", "properties": {}, "geometry": {"type": "Point", "coordinates": [9.17061626441796, 45.558841461515954]}}], "price": 1.839, "ultima_rilevazione": "21/04/2022 08:02:24"}, {"Gestore": "UBO.VAS. SNC DI MAURO UBOLDI & C.", "Bandiera": "Pompe Bianche", "Tipo impianto": "Altro", "Indirizzo": "corso della vittoria 919 21042", "Nome impianto": "Stazione Carburanti MORO", "Comune": "CARONNO PERTUSELLA", "idImpianto": 45857, "points": [{"type": "Feature", "properties": {}, "geometry": {"type": "Point", "coordinates": [9.040553000123, 45.604790000123]}}], "price": 1.759, "ultima_rilevazione": "21/04/2022 12:00:38"}, {"Gestore": "VASTOLA SIMONE", "Bandiera": "Agip Eni", "Tipo impianto": "Altro", "Indirizzo": "Via Adua angolo via Fantoni  20822", "Nome impianto": "Imp. Eni 2520 di Vastola Simone ", "Comune": "SEVESO", "idImpianto": 51050, "points": [{"type": "Feature", "properties": {}, "geometry": {"type": "Point", "coordinates": [9.143256416357657, 45.647692603352894]}}], "price": 1.829, "ultima_rilevazione": "21/04/2022 14:52:55"}, {"Gestore": "STAGNI RAFFAELE SNC DI STAGNI SERGIO, ENRICO & C.", "Bandiera": "Api-Ip", "Tipo impianto": "Altro", "Indirizzo": "VIA MILANO 2 20821", "Nome impianto": "STAGNI RAFFAELE S.N.C. di Stagni Sergio, Enrico & C.", "Comune": "MEDA", "idImpianto": 21486, "points": [{"type": "Feature", "properties": {}, "geometry": {"type": "Point", "coordinates": [9.14745536501232, 45.66213661846616]}}], "price": 1.903, "ultima_rilevazione": "21/04/2022 20:26:40"}, {"Gestore": "SERVIZI & GESTIONI ITALIA srl", "Bandiera": "Q8", "Tipo impianto": "Altro", "Indirizzo": "VIA OSPITALETTO SNC 20021", "Nome impianto": "BOLLATE VIA OSPITALETTO", "Comune": "BOLLATE", "idImpianto": 6447, "points": [{"type": "Feature", "properties": {}, "geometry": {"type": "Point", "coordinates": [9.144175796364609, 45.546976439492525]}}], "price": 1.739, "ultima_rilevazione": "22/04/2022 01:37:39"}, {"Gestore": "MCR S.N.C. DI MARTELLA FRANCESCO E C.", "Bandiera": "Q8", "Tipo impianto": "Altro", "Indirizzo": "VIA ANTONIO PARMA 3-5 21047", "Nome impianto": "area servizio q8", "Comune": "SARONNO", "idImpianto": 20637, "points": [{"type": "Feature", "properties": {}, "geometry": {"type": "Point", "coordinates": [9.031153321266174, 45.61241187080537]}}], "price": 1.789, "ultima_rilevazione": "22/04/2022 05:42:57"}, {"Gestore": "DI MULO CLAUDIO", "Bandiera": "Q8", "Tipo impianto": "Altro", "Indirizzo": "VIA BELLINI 8 20823", "Nome impianto": "Distributore Q8", "Comune": "LENTATE SUL SEVESO", "idImpianto": 35995, "points": [{"type": "Feature", "properties": {}, "geometry": {"type": "Point", "coordinates": [9.125770926475523, 45.66167910091443]}}], "price": 1.839, "ultima_rilevazione": "22/04/2022 07:14:38"}, {"Gestore": "T.D.M. S.R.L.", "Bandiera": "Tamoil", "Tipo impianto": "Altro", "Indirizzo": "VIA DELLA REPUBBLICA 6 20021", "Nome impianto": "8483", "Comune": "BOLLATE", "idImpianto": 46839, "points": [{"type": "Feature", "properties": {}, "geometry": {"type": "Point", "coordinates": [9.111826769940537, 45.54182715694789]}}], "price": 1.759, "ultima_rilevazione": "22/04/2022 13:00:05"},