{"area_comune": "[{\"type\": \"Feature\", \"properties\": {}, \"geometry\": {\"type\": \"Polygon\", \"coordinates\": [[[9.281083434717202, 45.647308494390195], [9.281458213293195, 45.64758009656497], [9.288052059202967, 45.64726663767934], [9.288044448020441, 45.64346870123508], [9.285836011654283, 45.64296002241359], [9.261421192585457, 45.632830001407044], [9.25339560771907, 45.62889251133208], [9.251902990175125, 45.630578981207115], [9.24656062894685, 45.62975520121364], [9.242495818056844, 45.62880271009331], [9.23905756202431, 45.63235274266608], [9.241879017998619, 45.63517308454293], [9.241473136218488, 45.6361730356798], [9.243513233285501, 45.639048977104885], [9.245018614635699, 45.63999535330906], [9.246238322076707, 45.64016374197372], [9.246569191888051, 45.63953296241514], [9.246678873242423, 45.63830411659383], [9.246907734180654, 45.6378265752949], [9.247929942348883, 45.63695128393293], [9.250756216787753, 45.636835913512584], [9.261357309696548, 45.63995612152174], [9.2755170413962, 45.64508335419762], [9.281083434717202, 45.647308494390195]]]}}]", "comune": "macherio", "buffer_1": "[{\"type\": \"Feature\", \"properties\": {}, \"geometry\": {\"type\": \"Polygon\", \"coordinates\": [[[9.277521614223774, 45.655955764218376], [9.278704293532476, 45.6561533318878], [9.279908329164822, 45.65627152885388], [9.28112291313164, 45.65630929413244], [9.282337142623927, 45.656266288733995], [9.283540118022541, 45.65614289871065], [9.284721040878921, 45.655940231685314], [9.285869310981065, 45.65566010689472], [9.286974621627442, 45.65530503883631], [9.28802705224805, 45.65487821466673], [9.289017157536366, 45.65438346555616], [9.295978500303145, 45.65054319292703], [9.296915830203371, 45.64997246886052], [9.297770141188224, 45.64934089944296], [9.29853344164481, 45.648654394818756], [9.29919859240855, 45.64791937898302], [9.299759373497324, 45.64714272961655], [9.300210542209156, 45.64633171368134], [9.300547882043222, 45.64549391938183], [9.300768241991214, 45.64463718513013], [9.300869565837178, 45.64376952618197], [9.300850911198406, 45.64289905963081], [9.300712458136509, 45.642033928462695], [9.300455507265747, 45.64118222538286], [9.30008246738409, 45.64035191712643], [9.299596832750202, 45.63955076996079], [9.299003150226016, 45.63878627707523], [9.298306976598557, 45.63806558853571], [9.297514826485598, 45.63739544445812], [9.296634111316624, 45.63678211202265], [9.29567306996278, 45.63623132691633], [9.294640691666084, 45.63574823974856], [9.259994916472222, 45.62117402405053], [9.258900145864784, 45.6207624026607], [9.257753789049291, 45.62042699630678], [9.256566589902466, 45.62017094826662], [9.255349674538243, 45.619996658073646], [9.254114447166087, 45.61990575906003], [9.252872483361115, 45.61989910307106], [9.251635421739575, 45.61997675249309], [9.250414855047612, 45.62013797966931], [9.249222221676726, 45.620381273708745], [9.234886084704724, 45.623840982656716], [9.23373459392253, 45.62416321930562], [9.232632794901187, 45.624561931507934], [9.23159097461341, 45.62503339709337], [9.230618860792339, 45.62557321460003], [9.229725531164735, 45.62617634431616], [9.228919328717126, 45.6268371552784], [9.228207783784628, 45.62754947779023], [9.227597543689715, 45.628306660972584], [9.227094310589333, 45.6291016348121], [9.226702788113386, 45.629926976129795], [9.226426637296957, 45.6307749778563], [9.226268442222995, 45.631637720968854], [9.226229685702462, 45.632507148419606], [9.226310735226017, 45.63337514036595], [9.2265108393259, 45.634233590001095], [9.226828134389619, 45.63507447927661], [9.227259661869462, 45.635889953809595], [9.227801395734431, 45.63667239627384], [9.23376138073271, 45.64431559055543], [9.234421999673893, 45.64507162135037], [9.235185490705081, 45.645778385164384], [9.236044445420685, 45.64642902061345], [9.236990527764727, 45.6470172109934], [9.238014554918548, 45.647537245664715], [9.239106586451438, 45.647984075554945], [9.240256020867893, 45.64835336223678], [9.241451698611694, 45.648641520102835], [9.277521614223774, 45.655955764218376]]]}}]", "buffer_3": "[{\"type\": \"Feature\", \"properties\": {}, \"geometry\": {\"type\": \"Polygon\", \"coordinates\": [[[9.270394700064099, 45.673249938794946], [9.273943782141021, 45.67384282219516], [9.277557013098928, 45.67419752181709], [9.28120192867419, 45.674310850807544], [9.284845778721406, 45.67418179100848], [9.288455822740282, 45.67381150214039], [9.291999625312856, 45.67320331133367], [9.29544534873997, 45.672362683104645], [9.298762040193115, 45.67129717005144], [9.301919910751533, 45.67001634472228], [9.30489060377354, 45.66853171328055], [9.311852604624086, 45.66469048121269], [9.314664757163033, 45.66297789885826], [9.317227622759763, 45.66108277754735], [9.319517229130048, 45.65902286314767], [9.321512169840858, 45.65681744260714], [9.323193804095903, 45.65448716289947], [9.3245464303094, 45.6520538372905], [9.325557431874785, 45.64954024075978], [9.326217393806772, 45.64696989651014], [9.32652018921763, 45.644366855579115], [9.326463034878653, 45.64175547162556], [9.326046515412717, 45.63916017300709], [9.325274575960583, 45.63660523428368], [9.324154483459097, 45.63411454928405], [9.322696756961218, 45.631711407851746], [9.320915067712912, 45.62941827834961], [9.31882610997811, 45.6272565979429], [9.316449443867674, 45.625246572605526], [9.31380731167967, 45.623406988699585], [9.310924429493939, 45.62175503786865], [9.30782775598276, 45.62030615685895], [9.273188111437214, 45.605735886931335], [9.269904462330473, 45.60450136564662], [9.266466232511192, 45.603495438536044], [9.262905622177607, 45.60272752452797], [9.259255972772142, 45.60220481362843], [9.255551455934159, 45.601932199870575], [9.251826754840366, 45.601912235680174], [9.248116740856378, 45.602145108075426], [9.244456148462998, 45.60262863691949], [9.240879251435517, 45.60335829524168], [9.22654693003384, 45.60681696028949], [9.22309331776399, 45.60778338447167], [9.2197886072672, 45.6089791833935], [9.216663633880211, 45.61039320311033], [9.213747562626278, 45.61201225326907], [9.211067616592741, 45.613821229712066], [9.208648823107557, 45.61580325491501], [9.206513780069406, 45.61793983497059], [9.204682444610825, 45.62021103167555], [9.203171946078484, 45.622595648137725], [9.201996425100408, 45.62507142619201], [9.201166900278427, 45.627615253801935], [9.200691163796796, 45.63020338052788], [9.20057370697695, 45.63281163906374], [9.200815676535735, 45.63541567078372], [9.20141486202238, 45.63799115319874], [9.202365714620631, 45.640514027199984], [9.20365939720911, 45.64296072196384], [9.205283865278297, 45.64530837541051], [9.211241712229539, 45.65295273661624], [9.213223020841014, 45.65522120544425], [9.215513168404954, 45.65734190314559], [9.218089942362829, 45.65929422982477], [9.220928338082695, 45.661059219076215], [9.224000801381624, 45.66261972277076], [9.227277496196658, 45.66396057819197], [9.230726594797142, 45.66506875587235], [9.23431458769713, 45.665933486668514], [9.270394700064099, 45.673249938794946]]]}}]", "buffer_5": "[{\"type\": \"Feature\", \"properties\": {}, \"geometry\": {\"type\": \"Polygon\", \"coordinates\": [[[9.263263416825213, 45.690543625932136], [9.269180295281414, 45.69153206594847], [9.275204221999054, 45.692123413420326], [9.281281022576358, 45.692312350404215], [9.287356043760168, 45.6920971779808], [9.29337464849882, 45.69147983163212], [9.299282710841142, 45.69046586369984], [9.305027106072197, 45.689064393087975], [9.310556191525531, 45.687288022679105], [9.315820273607882, 45.68515272523256], [9.320772056713764, 45.68267769882565], [9.327734714521343, 45.67883550666486], [9.332421905790651, 45.67598051874652], [9.336693234754753, 45.67282129453464], [9.340508751984203, 45.669387436233556], [9.34383279866939, 45.66571111371436], [9.346634338889478, 45.66182676182366], [9.348887247690184, 45.657770756626704], [9.35057055236136, 45.6535810736739], [9.351668624775359, 45.64929693154183], [9.352171323132396, 45.644958424027806], [9.352074081954354, 45.64060614447259], [9.351377949668274, 45.636280805748264], [9.35008957361962, 45.63202285947532], [9.348221132848815, 45.62787211802759], [9.345790219447455, 45.623867382845205], [9.342819669778882, 45.62004608250336], [9.339337347297898, 45.61644392388411], [9.335375879132156, 45.61309455966453], [9.33097234899093, 45.610029275175506], [9.32616794934217, 45.60727669749805], [9.321007596144264, 45.60486252945294], [9.286374082818206, 45.59029620177743], [9.280902438649901, 45.588239237231996], [9.275173455953333, 45.586563178113465], [9.269240749398525, 45.585283704510424], [9.263159826655812, 45.5844127854841], [9.256987572271912, 45.58395856784802], [9.250781719109701, 45.58392530047828], [9.2446003121303, 45.58431329483825], [9.238501169356985, 45.58511892207476], [9.232541344882964, 45.58633464671208], [9.21821283655242, 45.589792269021494], [9.212458248782077, 45.59140250022637], [9.206951541969772, 45.59339493616391], [9.20174406572979, 45.595751007817086], [9.19688439811751, 45.59844875459933], [9.192417894057373, 45.60146302782938], [9.188386262939286, 45.604765723870585], [9.184827179283632, 45.608326044820906], [9.181773930102194, 45.61211078438563], [9.179255102276155, 45.616084636327514], [9.177294312934103, 45.62021052267654], [9.175909985444804, 45.6244499386908], [9.175115173243292, 45.62876331139636], [9.174917433287506, 45.63311036839786], [9.175318750498827, 45.637450513545], [9.176315514077293, 45.64174320596358], [9.177898546104322, 45.645948338916206], [9.180053182356948, 45.6500266149462], [9.18275940476233, 45.65393991378023], [9.188715109903905, 45.66158544143811], [9.192016375328539, 45.66536685008689], [9.19583274360498, 45.668902023420806], [9.200127215054131, 45.67215660202241], [9.204858121313068, 45.67509894802644], [9.209979529293205, 45.677700454153914], [9.215441687655451, 45.67993582332543], [9.221191511443983, 45.681783316062635], [9.2271731001069, 45.68322496320355], [9.263263416825213, 45.690543625932136]]]}}]", "centroid": "[{\"type\": \"Feature\", \"properties\": {}, \"geometry\": {\"type\": \"Point\", \"coordinates\": [9.263073355609498, 45.63854372121729]}}]", "Benzina": {"1": [{"Gestore": "CHIAPPERINI PAOLO", "Bandiera": "Agip Eni", "Tipo impianto": "Altro", "Indirizzo": "viale monza  2 20845", "Nome impianto": "CHIAPPERINI PAOLO", "Comune": "SOVICO", "idImpianto": 43640, "points": [{"type": "Feature", "properties": {}, "geometry": {"type": "Point", "coordinates": [9.254779565641456, 45.65491274961172]}}], "price": 1.879, "ultima_rilevazione": "18/05/2022 07:07:07"}, {"Gestore": "CAROLI GIOVANNI", "Bandiera": "Q8", "Tipo impianto": "Altro", "Indirizzo": "VIA GIOVANNI DA SOVICO 129 20845", "Nome impianto": "Caroli Giovanni", "Comune": "SOVICO", "idImpianto": 19353, "points": [{"type": "Feature", "properties": {}, "geometry": {"type": "Point", "coordinates": [9.266958820866762, 45.64417784424008]}}], "price": 1.886, "ultima_rilevazione": "19/05/2022 18:00:25"}, {"Gestore": "RAIMONDO E CHIARA S.N.C. DI MARCUCCI RAIMONDO E C", "Bandiera": "Q8", "Tipo impianto": "Altro", "Indirizzo": "Viale Monza 19 20845", "Nome impianto": "Q8 di Raimondo e Chiara ", "Comune": "SOVICO", "idImpianto": 46917, "points": [{"type": "Feature", "properties": {}, "geometry": {"type": "Point", "coordinates": [9.25856351987874, 45.650415804145176]}}], "price": 1.879, "ultima_rilevazione": "19/05/2022 18:45:38"}, {"Gestore": "MASTROGIOVANNI FABIO", "Bandiera": "Api-Ip", "Tipo impianto": "Altro", "Indirizzo": "VIA TOTI 17 20851", "Nome impianto": "IP", "Comune": "LISSONE", "idImpianto": 15439, "points": [{"type": "Feature", "properties": {}, "geometry": {"type": "Point", "coordinates": [9.244537680470216, 45.6291135635181]}}], "price": 1.889, "ultima_rilevazione": "19/05/2022 20:23:17"}, {"Gestore": "SANICAR SERVICE S.N.C. DI SALVATORE NICOLA E LOMBARDO SALVATORE", "Bandiera": "Esso", "Tipo impianto": "Altro", "Indirizzo": "VIA ALESSANDRO VOLTA 2 20846", "Nome impianto": "sanicarservice snc di salvatore nicola e lombardo salvatore", "Comune": "MACHERIO", "idImpianto": 5656, "points": [{"type": "Feature", "properties": {}, "geometry": {"type": "Point", "coordinates": [9.265367770676107, 45.63839694383991]}}], "price": 1.866, "ultima_rilevazione": "20/05/2022 07:08:22"}, {"Gestore": "ZACCONE FRATELLI S.N.C. DI FABIO E MAURIZIO ZACCONE", "Bandiera": "Tamoil", "Tipo impianto": "Altro", "Indirizzo": "VIALE MARTIRI DELLA LIBERTA' 114 20851", "Nome impianto": "TAMOIL", "Comune": "LISSONE", "idImpianto": 12233, "points": [{"type": "Feature", "properties": {}, "geometry": {"type": "Point", "coordinates": [9.243964514276286, 45.62425321888188]}}], "price": 1.889, "ultima_rilevazione": "21/05/2022 06:40:11"}], "3": [{"Gestore": "GALIFI DOMENICO", "Bandiera": "Api-Ip", "Tipo impianto": "Altro", "Indirizzo": "Via M.Buonarroti 148 20035", "Nome impianto": "total erg di Galifi ", "Comune": "LISSONE", "idImpianto": 43616, "points": [{"type": "Feature", "properties": {}, "geometry": {"type": "Point", "coordinates": [9.239804046627114, 45.62240218615924]}}], "price": 1.834, "ultima_rilevazione": "28/03/2022 10:16:18"}, {"Gestore": "SERVIZI & GESTIONI ITALIA S.R.L.", "Bandiera": "Q8", "Tipo impianto": "Altro", "Indirizzo": "VIA MARTIRI LIBERTA'  / PANZINI 12 20035", "Nome impianto": "LISSONE-VIA MARTIRI LIBERTA' 12 / PANZINI", "Comune": "LISSONE", "idImpianto": 11645, "points": [{"type": "Feature", "properties": {}, "geometry": {"type": "Point", "coordinates": [9.248222974204964, 45.61524052887886]}}], "price": 1.879, "ultima_rilevazione": "18/05/2022 02:35:56"}, {"Gestore": "SERVIZI & GESTIONI ITALIA S.R.L.", "Bandiera": "Q8", "Tipo impianto": "Altro", "Indirizzo": "VIA MILANO 20  20831", "Nome impianto": "SEREGNO VIA MILANO 20", "Comune": "SEREGNO", "idImpianto": 23494, "points": [{"type": "Feature", "properties": {}, "geometry": {"type": "Point", "coordinates": [9.204979240894318, 45.641553376210986]}}], "price": 1.869, "ultima_rilevazione": "18/05/2022 02:36:02"}, {"Gestore": "TREMOLADA E FIGLI SAS DI TREMOLADA DARIO & C.", "Bandiera": "Agip Eni", "Tipo impianto": "Strada Statale", "Indirizzo": "36 del Lago di Como e dello Spluga, Km. snc, Milano 20832 ", "Nome impianto": "Tremolada Sas", "Comune": "DESIO", "idImpianto": 50331, "points": [{"type": "Feature", "properties": {}, "geometry": {"type": "Point", "coordinates": [9.223568613082731, 45.61646218811291]}}], "price": 1.879, "ultima_rilevazione": "18/05/2022 06:40:58"}, {"Gestore": "SERVIZI & GESTIONI ITALIA S.R.L.", "Bandiera": "Q8", "Tipo impianto": "Altro", "Indirizzo": "VIA VALASSINA 144 EST 20033", "Nome impianto": "DESIO-VIA VALASSINA 144 EST", "Comune": "DESIO", "idImpianto": 11643, "points": [{"type": "Feature", "properties": {}, "geometry": {"type": "Point", "coordinates": [9.224793526458711, 45.62338022251562]}}], "price": 1.899, "ultima_rilevazione": "18/05/2022 07:07:48"}, {"Gestore": "SERVIZI & GESTIONI ITALIA S.R.L.", "Bandiera": "Q8", "Tipo impianto": "Altro", "Indirizzo": "SS 36 VALASSINA KM 19+020 S/N 20035", "Nome impianto": "LISSONE-SS 36 VALASSINA KM 19+020", "Comune": "LISSONE", "idImpianto": 11649, "points": [{"type": "Feature", "properties": {}, "geometry": {"type": "Point", "coordinates": [9.224526822090183, 45.63615438760353]}}], "price": 1.899, "ultima_rilevazione": "18/05/2022 07:07:48"}, {"Gestore": "STAZIONE DI SERVIZIO DI CORVINO CONCETTA", "Bandiera": "Agip Eni", "Tipo impianto": "Altro", "Indirizzo": "VIA MATTEOTTI 160 20851", "Nome impianto": "STAZ. SERV. ENI di Corvino Concetta", "Comune": "LISSONE", "idImpianto": 45886, "points": [{"type": "Feature", "properties": {}, "geometry": {"type": "Point", "coordinates": [9.234296000123, 45.618672000123]}}], "price": 1.879, "ultima_rilevazione": "18/05/2022 07:35:28"}, {"Gestore": "D'ALOIA GIOVANNI", "Bandiera": "Agip Eni", "Tipo impianto": "Altro", "Indirizzo": "VIA DELLA REPUBBLICA 134 20851", "Nome impianto": "ENI 2281", "Comune": "LISSONE", "idImpianto": 15800, "points": [{"type": "Feature", "properties": {}, "geometry": {"type": "Point", "coordinates": [9.25201915204525, 45.603109323245846]}}], "price": 1.859, "ultima_rilevazione": "18/05/2022 10:51:45"}, {"Gestore": "AUTODROMO NAZIONALE MONZA S.I.A.S. SOCIETA' INCREMENTO AUTOMOBILISMO E SPORT -S.P.A.", "Bandiera": "Agip Eni", "Tipo impianto": "Altro", "Indirizzo": "VIALE DI VEDANO 5 20900", "Nome impianto": "Autodromo Nazionale Monza", "Comune": "MONZA", "idImpianto": 29043, "points": [{"type": "Feature", "properties": {}, "geometry": {"type": "Point", "coordinates": [9.282018981114788, 45.61894867633523]}}], "price": 2.124, "ultima_rilevazione": "19/05/2022 09:43:01"}, {"Gestore": "GI&MA SAS DI RIVA PIETRO", "Bandiera": "Api-Ip", "Tipo impianto": "Strada Statale", "Indirizzo": "36 del Lago di Como e dello Spluga, Km. 23, milano 20841", "Nome impianto": "GI&MA SAS", "Comune": "CARATE BRIANZA", "idImpianto": 35113, "points": [{"type": "Feature", "properties": {}, "geometry": {"type": "Point", "coordinates": [9.2234905064106, 45.66182344335993]}}], "price": 1.889, "ultima_rilevazione": "19/05/2022 15:24:56"}, {"Gestore": "CASTELLUCCIO SERVICE S.A.S. DI NESCI ERNESTO & C.", "Bandiera": "Agip Eni", "Tipo impianto": "Altro", "Indirizzo": "Via Macalle' 184 20831", "Nome impianto": "Eni Seregno 12261", "Comune": "SEREGNO", "idImpianto": 49133, "points": [{"type": "Feature", "properties": {}, "geometry": {"type": "Point", "coordinates": [9.22021315078735, 45.637368850223645]}}], "price": 1.929, "ultima_rilevazione": "20/05/2022 00:03:04"}, {"Gestore": "CASTELLUCCIO SERVICE S.A.S. DI NESCI ERNESTO & C.", "Bandiera": "Retitalia", "Tipo impianto": "Altro", "Indirizzo": "Via Stefano da Seregno 92 20831", "Nome impianto": "Retitalia 42912", "Comune": "SEREGNO", "idImpianto": 45122, "points": [{"type": "Feature", "properties": {}, "geometry": {"type": "Point", "coordinates": [9.211188563276892, 45.64680021281812]}}], "price": 1.919, "ultima_rilevazione": "20/05/2022 00:04:33"}, {"Gestore": "CURIONI ANGELO E POZZI SANDRA SNC", "Bandiera": "Esso", "Tipo impianto": "Altro", "Indirizzo": "VIA MILANO 81 20831", "Nome impianto": "SEREGNO VIA MILANO 81  ", "Comune": "SEREGNO", "idImpianto": 43069, "points": [{"type": "Feature", "properties": {}, "geometry": {"type": "Point", "coordinates": [9.205776271163929, 45.63923175066154]}}], "price": 1.886, "ultima_rilevazione": "20/05/2022 07:50:44"}, {"Gestore": "STAZIONE DI SERVIZIO CURIONI GIOVANNI & POZZI SANDRA S.N.C.", "Bandiera": "Esso", "Tipo impianto": "Strada Statale", "Indirizzo": "Statale 36 del Lago di Como e dello Spluga, Km. 20+400, dir. LECCO 20831", "Nome impianto": "SEREGNO SAN SALVATORE", "Comune": "SEREGNO", "idImpianto": 7628, "points": [{"type": "Feature", "properties": {}, "geometry": {"type": "Point", "coordinates": [9.226229041814804, 45.6486815094895]}}], "price": 1.906, "ultima_rilevazione": "20/05/2022 07:52:12"}, {"Gestore": "T.D.M. S.R.L.", "Bandiera": "Tamoil", "Tipo impianto": "Altro", "Indirizzo": "via Como 112 20851", "Nome impianto": "8049", "Comune": "LISSONE", "idImpianto": 32684, "points": [{"type": "Feature", "properties": {}, "geometry": {"type": "Point", "coordinates": [9.233988001942636, 45.61964253800573]}}], "price": 1.879, "ultima_rilevazione": "20/05/2022 11:44:12"}, {"Gestore": "T.D.M. S.R.L.", "Bandiera": "Tamoil", "Tipo impianto": "Altro", "Indirizzo": "SP. 6 MONZA/CARATE SNC 20853", "Nome impianto": "8498", "Comune": "BIASSONO", "idImpianto": 42799, "points": [{"type": "Feature", "properties": {}, "geometry": {"type": "Point", "coordinates": [9.276267804727697, 45.62270253219843]}}], "price": 1.869, "ultima_rilevazione": "20/05/2022 11:54:14"}, {"Gestore": "IP SERVICES S.R.L.", "Bandiera": "Api-Ip", "Tipo impianto": "Altro", "Indirizzo": "VIA MONTELLO 69 20038", "Nome impianto": "SEREGNO - MONTELLO 69", "Comune": "SEREGNO", "idImpianto": 32462, "points": [{"type": "Feature", "properties": {}, "geometry": {"type": "Point", "coordinates": [9.221599999999968, 45.649894375078894]}}], "price": 1.889, "ultima_rilevazione": "20/05/2022 12:02:56"}, {"Gestore": "STAZIONE DI SERVIZIO TAMOIL DI MORAMARCO GIACINTO E C. SNC", "Bandiera": "Tamoil", "Tipo impianto": "Altro", "Indirizzo": "VIA TAGLIABUE 22 20832", "Nome impianto": "STAZIONE DI SERVIZIO TAMOIL di MORAMARCO GIACINTO & C. snc", "Comune": "DESIO", "idImpianto": 14629, "points": [{"type": "Feature", "properties": {}, "geometry": {"type": "Point", "coordinates": [9.216838628053663, 45.619648203491856]}}], "price": 1.859, "ultima_rilevazione": "20/05/2022 15:06:10"}, {"Gestore": "DE PIETRO SALVATORE", "Bandiera": "Esso", "Tipo impianto": "Altro", "Indirizzo": "via monte rosa 107 20862", "Nome impianto": "stazione di servizio esso arcore", "Comune": "ARCORE", "idImpianto": 28578, "points": [{"type": "Feature", "properties": {}, "geometry": {"type": "Point", "coordinates": [9.31034579873085, 45.6235859474844]}}], "price": 1.899, "ultima_rilevazione": "21/05/2022 07:32:28"}, {"Gestore": "STAZIONE DI SERVIZIO TAMOIL DI MORAMARCO GIACINTO E C. SNC", "Bandiera": "Tamoil", "Tipo impianto": "Altro", "Indirizzo": "VIA TAGLIABUE 22 20832", "Nome impianto": "STAZIONE DI SERVIZIO TAMOIL di MORAMARCO GIACINTO & C. snc", "Comune": "DESIO", "idImpianto": 14629, "points": [{"type": "Feature", "properties": {}, "geometry": {"type": "Point", "coordinates": [9.216838628053663, 45.619648203491856]}}], "price": 2.009, "ultima_rilevazione": "20/05/2022 15:06:10"}], "5": [{"Gestore": "EUROGAS NOVA S.R.L.", "Bandiera": "Pompe Bianche", "Tipo impianto": "Altro", "Indirizzo": "Via G. A. Diaz 31 20834", "Nome impianto": "EUROGAS", "Comune": "NOVA MILANESE", "idImpianto": 49274, "points": [{"type": "Feature", "properties": {}, "geometry": {"type": "Point", "coordinates": [9.200202285811043, 45.59990726284961]}}], "price": 1.699, "ultima_rilevazione": "06/10/2021 00:08:48"}, {"Gestore": "PUCCI GOMME DI MOTTO MASSIMO & C. S.N.C.", "Bandiera": "Api-Ip", "Tipo impianto": "Altro", "Indirizzo": "VIA ROMA 94 23880", "Nome impianto": "PUCCI GOMME SNC", "Comune": "CASATENOVO", "idImpianto": 26824, "points": [{"type": "Feature", "properties": {}, "geometry": {"type": "Point", "coordinates": [9.31693196296692, 45.68039739392671]}}], "price": 1.974, "ultima_rilevazione": "13/05/2022 19:33:16"}, {"Gestore": "MP DI PERRONE SALVATORE", "Bandiera": "Agip Eni", "Tipo impianto": "Altro", "Indirizzo": "VIA ALFONSO CASATI 53 20862", "Nome impianto": "MP DI PERRONE S. - AGIP", "Comune": "ARCORE", "idImpianto": 13852, "points": [{"type": "Feature", "properties": {}, "geometry": {"type": "Point", "coordinates": [9.324206228010098, 45.62542386899243]}}], "price": 1.894, "ultima_rilevazione": "17/05/2022 07:46:48"}, {"Gestore": "JOLLY ROGER S.A.S. DI LUCIANO PAOLO", "Bandiera": "Q8", "Tipo impianto": "Altro", "Indirizzo": "Via Ferruccio Gilera 43 20862", "Nome impianto": "Q8 ", "Comune": "ARCORE", "idImpianto": 48754, "points": [{"type": "Feature", "properties": {}, "geometry": {"type": "Point", "coordinates": [9.329420467756975, 45.6295054253031]}}], "price": 1.919, "ultima_rilevazione": "17/05/2022 10:13:31"}, {"Gestore": "SERVIZI & GESTIONI ITALIA S.R.L.", "Bandiera": "Q8", "Tipo impianto": "Altro", "Indirizzo": "VIA GILERA 150 20043", "Nome impianto": "ARCORE-VIA GILERA 150", "Comune": "ARCORE", "idImpianto": 11639, "points": [{"type": "Feature", "properties": {}, "geometry": {"type": "Point", "coordinates": [9.335339067459133, 45.63390750203607]}}], "price": 1.899, "ultima_rilevazione": "18/05/2022 07:07:47"}, {"Gestore": "SERVIZI & GESTIONI ITALIA S.R.L.", "Bandiera": "Q8", "Tipo impianto": "Altro", "Indirizzo": "VIA MILANO 165 20033", "Nome impianto": "DESIO-VIA MILANO 165", "Comune": "DESIO", "idImpianto": 11642, "points": [{"type": "Feature", "properties": {}, "geometry": {"type": "Point", "coordinates": [9.20041492757798, 45.61516903593563]}}], "price": 1.869, "ultima_rilevazione": "18/05/2022 07:07:47"}, {"Gestore": "SERVIZI & GESTIONI ITALIA S.R.L.", "Bandiera": "Q8", "Tipo impianto": "Altro", "Indirizzo": "S.S.36 SPLUGA KM 10+495  20841", "Nome impianto": "CARATE BRIANZA  S.S.36 SPLUGA KM 10+495", "Comune": "CARATE BRIANZA", "idImpianto": 43651, "points": [{"type": "Feature", "properties": {}, "geometry": {"type": "Point", "coordinates": [9.219860217790938, 45.67494693789578]}}], "price": 1.899, "ultima_rilevazione": "18/05/2022 07:07:50"}, {"Gestore": "MANDIA ANTONIO", "Bandiera": "Pompe Bianche", "Tipo impianto": "Altro", "Indirizzo": "VIA PER CESANO 44 20832", "Nome impianto": "NUOVA COMA SRL", "Comune": "DESIO", "idImpianto": 14095, "points": [{"type": "Feature", "properties": {}, "geometry": {"type": "Point", "coordinates": [9.195360888360597, 45.62368386848299]}}], "price": 1.869, "ultima_rilevazione": "18/05/2022 07:28:16"}, {"Gestore": "SCARFONE COSIMO", "Bandiera": "Agip Eni", "Tipo impianto": "Altro", "Indirizzo": "via milano 230 20832", "Nome impianto": "ENI DESIO", "Comune": "DESIO", "idImpianto": 32877, "points": [{"type": "Feature", "properties": {}, "geometry": {"type": "Point", "coordinates": [9.199714064598083, 45.62074583216158]}}], "price": 1.879, "ultima_rilevazione": "18/05/2022 09:50:31"}, {"Gestore": "SCARFONE COSIMO", "Bandiera": "Agip Eni", "Tipo impianto": "Altro", "Indirizzo": "mazzini  20835", "Nome impianto": "eni", "Comune": "MUGGIO'", "idImpianto": 41512, "points": [{"type": "Feature", "properties": {}, "geometry": {"type": "Point", "coordinates": [9.233100190758703, 45.59301366559917]}}], "price": 1.879, "ultima_rilevazione": "18/05/2022 09:52:21"}, {"Gestore": "NUOVA SIDAP  S.R.L.", "Bandiera": "Q8", "Tipo impianto": "Strada Statale", "Indirizzo": "36 del Lago di Como e dello Spluga, Km.  23,470, Sud 20841", "Nome impianto": "CARATE OVEST", "Comune": "CARATE BRIANZA", "idImpianto": 46534, "points": [{"type": "Feature", "properties": {}, "geometry": {"type": "Point", "coordinates": [9.219954758882524, 45.67205225949342]}}], "price": 1.899, "ultima_rilevazione": "19/05/2022 09:57:39"}, {"Gestore": "ROSSI ALBERTO", "Bandiera": "Api-Ip", "Tipo impianto": "Altro", "Indirizzo": "VIA SABOTINO 53, 20832", "Nome impianto": "IP Rossi", "Comune": "DESIO", "idImpianto": 20022, "points": [{"type": "Feature", "properties": {}, "geometry": {"type": "Point", "coordinates": [9.194773435592651, 45.60774196976108]}}], "price": 1.869, "ultima_rilevazione": "19/05/2022 15:10:47"}, {"Gestore": "SUPER CAR WASH DI MIRZA SHAFEEQ SIDDIQUE", "Bandiera": "Api-Ip", "Tipo impianto": "Altro", "Indirizzo": "VIA MASCAGNI 75 20832", "Nome impianto": "ITALIANA PETROLI", "Comune": "DESIO", "idImpianto": 48408, "points": [{"type": "Feature", "properties": {}, "geometry": {"type": "Point", "coordinates": [9.217777163194668, 45.60871324729638]}}], "price": 1.879, "ultima_rilevazione": "19/05/2022 15:25:57"}, {"Gestore": "VANOLI S.N.C. DI VANOLI FIRMINO E MARONI", "Bandiera": "Esso", "Tipo impianto": "Altro", "Indirizzo": "via 4 Novembre, Paina di Giussano  160 20034", "Nome impianto": "stazione di servizio Esso Vanoli snc", "Comune": "GIUSSANO", "idImpianto": 5160, "points": [{"type": "Feature", "properties": {}, "geometry": {"type": "Point", "coordinates": [9.202318489551544, 45.668298036450224]}}], "price": 1.876, "ultima_rilevazione": "19/05/2022 18:49:51"}, {"Gestore": "RUSSO GIORGIO", "Bandiera": "Esso", "Tipo impianto": "Altro", "Indirizzo": "VIA GIUSEPPE GARIBALDI 306 20832", "Nome impianto": "ESSO ", "Comune": "DESIO", "idImpianto": 21100, "points": [{"type": "Feature", "properties": {}, "geometry": {"type": "Point", "coordinates": [9.202510938048365, 45.6069307654106]}}], "price": 1.869, "ultima_rilevazione": "19/05/2022 19:04:00"}, {"Gestore": "SERVIZI & GESTIONI ITALIA S.R.L.", "Bandiera": "Q8", "Tipo impianto": "Altro", "Indirizzo": "S.P.192 VALASSINA  20851", "Nome impianto": "LISSONE S.P.192 VALASSINA", "Comune": "LISSONE", "idImpianto": 39112, "points": [{"type": "Feature", "properties": {}, "geometry": {"type": "Point", "coordinates": [9.231563955545424, 45.60228936339683]}}], "price": 1.879, "ultima_rilevazione": "20/05/2022 06:32:48"}, {"Gestore": "EGI-2GO S.R.L.", "Bandiera": "Esso", "Tipo impianto": "Altro", "Indirizzo": "VIA G. MAZZINI 13 20835", "Nome impianto": "Muggio", "Comune": "MUGGIO'", "idImpianto": 48001, "points": [{"type": "Feature", "properties": {}, "geometry": {"type": "Point", "coordinates": [9.236082046627049, 45.59281963065065]}}], "price": 1.839, "ultima_rilevazione": "20/05/2022 08:02:53"}, {"Gestore": "ILMAPPA DI MAPELLI MARCO", "Bandiera": "Agip Eni", "Tipo impianto": "Altro", "Indirizzo": "VIA LEONARDO DA VINCI 88 20852", "Nome impianto": "ENI 51890", "Comune": "VILLASANTA", "idImpianto": 10398, "points": [{"type": "Feature", "properties": {}, "geometry": {"type": "Point", "coordinates": [9.312728941440582, 45.616128930827664]}}], "price": 1.919, "ultima_rilevazione": "20/05/2022 08:08:15"}, {"Gestore": "ALMAS AUTOLAVAGGIO DI MAZHAR MOHAMMAD AYYAZ", "Bandiera": "Esso", "Tipo impianto": "Altro", "Indirizzo": "VIALE LOMBARDIA 16 20900", "Nome impianto": "ESSO - ALMAS AUTOLAVAGGIO", "Comune": "MONZA", "idImpianto": 51146, "points": [{"type": "Feature", "properties": {}, "geometry": {"type": "Point", "coordinates": [9.252574549598677, 45.58845789608662]}}], "price": 1.889, "ultima_rilevazione": "20/05/2022 08:16:50"}, {"Gestore": "CAR SERVICE S.N.C. DI CARLO SPADONE E ALBERTO SCORZA", "Bandiera": "Esso", "Tipo impianto": "Altro", "Indirizzo": "VIA ANTONIO STOPPANI 92 20831", "Nome impianto": "car service snc", "Comune": "SEREGNO", "idImpianto": 43540, "points": [{"type": "Feature", "properties": {}, "geometry": {"type": "Point", "coordinates": [9.195143177909811, 45.6563447475817]}}], "price": 1.876, "ultima_rilevazione": "20/05/2022 10:55:29"}, {"Gestore": "T.D.M. S.R.L.", "Bandiera": "Tamoil", "Tipo impianto": "Altro", "Indirizzo": "VIA S. BERNARDO/A. MANZONI 1 20841", "Nome impianto": "8486", "Comune": "CARATE BRIANZA", "idImpianto": 46271, "points": [{"type": "Feature", "properties": {}, "geometry": {"type": "Point", "coordinates": [9.237283114039087, 45.67913166910388]}}], "price": 1.869, "ultima_rilevazione": "20/05/2022 11:52:10"}, {"Gestore": "T.D.M. S.R.L.", "Bandiera": "Tamoil", "Tipo impianto": "Altro", "Indirizzo": "VIA DON LUIGI VIGANO' FRAZ: CASSINA SAVINA 4 20811", "Nome impianto": "4022", "Comune": "CESANO MADERNO", "idImpianto": 46375, "points": [{"type": "Feature", "properties": {}, "geometry": {"type": "Point", "coordinates": [9.179304599524926, 45.63849701505329]}}], "price": 1.839, "ultima_rilevazione": "20/05/2022 11:52:12"}, {"Gestore": "IP SERVICES S.R.L.", "Bandiera": "Api-Ip", "Tipo impianto": "Altro", "Indirizzo": "VIA SAN MICHELE AL CARSO  20048", "Nome impianto": "CARATE BRIANZA - SAN MICHELE", "Comune": "CARATE BRIANZA", "idImpianto": 32325, "points": [{"type": "Feature", "properties": {}, "geometry": {"type": "Point", "coordinates": [9.242680466270484, 45.675644978696376]}}], "price": 1.869, "ultima_rilevazione": "20/05/2022 12:01:30"}, {"Gestore": "IP SERVICES S.R.L.", "Bandiera": "Api-Ip", "Tipo impianto": "Altro", "Indirizzo": "VIALE EDISON  20058", "Nome impianto": "VILLASANTA - EDISON", "Comune": "VILLASANTA", "idImpianto": 32759, "points": [{"type": "Feature", "properties": {}, "geometry": {"type": "Point", "coordinates": [9.305534868717132, 45.6045662231796]}}], "price": 1.869, "ultima_rilevazione": "20/05/2022 12:01:32"}, {"Gestore": "IP SERVICES S.R.L.", "Bandiera": "Api-Ip", "Tipo impianto": "Altro", "Indirizzo": "Via Briantina  20038", "Nome impianto": "SEREGNO - BRIANTINA", "Comune": "SEREGNO", "idImpianto": 26991, "points": [{"type": "Feature", "properties": {}, "geometry": {"type": "Point", "coordinates": [9.216957084655746, 45.66186625769628]}}], "price": 1.869, "ultima_rilevazione": "20/05/2022 12:05:24"}, {"Gestore": "IP SERVICES S.R.L.", "Bandiera": "Api-Ip", "Tipo impianto": "Altro", "Indirizzo": "Via Generale Giardino 1 20851", "Nome impianto": "Lissone", "Comune": "LISSONE", "idImpianto": 22981, "points": [{"type": "Feature", "properties": {}, "geometry": {"type": "Point", "coordinates": [9.229980111122131, 45.60220426098312]}}], "price": 1.859, "ultima_rilevazione": "20/05/2022 12:07:19"}, {"Gestore": "ELEGANCE AUTO DI NENADOVIC STEFAN", "Bandiera": "Esso", "Tipo impianto": "Altro", "Indirizzo": "VIA DE GASPERI 10 20862", "Nome impianto": "Elegance auto di nenadovic stefan", "Comune": "ARCORE", "idImpianto": 50760, "points": [{"type": "Feature", "properties": {}, "geometry": {"type": "Point", "coordinates": [9.326301760343409, 45.62516520152992]}}], "price": 1.949, "ultima_rilevazione": "20/05/2022 12:34:16"}, {"Gestore": "STAZIONE DI SERVIZIO DI CAZZANIGA GIUSEPPE", "Bandiera": "Tamoil", "Tipo impianto": "Altro", "Indirizzo": "VIA SANT'AMBROGIO 43 20844", "Nome impianto": "STAZIONE DI SERVIZIO TAMOIL", "Comune": "TRIUGGIO", "idImpianto": 20559, "points": [{"type": "Feature", "properties": {}, "geometry": {"type": "Point", "coordinates": [9.28988617790992, 45.68107788288225]}}], "price": 1.879, "ultima_rilevazione": "20/05/2022 15:08:12"}, {"Gestore": "MERONI SERVICE CAR S.A.S. DI G. MERONI & C.", "Bandiera": "Esso", "Tipo impianto": "Altro", "Indirizzo": "via carducci 65 20851", "Nome impianto": "ESSO MERONI SERVICE CAR SAS", "Comune": "LISSONE", "idImpianto": 22190, "points": [{"type": "Feature", "properties": {}, "geometry": {"type": "Point", "coordinates": [9.235237428465894, 45.60339971326928]}}], "price": 1.886, "ultima_rilevazione": "20/05/2022 19:43:19"}, {"Gestore": "DICOMI S.R.L.", "Bandiera": "Q8", "Tipo impianto": "Altro", "Indirizzo": "VIA ARMANDO DIAZ 31 20834", "Nome impianto": "Q8", "Comune": "NOVA MILANESE", "idImpianto": 51349, "points": [{"type": "Feature", "properties": {}, "geometry": {"type": "Point", "coordinates": [9.200262000000016, 45.59991908386896]}}], "price": 1.849, "ultima_rilevazione": "21/05/2022 00:08:15"}, {"Gestore": "ALFA PETROLI SRL", "Bandiera": "Pompe Bianche", "Tipo impianto": "Altro", "Indirizzo": "VIA LEONARDO DA VINCI 72 20852", "Nome impianto": "ALFA PETROLI", "Comune": "VILLASANTA", "idImpianto": 6868, "points": [{"type": "Feature", "properties": {}, "geometry": {"type": "Point", "coordinates": [9.310900993883138, 45.61479977067869]}}], "price": 1.879, "ultima_rilevazione": "21/05/2022 07:30:08"}, {"Gestore": "BRITA S.A.S. DI D'AMATO DAVIDE & C.", "Bandiera": "Pompe Bianche", "Tipo impianto": "Altro", "Indirizzo": "VIA PRIVATA VICINALE 2/7 20852", "Nome impianto": "BRITA S.A.S", "Comune": "VILLASANTA", "idImpianto": 49253, "points": [{"type": "Feature", "properties": {}, "geometry": {"type": "Point", "coordinates": [9.30842854232789, 45.59988219820851]}}], "price": 1.889, "ultima_rilevazione": "21/05/2022 07:36:53"}, {"Gestore": "STAZIONE DI SERVIZIO DI CAZZANIGA GIUSEPPE", "Bandiera": "Tamoil", "Tipo impianto": "Altro", "Indirizzo": "VIA SANT'AMBROGIO 43 20844", "Nome impianto": "STAZIONE DI SERVIZIO TAMOIL", "Comune": "TRIUGGIO", "idImpianto": 20559, "points": [{"type": "Feature", "properties": {}, "geometry": {"type": "Point", "coordinates": [9.28988617790992, 45.68107788288225]}}], "price": 2.029, "ultima_rilevazione": "20/05/2022 15:08:12"}]}, "Gasolio": {"1": [{"Gestore": "CHIAPPERINI PAOLO", "Bandiera": "Agip Eni", "Tipo impianto": "Altro", "Indirizzo": "viale monza  2 20845", "Nome impianto": "CHIAPPERINI PAOLO", "Comune": "SOVICO", "idImpianto": 43640, "points": [{"type": "Feature", "properties": {}, "geometry": {"type": "Point", "coordinates": [9.254779565641456, 45.65491274961172]}}], "price": 1.869, "ultima_rilevazione": "18/05/2022 07:07:07"}, {"Gestore": "CAROLI GIOVANNI", "Bandiera": "Q8", "Tipo impianto": "Altro", "Indirizzo": "VIA GIOVANNI DA SOVICO 129 20845", "Nome impianto": "Caroli Giovanni", "Comune": "SOVICO", "idImpianto": 19353, "points": [{"type": "Feature", "properties": {}, "geometry": {"type": "Point", "coordinates": [9.266958820866762, 45.64417784424008]}}], "price": 1.899, "ultima_rilevazione": "19/05/2022 18:00:25"}, {"Gestore": "RAIMONDO E CHIARA S.N.C. DI MARCUCCI RAIMONDO E C", "Bandiera": "Q8", "Tipo impianto": "Altro", "Indirizzo": "Viale Monza 19 20845", "Nome impianto": "Q8 di Raimondo e Chiara ", "Comune": "SOVICO", "idImpianto": 46917, "points": [{"type": "Feature", "properties": {}, "geometry": {"type": "Point", "coordinates": [9.25856351987874, 45.650415804145176]}}], "price": 1.879, "ultima_rilevazione": "19/05/2022 18:45:38"}, {"Gestore": "MASTROGIOVANNI FABIO", "Bandiera": "Api-Ip", "Tipo impianto": "Altro", "Indirizzo": "VIA TOTI 17 20851", "Nome impianto": "IP", "Comune": "LISSONE", "idImpianto": 15439, "points": [{"type": "Feature", "properties": {}, "geometry": {"type": "Point", "coordinates": [9.244537680470216, 45.6291135635181]}}], "price": 1.839, "ultima_rilevazione": "19/05/2022 20:23:17"}, {"Gestore": "SANICAR SERVICE S.N.C. DI SALVATORE NICOLA E LOMBARDO SALVATORE", "Bandiera": "Esso", "Tipo impianto": "Altro", "Indirizzo": "VIA ALESSANDRO VOLTA 2 20846", "Nome impianto": "sanicarservice snc di salvatore nicola e lombardo salvatore", "Comune": "MACHERIO", "idImpianto": 5656, "points": [{"type": "Feature", "properties": {}, "geometry": {"type": "Point", "coordinates": [9.265367770676107, 45.63839694383991]}}], "price": 1.886, "ultima_rilevazione": "20/05/2022 07:08:22"}, {"Gestore": "ZACCONE FRATELLI S.N.C. DI FABIO E MAURIZIO ZACCONE", "Bandiera": "Tamoil", "Tipo impianto": "Altro", "Indirizzo": "VIALE MARTIRI DELLA LIBERTA' 114 20851", "Nome impianto": "TAMOIL", "Comune": "LISSONE", "idImpianto": 12233, "points": [{"type": "Feature", "properties": {}, "geometry": {"type": "Point", "coordinates": [9.243964514276286, 45.62425321888188]}}], "price": 1.839, "ultima_rilevazione": "21/05/2022 06:40:11"}], "3": [{"Gestore": "GALIFI DOMENICO", "Bandiera": "Api-Ip", "Tipo impianto": "Altro", "Indirizzo": "Via M.Buonarroti 148 20035", "Nome impianto": "total erg di Galifi ", "Comune": "LISSONE", "idImpianto": 43616, "points": [{"type": "Feature", "properties": {}, "geometry": {"type": "Point", "coordinates": [9.239804046627114, 45.62240218615924]}}], "price": 1.834, "ultima_rilevazione": "28/03/2022 10:16:18"}, {"Gestore": "SERVIZI & GESTIONI ITALIA S.R.L.", "Bandiera": "Q8", "Tipo impianto": "Altro", "Indirizzo": "VIA MARTIRI LIBERTA'  / PANZINI 12 20035", "Nome impianto": "LISSONE-VIA MARTIRI LIBERTA' 12 / PANZINI", "Comune": "LISSONE", "idImpianto": 11645, "points": [{"type": "Feature", "properties": {}, "geometry": {"type": "Point", "coordinates": [9.248222974204964, 45.61524052887886]}}], "price": 1.829, "ultima_rilevazione": "18/05/2022 02:35:56"}, {"Gestore": "SERVIZI & GESTIONI ITALIA S.R.L.", "Bandiera": "Q8", "Tipo impianto": "Altro", "Indirizzo": "VIA MILANO 20  20831", "Nome impianto": "SEREGNO VIA MILANO 20", "Comune": "SEREGNO", "idImpianto": 23494, "points": [{"type": "Feature", "properties": {}, "geometry": {"type": "Point", "coordinates": [9.204979240894318, 45.641553376210986]}}], "price": 1.826, "ultima_rilevazione": "18/05/2022 02:36:02"}, {"Gestore": "TREMOLADA E FIGLI SAS DI TREMOLADA DARIO & C.", "Bandiera": "Agip Eni", "Tipo impianto": "Strada Statale", "Indirizzo": "36 del Lago di Como e dello Spluga, Km. snc, Milano 20832 ", "Nome impianto": "Tremolada Sas", "Comune": "DESIO", "idImpianto": 50331, "points": [{"type": "Feature", "properties": {}, "geometry": {"type": "Point", "coordinates": [9.223568613082731, 45.61646218811291]}}], "price": 1.869, "ultima_rilevazione": "18/05/2022 06:40:58"}, {"Gestore": "SERVIZI & GESTIONI ITALIA S.R.L.", "Bandiera": "Q8", "Tipo impianto": "Altro", "Indirizzo": "VIA VALASSINA 144 EST 20033", "Nome impianto": "DESIO-VIA VALASSINA 144 EST", "Comune": "DESIO", "idImpianto": 11643, "points": [{"type": "Feature", "properties": {}, "geometry": {"type": "Point", "coordinates": [9.224793526458711, 45.62338022251562]}}], "price": 1.869, "ultima_rilevazione": "18/05/2022 07:07:48"}, {"Gestore": "SERVIZI & GESTIONI ITALIA S.R.L.", "Bandiera": "Q8", "Tipo impianto": "Altro", "Indirizzo": "SS 36 VALASSINA KM 19+020 S/N 20035", "Nome impianto": "LISSONE-SS 36 VALASSINA KM 19+020", "Comune": "LISSONE", "idImpianto": 11649, "points": [{"type": "Feature", "properties": {}, "geometry": {"type": "Point", "coordinates": [9.224526822090183, 45.63615438760353]}}], "price": 1.869, "ultima_rilevazione": "18/05/2022 07:07:48"}, {"Gestore": "STAZIONE DI SERVIZIO DI CORVINO CONCETTA", "Bandiera": "Agip Eni", "Tipo impianto": "Altro", "Indirizzo": "VIA MATTEOTTI 160 20851", "Nome impianto": "STAZ. SERV. ENI di Corvino Concetta", "Comune": "LISSONE", "idImpianto": 45886, "points": [{"type": "Feature", "properties": {}, "geometry": {"type": "Point", "coordinates": [9.234296000123, 45.618672000123]}}], "price": 1.869, "ultima_rilevazione": "18/05/2022 07:35:28"}, {"Gestore": "D'ALOIA GIOVANNI", "Bandiera": "Agip Eni", "Tipo impianto": "Altro", "Indirizzo": "VIA DELLA REPUBBLICA 134 20851", "Nome impianto": "ENI 2281", "Comune": "LISSONE", "idImpianto": 15800, "points": [{"type": "Feature", "properties": {}, "geometry": {"type": "Point", "coordinates": [9.25201915204525, 45.603109323245846]}}], "price": 1.869, "ultima_rilevazione": "18/05/2022 10:51:45"}, {"Gestore": "GI&MA SAS DI RIVA PIETRO", "Bandiera": "Api-Ip", "Tipo impianto": "Strada Statale", "Indirizzo": "36 del Lago di Como e dello Spluga, Km. 23, milano 20841", "Nome impianto": "GI&MA SAS", "Comune": "CARATE BRIANZA", "idImpianto": 35113, "points": [{"type": "Feature", "properties": {}, "geometry": {"type": "Point", "coordinates": [9.2234905064106, 45.66182344335993]}}], "price": 1.849, "ultima_rilevazione": "19/05/2022 15:24:56"}, {"Gestore": "CASTELLUCCIO SERVICE S.A.S. DI NESCI ERNESTO & C.", "Bandiera": "Agip Eni", "Tipo impianto": "Altro", "Indirizzo": "Via Macalle' 184 20831", "Nome impianto": "Eni Seregno 12261", "Comune": "SEREGNO", "idImpianto": 49133, "points": [{"type": "Feature", "properties": {}, "geometry": {"type": "Point", "coordinates": [9.22021315078735, 45.637368850223645]}}], "price": 1.849, "ultima_rilevazione": "20/05/2022 00:03:04"}, {"Gestore": "CASTELLUCCIO SERVICE S.A.S. DI NESCI ERNESTO & C.", "Bandiera": "Retitalia", "Tipo impianto": "Altro", "Indirizzo": "Via Stefano da Seregno 92 20831", "Nome impianto": "Retitalia 42912", "Comune": "SEREGNO", "idImpianto": 45122, "points": [{"type": "Feature", "properties": {}, "geometry": {"type": "Point", "coordinates": [9.211188563276892, 45.64680021281812]}}], "price": 1.799, "ultima_rilevazione": "20/05/2022 00:04:33"}, {"Gestore": "CURIONI ANGELO E POZZI SANDRA SNC", "Bandiera": "Esso", "Tipo impianto": "Altro", "Indirizzo": "VIA MILANO 81 20831", "Nome impianto": "SEREGNO VIA MILANO 81  ", "Comune": "SEREGNO", "idImpianto": 43069, "points": [{"type": "Feature", "properties": {}, "geometry": {"type": "Point", "coordinates": [9.205776271163929, 45.63923175066154]}}], "price": 1.816, "ultima_rilevazione": "20/05/2022 07:50:44"}, {"Gestore": "STAZIONE DI SERVIZIO CURIONI GIOVANNI & POZZI SANDRA S.N.C.", "Bandiera": "Esso", "Tipo impianto": "Strada Statale", "Indirizzo": "Statale 36 del Lago di Como e dello Spluga, Km. 20+400, dir. LECCO 20831", "Nome impianto": "SEREGNO SAN SALVATORE", "Comune": "SEREGNO", "idImpianto": 7628, "points": [{"type": "Feature", "properties": {}, "geometry": {"type": "Point", "coordinates": [9.226229041814804, 45.6486815094895]}}], "price": 1.866, "ultima_rilevazione": "20/05/2022 07:52:12"}, {"Gestore": "T.D.M. S.R.L.", "Bandiera": "Tamoil", "Tipo impianto": "Altro", "Indirizzo": "via Como 112 20851", "Nome impianto": "8049", "Comune": "LISSONE", "idImpianto": 32684, "points": [{"type": "Feature", "properties": {}, "geometry": {"type": "Point", "coordinates": [9.233988001942636, 45.61964253800573]}}], "price": 1.829, "ultima_rilevazione": "20/05/2022 11:44:12"}, {"Gestore": "T.D.M. S.R.L.", "Bandiera": "Tamoil", "Tipo impianto": "Altro", "Indirizzo": "SP. 6 MONZA/CARATE SNC 20853", "Nome impianto": "8498", "Comune": "BIASSONO", "idImpianto": 42799, "points": [{"type": "Feature", "properties": {}, "geometry": {"type": "Point", "coordinates": [9.276267804727697, 45.62270253219843]}}], "price": 1.869, "ultima_rilevazione": "20/05/2022 11:54:14"}, {"Gestore": "IP SERVICES S.R.L.", "Bandiera": "Api-Ip", "Tipo impianto": "Altro", "Indirizzo": "VIA MONTELLO 69 20038", "Nome impianto": "SEREGNO - MONTELLO 69", "Comune": "SEREGNO", "idImpianto": 32462, "points": [{"type": "Feature", "properties": {}, "geometry": {"type": "Point", "coordinates": [9.221599999999968, 45.649894375078894]}}], "price": 1.879, "ultima_rilevazione": "20/05/2022 12:02:56"}, {"Gestore": "STAZIONE DI SERVIZIO TAMOIL DI MORAMARCO GIACINTO E C. SNC", "Bandiera": "Tamoil", "Tipo impianto": "Altro", "Indirizzo": "VIA TAGLIABUE 22 20832", "Nome impianto": "STAZIONE DI SERVIZIO TAMOIL di MORAMARCO GIACINTO & C. snc", "Comune": "DESIO", "idImpianto": 14629, "points": [{"type": "Feature", "properties": {}, "geometry": {"type": "Point", "coordinates": [9.216838628053663, 45.619648203491856]}}], "price": 1.799, "ultima_rilevazione": "20/05/2022 15:06:10"}, {"Gestore": "DE PIETRO SALVATORE", "Bandiera": "Esso", "Tipo impianto": "Altro", "Indirizzo": "via monte rosa 107 20862", "Nome impianto": "stazione di servizio esso arcore", "Comune": "ARCORE", "idImpianto": 28578, "points": [{"type": "Feature", "properties": {}, "geometry": {"type": "Point", "coordinates": [9.31034579873085, 45.6235859474844]}}], "price": 1.859, "ultima_rilevazione": "21/05/2022 07:32:28"}], "5": [{"Gestore": "EUROGAS NOVA S.R.L.", "Bandiera": "Pompe Bianche", "Tipo impianto": "Altro", "Indirizzo": "Via G. A. Diaz 31 20834", "Nome impianto": "EUROGAS", "Comune": "NOVA MILANESE", "idImpianto": 49274, "points": [{"type": "Feature", "properties": {}, "geometry": {"type": "Point", "coordinates": [9.200202285811043, 45.59990726284961]}}], "price": 1.539, "ultima_rilevazione": "06/10/2021 00:08:48"}, {"Gestore": "PUCCI GOMME DI MOTTO MASSIMO & C. S.N.C.", "Bandiera": "Api-Ip", "Tipo impianto": "Altro", "Indirizzo": "VIA ROMA 94 23880", "Nome impianto": "PUCCI GOMME SNC", "Comune": "CASATENOVO", "idImpianto": 26824, "points": [{"type": "Feature", "properties": {}, "geometry": {"type": "Point", "coordinates": [9.31693196296692, 45.68039739392671]}}], "price": 1.996, "ultima_rilevazione": "13/05/2022 19:33:16"}, {"Gestore": "MP DI PERRONE SALVATORE", "Bandiera": "Agip Eni", "Tipo impianto": "Altro", "Indirizzo": "VIA ALFONSO CASATI 53 20862", "Nome impianto": "MP DI PERRONE S. - AGIP", "Comune": "ARCORE", "idImpianto": 13852, "points": [{"type": "Feature", "properties": {}, "geometry": {"type": "Point", "coordinates": [9.324206228010098, 45.62542386899243]}}], "price": 1.884, "ultima_rilevazione": "17/05/2022 07:46:48"}, {"Gestore": "JOLLY ROGER S.A.S. DI LUCIANO PAOLO", "Bandiera": "Q8", "Tipo impianto": "Altro", "Indirizzo": "Via Ferruccio Gilera 43 20862", "Nome impianto": "Q8 ", "Comune": "ARCORE", "idImpianto": 48754, "points": [{"type": "Feature", "properties": {}, "geometry": {"type": "Point", "coordinates": [9.329420467756975, 45.6295054253031]}}], "price": 1.884, "ultima_rilevazione": "17/05/2022 10:13:31"}, {"Gestore": "SERVIZI & GESTIONI ITALIA S.R.L.", "Bandiera": "Q8", "Tipo impianto": "Altro", "Indirizzo": "VIA GILERA 150 20043", "Nome impianto": "ARCORE-VIA GILERA 150", "Comune": "ARCORE", "idImpianto": 11639, "points": [{"type": "Feature", "properties": {}, "geometry": {"type": "Point", "coordinates": [9.335339067459133, 45.63390750203607]}}], "price": 1.884, "ultima_rilevazione": "18/05/2022 07:07:47"}, {"Gestore": "SERVIZI & GESTIONI ITALIA S.R.L.", "Bandiera": "Q8", "Tipo impianto": "Altro", "Indirizzo": "VIA MILANO 165 20033", "Nome impianto": "DESIO-VIA MILANO 165", "Comune": "DESIO", "idImpianto": 11642, "points": [{"type": "Feature", "properties": {}, "geometry": {"type": "Point", "coordinates": [9.20041492757798, 45.61516903593563]}}], "price": 1.829, "ultima_rilevazione": "18/05/2022 07:07:47"}, {"Gestore": "SERVIZI & GESTIONI ITALIA S.R.L.", "Bandiera": "Q8", "Tipo impianto": "Altro", "Indirizzo": "S.S.36 SPLUGA KM 10+495  20841", "Nome impianto": "CARATE BRIANZA  S.S.36 SPLUGA KM 10+495", "Comune": "CARATE BRIANZA", "idImpianto": 43651, "points": [{"type": "Feature", "properties": {}, "geometry": {"type": "Point", "coordinates": [9.219860217790938, 45.67494693789578]}}], "price": 1.869, "ultima_rilevazione": "18/05/2022 07:07:50"}, {"Gestore": "MANDIA ANTONIO", "Bandiera": "Pompe Bianche", "Tipo impianto": "Altro", "Indirizzo": "VIA PER CESANO 44 20832", "Nome impianto": "NUOVA COMA SRL", "Comune": "DESIO", "idImpianto": 14095, "points": [{"type": "Feature", "properties": {}, "geometry": {"type": "Point", "coordinates": [9.195360888360597, 45.62368386848299]}}], "price": 1.849, "ultima_rilevazione": "18/05/2022 07:28:16"}, {"Gestore": "SCARFONE COSIMO", "Bandiera": "Agip Eni", "Tipo impianto": "Altro", "Indirizzo": "via milano 230 20832", "Nome impianto": "ENI DESIO", "Comune": "DESIO", "idImpianto": 32877, "points": [{"type": "Feature", "properties": {}, "geometry": {"type": "Point", "coordinates": [9.199714064598083, 45.62074583216158]}}], "price": 1.869, "ultima_rilevazione": "18/05/2022 09:50:31"}, {"Gestore": "SCARFONE COSIMO", "Bandiera": "Agip Eni", "Tipo impianto": "Altro", "Indirizzo": "mazzini  20835", "Nome impianto": "eni", "Comune": "MUGGIO'", "idImpianto": 41512, "points": [{"type": "Feature", "properties": {}, "geometry": {"type": "Point", "coordinates": [9.233100190758703, 45.59301366559917]}}], "price": 1.869, "ultima_rilevazione": "18/05/2022 09:52:21"}, {"Gestore": "NUOVA SIDAP  S.R.L.", "Bandiera": "Q8", "Tipo impianto": "Strada Statale", "Indirizzo": "36 del Lago di Como e dello Spluga, Km.  23,470, Sud 20841", "Nome impianto": "CARATE OVEST", "Comune": "CARATE BRIANZA", "idImpianto": 46534, "points": [{"type": "Feature", "properties": {}, "geometry": {"type": "Point", "coordinates": [9.219954758882524, 45.67205225949342]}}], "price": 1.859, "ultima_rilevazione": "19/05/2022 09:57:39"}, {"Gestore": "ROSSI ALBERTO", "Bandiera": "Api-Ip", "Tipo impianto": "Altro", "Indirizzo": "VIA SABOTINO 53, 20832", "Nome impianto": "IP Rossi", "Comune": "DESIO", "idImpianto": 20022, "points": [{"type": "Feature", "properties": {}, "geometry": {"type": "Point", "coordinates": [9.194773435592651, 45.60774196976108]}}], "price": 1.849, "ultima_rilevazione": "19/05/2022 15:10:47"}, {"Gestore": "SUPER CAR WASH DI MIRZA SHAFEEQ SIDDIQUE", "Bandiera": "Api-Ip", "Tipo impianto": "Altro", "Indirizzo": "VIA MASCAGNI 75 20832", "Nome impianto": "ITALIANA PETROLI", "Comune": "DESIO", "idImpianto": 48408, "points": [{"type": "Feature", "properties": {}, "geometry": {"type": "Point", "coordinates": [9.217777163194668, 45.60871324729638]}}], "price": 1.829, "ultima_rilevazione": "19/05/2022 15:25:57"}, {"Gestore": "VANOLI S.N.C. DI VANOLI FIRMINO E MARONI", "Bandiera": "Esso", "Tipo impianto": "Altro", "Indirizzo": "via 4 Novembre, Paina di Giussano  160 20034", "Nome impianto": "stazione di servizio Esso Vanoli snc", "Comune": "GIUSSANO", "idImpianto": 5160, "points": [{"type": "Feature", "properties": {}, "geometry": {"type": "Point", "coordinates": [9.202318489551544, 45.668298036450224]}}], "price": 1.816, "ultima_rilevazione": "19/05/2022 18:49:51"}, {"Gestore": "RUSSO GIORGIO", "Bandiera": "Esso", "Tipo impianto": "Altro", "Indirizzo": "VIA GIUSEPPE GARIBALDI 306 20832", "Nome impianto": "ESSO ", "Comune": "DESIO", "idImpianto": 21100, "points": [{"type": "Feature", "properties": {}, "geometry": {"type": "Point", "coordinates": [9.202510938048365, 45.6069307654106]}}], "price": 1.839, "ultima_rilevazione": "19/05/2022 19:04:00"}, {"Gestore": "SERVIZI & GESTIONI ITALIA S.R.L.", "Bandiera": "Q8", "Tipo impianto": "Altro", "Indirizzo": "S.P.192 VALASSINA  20851", "Nome impianto": "LISSONE S.P.192 VALASSINA", "Comune": "LISSONE", "idImpianto": 39112, "points": [{"type": "Feature", "properties": {}, "geometry": {"type": "Point", "coordinates": [9.231563955545424, 45.60228936339683]}}], "price": 1.849, "ultima_rilevazione": "20/05/2022 06:32:48"}, {"Gestore": "EGI-2GO S.R.L.", "Bandiera": "Esso", "Tipo impianto": "Altro", "Indirizzo": "VIA G. MAZZINI 13 20835", "Nome impianto": "Muggio", "Comune": "MUGGIO'", "idImpianto": 48001, "points": [{"type": "Feature", "properties": {}, "geometry": {"type": "Point", "coordinates": [9.236082046627049, 45.59281963065065]}}], "price": 1.779, "ultima_rilevazione": "20/05/2022 08:02:53"}, {"Gestore": "ILMAPPA DI MAPELLI MARCO", "Bandiera": "Agip Eni", "Tipo impianto": "Altro", "Indirizzo": "VIA LEONARDO DA VINCI 88 20852", "Nome impianto": "ENI 51890", "Comune": "VILLASANTA", "idImpianto": 10398, "points": [{"type": "Feature", "properties": {}, "geometry": {"type": "Point", "coordinates": [9.312728941440582, 45.616128930827664]}}], "price": 1.889, "ultima_rilevazione": "20/05/2022 08:08:15"}, {"Gestore": "ALMAS AUTOLAVAGGIO DI MAZHAR MOHAMMAD AYYAZ", "Bandiera": "Esso", "Tipo impianto": "Altro", "Indirizzo": "VIALE LOMBARDIA 16 20900", "Nome impianto": "ESSO - ALMAS AUTOLAVAGGIO", "Comune": "MONZA", "idImpianto": 51146, "points": [{"type": "Feature", "properties": {}, "geometry": {"type": "Point", "coordinates": [9.252574549598677, 45.58845789608662]}}], "price": 1.779, "ultima_rilevazione": "20/05/2022 08:16:50"}, {"Gestore": "CAR SERVICE S.N.C. DI CARLO SPADONE E ALBERTO SCORZA", "Bandiera": "Esso", "Tipo impianto": "Altro", "Indirizzo": "VIA ANTONIO STOPPANI 92 20831", "Nome impianto": "car service snc", "Comune": "SEREGNO", "idImpianto": 43540, "points": [{"type": "Feature", "properties": {}, "geometry": {"type": "Point", "coordinates": [9.195143177909811, 45.6563447475817]}}], "price": 1.826, "ultima_rilevazione": "20/05/2022 10:55:29"}, {"Gestore": "T.D.M. S.R.L.", "Bandiera": "Tamoil", "Tipo impianto": "Altro", "Indirizzo": "VIA DON LUIGI VIGANO' FRAZ: CASSINA SAVINA 4 20811", "Nome impianto": "4022", "Comune": "CESANO MADERNO", "idImpianto": 46375, "points": [{"type": "Feature", "properties": {}, "geometry": {"type": "Point", "coordinates": [9.179304599524926, 45.63849701505329]}}], "price": 1.799, "ultima_rilevazione": "20/05/2022 11:52:12"}, {"Gestore": "T.D.M. S.R.L.", "Bandiera": "Tamoil", "Tipo impianto": "Altro", "Indirizzo": "VIA S. BERNARDO/A. MANZONI 1 20841", "Nome impianto": "8486", "Comune": "CARATE BRIANZA", "idImpianto": 46271, "points": [{"type": "Feature", "properties": {}, "geometry": {"type": "Point", "coordinates": [9.237283114039087, 45.67913166910388]}}], "price": 1.829, "ultima_rilevazione": "20/05/2022 11:52:10"}, {"Gestore": "IP SERVICES S.R.L.", "Bandiera": "Api-Ip", "Tipo impianto": "Altro", "Indirizzo": "VIA SAN MICHELE AL CARSO  20048", "Nome impianto": "CARATE BRIANZA - SAN MICHELE", "Comune": "CARATE BRIANZA", "idImpianto": 32325, "points": [{"type": "Feature", "properties": {}, "geometry": {"type": "Point", "coordinates": [9.242680466270484, 45.675644978696376]}}], "price": 1.839, "ultima_rilevazione": "20/05/2022 12:01:30"}, {"Gestore": "IP SERVICES S.R.L.", "Bandiera": "Api-Ip", "Tipo impianto": "Altro", "Indirizzo": "VIALE EDISON  20058", "Nome impianto": "VILLASANTA - EDISON", "Comune": "VILLASANTA", "idImpianto": 32759, "points": [{"type": "Feature", "properties": {}, "geometry": {"type": "Point", "coordinates": [9.305534868717132, 45.6045662231796]}}], "price": 1.829, "ultima_rilevazione": "20/05/2022 12:01:32"}, {"Gestore": "IP SERVICES S.R.L.", "Bandiera": "Api-Ip", "Tipo impianto": "Altro", "Indirizzo": "Via Briantina  20038", "Nome impianto": "SEREGNO - BRIANTINA", "Comune": "SEREGNO", "idImpianto": 26991, "points": [{"type": "Feature", "properties": {}, "geometry": {"type": "Point", "coordinates": [9.216957084655746, 45.66186625769628]}}], "price": 1.799, "ultima_rilevazione": "20/05/2022 12:05:24"}, {"Gestore": "IP SERVICES S.R.L.", "Bandiera": "Api-Ip", "Tipo impianto": "Altro", "Indirizzo": "Via Generale Giardino 1 20851", "Nome impianto": "Lissone", "Comune": "LISSONE", "idImpianto": 22981, "points": [{"type": "Feature", "properties": {}, "geometry": {"type": "Point", "coordinates": [9.229980111122131, 45.60220426098312]}}], "price": 1.839, "ultima_rilevazione": "20/05/2022 12:07:19"}, {"Gestore": "ELEGANCE AUTO DI NENADOVIC STEFAN", "Bandiera": "Esso", "Tipo impianto": "Altro", "Indirizzo": "VIA DE GASPERI 10 20862", "Nome impianto": "Elegance auto di nenadovic stefan", "Comune": "ARCORE", "idImpianto": 50760, "points": [{"type": "Feature", "properties": {}, "geometry": {"type": "Point", "coordinates": [9.326301760343409, 45.62516520152992]}}], "price": 1.869, "ultima_rilevazione": "20/05/2022 12:34:16"}, {"Gestore": "STAZIONE DI SERVIZIO DI CAZZANIGA GIUSEPPE", "Bandiera": "Tamoil", "Tipo impianto": "Altro", "Indirizzo": "VIA SANT'AMBROGIO 43 20844", "Nome impianto": "STAZIONE DI SERVIZIO TAMOIL", "Comune": "TRIUGGIO", "idImpianto": 20559, "points": [{"type": "Feature", "properties": {}, "geometry": {"type": "Point", "coordinates": [9.28988617790992, 45.68107788288225]}}], "price": 1.849, "ultima_rilevazione": "20/05/2022 15:08:12"}, {"Gestore": "MERONI SERVICE CAR S.A.S. DI G. MERONI & C.", "Bandiera": "Esso", "Tipo impianto": "Altro", "Indirizzo": "via carducci 65 20851", "Nome impianto": "ESSO MERONI SERVICE CAR SAS", "Comune": "LISSONE", "idImpianto": 22190, "points": [{"type": "Feature", "properties": {}, "geometry": {"type": "Point", "coordinates": [9.235237428465894, 45.60339971326928]}}], "price": 1.826, "ultima_rilevazione": "20/05/2022 19:43:19"}, {"Gestore": "DICOMI S.R.L.", "Bandiera": "Q8", "Tipo impianto": "Altro", "Indirizzo": "VIA ARMANDO DIAZ 31 20834", "Nome impianto": "Q8", "Comune": "NOVA MILANESE", "idImpianto": 51349, "points": [{"type": "Feature", "properties": {}, "geometry": {"type": "Point", "coordinates": [9.200262000000016, 45.59991908386896]}}], "price": 1.819, "ultima_rilevazione": "21/05/2022 00:08:15"}, {"Gestore": "ALFA PETROLI SRL", "Bandiera": "Pompe Bianche", "Tipo impianto": "Altro", "Indirizzo": "VIA LEONARDO DA VINCI 72 20852", "Nome impianto": "ALFA PETROLI", "Comune": "VILLASANTA", "idImpianto": 6868, "points": [{"type": "Feature", "properties": {}, "geometry": {"type": "Point", "coordinates": [9.310900993883138, 45.61479977067869]}}], "price": 1.759, "ultima_rilevazione": "21/05/2022 07:30:08"}, {"Gestore": "BRITA S.A.S. DI D'AMATO DAVIDE & C.", "Bandiera": "Pompe Bianche", "Tipo impianto": "Altro", "Indirizzo": "VIA PRIVATA VICINALE 2/7 20852", "Nome impianto": "BRITA S.A.S", "Comune": "VILLASANTA", "idImpianto": 49253, "points": [{"type": "Feature", "properties": {}, "geometry": {"type": "Point", "coordinates": [9.30842854232789, 45.59988219820851]}}], "price": 1.769, "ultima_rilevazione": "21/05/2022 07:36:53"}]}, "Metano": {"1": [], "3": [], "5": [{"Gestore": "EUROGAS NOVA S.R.L.", "Bandiera": "Pompe Bianche", "Tipo impianto": "Altro", "Indirizzo": "Via G. A. Diaz 31 20834", "Nome impianto": "EUROGAS", "Comune": "NOVA MILANESE", "idImpianto": 49274, "points": [{"type": "Feature", "properties": {}, "geometry": {"type": "Point", "coordinates": [9.200202285811043, 45.59990726284961]}}], "price": 0.999, "ultima_rilevazione": "06/10/2021 00:08:48"}, {"Gestore": "DICOMI S.R.L.", "Bandiera": "Q8", "Tipo impianto": "Altro", "Indirizzo": "VIA ARMANDO DIAZ 31 20834", "Nome impianto": "Q8", "Comune": "NOVA MILANESE", "idImpianto": 51349, "points": [{"type": "Feature", "properties": {}, "geometry": {"type": "Point", "coordinates": [9.200262000000016, 45.59991908386896]}}], "price": 1.599, "ultima_rilevazione": "21/05/2022 00:08:15"}, {"Gestore": "METANO AUTO DESIO S.R.L.", "Bandiera": "Agip Eni", "Tipo impianto": "Altro", "Indirizzo": "VIALE AMBROSOLI ANGOLO V. MILANO  20832", "Nome impianto": "METANO AUTO DESIO SRL", "Comune": "DESIO", "idImpianto": 4028, "points": [{"type": "Feature", "properties": {}, "geometry": {"type": "Point", "coordinates": [9.201228322298448, 45.6006010288578]}}], "price": 1.634, "ultima_rilevazione": "21/05/2022 06:04:06"}]}, "GPL": {"1": [], "3": [{"Gestore": "BALDON FABRIZIO E C. SAS", "Bandiera": "Beyfin", "Tipo impianto": "Altro", "Indirizzo": " NUOVA VALASSINA 133 20832", "Nome impianto": "BEYFIN", "Comune": "DESIO", "idImpianto": 38079, "points": [{"type": "Feature", "properties": {}, "geometry": {"type": "Point", "coordinates": [9.223982021212578, 45.623904091494055]}}], "price": 0.739, "ultima_rilevazione": "19/05/2022 09:15:04"}, {"Gestore": "DUE ESSE S.A.S. DI LO TORTO MICHELE E STILO SALVATORE E C.", "Bandiera": "Socogas", "Tipo impianto": "Altro", "Indirizzo": "VIA MOSE' BIANCHI-S.P.6 KM.25,50 20841", "Nome impianto": "AREA MOSE' BIANCHI", "Comune": "CARATE BRIANZA", "idImpianto": 27284, "points": [{"type": "Feature", "properties": {}, "geometry": {"type": "Point", "coordinates": [9.247886538505554, 45.6631251327261]}}], "price": 0.859, "ultima_rilevazione": "16/05/2022 08:50:40"}, {"Gestore": "GI&MA SAS DI RIVA PIETRO", "Bandiera": "Api-Ip", "Tipo impianto": "Strada Statale", "Indirizzo": "36 del Lago di Como e dello Spluga, Km. 23, milano 20841", "Nome impianto": "GI&MA SAS", "Comune": "CARATE BRIANZA", "idImpianto": 35113, "points": [{"type": "Feature", "properties": {}, "geometry": {"type": "Point", "coordinates": [9.2234905064106, 45.66182344335993]}}], "price": 0.889, "ultima_rilevazione": "19/05/2022 15:24:56"}, {"Gestore": "LA MARCA GIUSEPPE", "Bandiera": "Api-Ip", "Tipo impianto": "Altro", "Indirizzo": "Via Bergognone, snc  20832", "Nome impianto": "Giuseppe La Marca", "Comune": "DESIO", "idImpianto": 42824, "points": [{"type": "Feature", "properties": {}, "geometry": {"type": "Point", "coordinates": [9.223661976686458, 45.62073237215098]}}], "price": 0.834, "ultima_rilevazione": "20/05/2022 13:11:12"}], "5": [{"Gestore": "EUROGAS NOVA S.R.L.", "Bandiera": "Pompe Bianche", "Tipo impianto": "Altro", "Indirizzo": "Via G. A. Diaz 31 20834", "Nome impianto": "EUROGAS", "Comune": "NOVA MILANESE", "idImpianto": 49274, "points": [{"type": "Feature", "properties": {}, "geometry": {"type": "Point", "coordinates": [9.200202285811043, 45.59990726284961]}}], "price": 0.799, "ultima_rilevazione": "06/10/2021 00:08:48"}, {"Gestore": "PUCCI GOMME DI MOTTO MASSIMO & C. S.N.C.", "Bandiera": "Pompe Bianche", "Tipo impianto": "Altro", "Indirizzo": "VIA BOSCHETTO SNC 23880", "Nome impianto": "PUCCI GREENPOWER", "Comune": "CASATENOVO", "idImpianto": 33534, "points": [{"type": "Feature", "properties": {}, "geometry": {"type": "Point", "coordinates": [9.316917210817335, 45.68040788805648]}}], "price": 0.899, "ultima_rilevazione": "02/05/2022 09:36:17"}, {"Gestore": "SERVIZI & GESTIONI ITALIA S.R.L.", "Bandiera": "Q8", "Tipo impianto": "Altro", "Indirizzo": "S.S.36 SPLUGA KM 10+495  20841", "Nome impianto": "CARATE BRIANZA  S.S.36 SPLUGA KM 10+495", "Comune": "CARATE BRIANZA", "idImpianto": 43651, "points": [{"type": "Feature", "properties": {}, "geometry": {"type": "Point", "coordinates": [9.219860217790938, 45.67494693789578]}}], "price": 0.869, "ultima_rilevazione": "18/05/2022 07:07:50"}, {"Gestore": "DICOMI S.R.L.", "Bandiera": "Q8", "Tipo impianto": "Altro", "Indirizzo": "VIA ARMANDO DIAZ 31 20834", "Nome impianto": "Q8", "Comune": "NOVA MILANESE", "idImpianto": 51349, "points": [{"type": "Feature", "properties": {}, "geometry": {"type": "Point", "coordinates": [9.200262000000016, 45.59991908386896]}}], "price": 0.839, "ultima_rilevazione": "21/05/2022 00:08:15"}]}, "Blue Diesel": {"1": [{"Gestore": "CHIAPPERINI PAOLO", "Bandiera": "Agip Eni", "Tipo impianto": "Altro", "Indirizzo": "viale monza  2 20845", "Nome impianto": "CHIAPPERINI PAOLO", "Comune": "SOVICO", "idImpianto": 43640, "points": [{"type": "Feature", "properties": {}, "geometry": {"type": "Point", "coordinates": [9.254779565641456, 45.65491274961172]}}], "price": 1.969, "ultima_rilevazione": "18/05/2022 07:07:07"}], "3": [{"Gestore": "AUTODROMO NAZIONALE MONZA S.I.A.S. SOCIETA' INCREMENTO AUTOMOBILISMO E SPORT -S.P.A.", "Bandiera": "Agip Eni", "Tipo impianto": "Altro", "Indirizzo": "VIALE DI VEDANO 5 20900", "Nome impianto": "Autodromo Nazionale Monza", "Comune": "MONZA", "idImpianto": 29043, "points": [{"type": "Feature", "properties": {}, "geometry": {"type": "Point", "coordinates": [9.282018981114788, 45.61894867633523]}}], "price": 2.274, "ultima_rilevazione": "19/05/2022 09:43:01"}, {"Gestore": "TREMOLADA E FIGLI SAS DI TREMOLADA DARIO & C.", "Bandiera": "Agip Eni", "Tipo impianto": "Strada Statale", "Indirizzo": "36 del Lago di Como e dello Spluga, Km. snc, Milano 20832 ", "Nome impianto": "Tremolada Sas", "Comune": "DESIO", "idImpianto": 50331, "points": [{"type": "Feature", "properties": {}, "geometry": {"type": "Point", "coordinates": [9.223568613082731, 45.61646218811291]}}], "price": 1.969, "ultima_rilevazione": "18/05/2022 06:40:58"}, {"Gestore": "STAZIONE DI SERVIZIO DI CORVINO CONCETTA", "Bandiera": "Agip Eni", "Tipo impianto": "Altro", "Indirizzo": "VIA MATTEOTTI 160 20851", "Nome impianto": "STAZ. SERV. ENI di Corvino Concetta", "Comune": "LISSONE", "idImpianto": 45886, "points": [{"type": "Feature", "properties": {}, "geometry": {"type": "Point", "coordinates": [9.234296000123, 45.618672000123]}}], "price": 1.969, "ultima_rilevazione": "18/05/2022 07:35:28"}, {"Gestore": "AUTODROMO NAZIONALE MONZA S.I.A.S. SOCIETA' INCREMENTO AUTOMOBILISMO E SPORT -S.P.A.", "Bandiera": "Agip Eni", "Tipo impianto": "Altro", "Indirizzo": "VIALE DI VEDANO 5 20900", "Nome impianto": "Autodromo Nazionale Monza", "Comune": "MONZA", "idImpianto": 29043, "points": [{"type": "Feature", "properties": {}, "geometry": {"type": "Point", "coordinates": [9.282018981114788, 45.61894867633523]}}], "price": 2.164, "ultima_rilevazione": "19/05/2022 09:43:01"}, {"Gestore": "CASTELLUCCIO SERVICE S.A.S. DI NESCI ERNESTO & C.", "Bandiera": "Agip Eni", "Tipo impianto": "Altro", "Indirizzo": "Via Macalle' 184 20831", "Nome impianto": "Eni Seregno 12261", "Comune": "SEREGNO", "idImpianto": 49133, "points": [{"type": "Feature", "properties": {}, "geometry": {"type": "Point", "coordinates": [9.22021315078735, 45.637368850223645]}}], "price": 1.999, "ultima_rilevazione": "20/05/2022 00:03:04"}], "5": [{"Gestore": "MP DI PERRONE SALVATORE", "Bandiera": "Agip Eni", "Tipo impianto": "Altro", "Indirizzo": "VIA ALFONSO CASATI 53 20862", "Nome impianto": "MP DI PERRONE S. - AGIP", "Comune": "ARCORE", "idImpianto": 13852, "points": [{"type": "Feature", "properties": {}, "geometry": {"type": "Point", "coordinates": [9.324206228010098, 45.62542386899243]}}], "price": 1.984, "ultima_rilevazione": "17/05/2022 07:46:48"}, {"Gestore": "SCARFONE COSIMO", "Bandiera": "Agip Eni", "Tipo impianto": "Altro", "Indirizzo": "via milano 230 20832", "Nome impianto": "ENI DESIO", "Comune": "DESIO", "idImpianto": 32877, "points": [{"type": "Feature", "properties": {}, "geometry": {"type": "Point", "coordinates": [9.199714064598083, 45.62074583216158]}}], "price": 1.969, "ultima_rilevazione": "18/05/2022 09:50:31"}, {"Gestore": "SCARFONE COSIMO", "Bandiera": "Agip Eni", "Tipo impianto": "Altro", "Indirizzo": "mazzini  20835", "Nome impianto": "eni", "Comune": "MUGGIO'", "idImpianto": 41512, "points": [{"type": "Feature", "properties": {}, "geometry": {"type": "Point", "coordinates": [9.233100190758703, 45.59301366559917]}}], "price": 1.969, "ultima_rilevazione": "18/05/2022 09:52:21"}, {"Gestore": "ILMAPPA DI MAPELLI MARCO", "Bandiera": "Agip Eni", "Tipo impianto": "Altro", "Indirizzo": "VIA LEONARDO DA VINCI 88 20852", "Nome impianto": "ENI 51890", "Comune": "VILLASANTA", "idImpianto": 10398, "points": [{"type": "Feature", "properties": {}, "geometry": {"type": "Point", "coordinates": [9.312728941440582, 45.616128930827664]}}], "price": 1.989, "ultima_rilevazione": "20/05/2022 08:08:15"}]}, "Diesel High Quality": {"1": [{"Gestore": "CAROLI GIOVANNI", "Bandiera": "Q8", "Tipo impianto": "Altro", "Indirizzo": "VIA GIOVANNI DA SOVICO 129 20845", "Nome impianto": "Caroli Giovanni", "Comune": "SOVICO", "idImpianto": 19353, "points": [{"type": "Feature", "properties": {}, "geometry": {"type": "Point", "coordinates": [9.266958820866762, 45.64417784424008]}}], "price": 2.199, "ultima_rilevazione": "19/05/2022 18:00:25"}, {"Gestore": "RAIMONDO E CHIARA S.N.C. DI MARCUCCI RAIMONDO E C", "Bandiera": "Q8", "Tipo impianto": "Altro", "Indirizzo": "Viale Monza 19 20845", "Nome impianto": "Q8 di Raimondo e Chiara ", "Comune": "SOVICO", "idImpianto": 46917, "points": [{"type": "Feature", "properties": {}, "geometry": {"type": "Point", "coordinates": [9.25856351987874, 45.650415804145176]}}], "price": 2.139, "ultima_rilevazione": "19/05/2022 18:45:38"}], "3": [{"Gestore": "SERVIZI & GESTIONI ITALIA S.R.L.", "Bandiera": "Q8", "Tipo impianto": "Altro", "Indirizzo": "VIA VALASSINA 144 EST 20033", "Nome impianto": "DESIO-VIA VALASSINA 144 EST", "Comune": "DESIO", "idImpianto": 11643, "points": [{"type": "Feature", "properties": {}, "geometry": {"type": "Point", "coordinates": [9.224793526458711, 45.62338022251562]}}], "price": 2.169, "ultima_rilevazione": "18/05/2022 07:07:48"}, {"Gestore": "SERVIZI & GESTIONI ITALIA S.R.L.", "Bandiera": "Q8", "Tipo impianto": "Altro", "Indirizzo": "SS 36 VALASSINA KM 19+020 S/N 20035", "Nome impianto": "LISSONE-SS 36 VALASSINA KM 19+020", "Comune": "LISSONE", "idImpianto": 11649, "points": [{"type": "Feature", "properties": {}, "geometry": {"type": "Point", "coordinates": [9.224526822090183, 45.63615438760353]}}], "price": 2.169, "ultima_rilevazione": "18/05/2022 07:07:48"}, {"Gestore": "SERVIZI & GESTIONI ITALIA S.R.L.", "Bandiera": "Q8", "Tipo impianto": "Altro", "Indirizzo": "VIA VALASSINA 144 EST 20033", "Nome impianto": "DESIO-VIA VALASSINA 144 EST", "Comune": "DESIO", "idImpianto": 11643, "points": [{"type": "Feature", "properties": {}, "geometry": {"type": "Point", "coordinates": [9.224793526458711, 45.62338022251562]}}], "price": 2.199, "ultima_rilevazione": "18/05/2022 07:07:48"}, {"Gestore": "SERVIZI & GESTIONI ITALIA S.R.L.", "Bandiera": "Q8", "Tipo impianto": "Altro", "Indirizzo": "SS 36 VALASSINA KM 19+020 S/N 20035", "Nome impianto": "LISSONE-SS 36 VALASSINA KM 19+020", "Comune": "LISSONE", "idImpianto": 11649, "points": [{"type": "Feature", "properties": {}, "geometry": {"type": "Point", "coordinates": [9.224526822090183, 45.63615438760353]}}], "price": 2.199, "ultima_rilevazione": "18/05/2022 07:07:48"}], "5": [{"Gestore": "JOLLY ROGER S.A.S. DI LUCIANO PAOLO", "Bandiera": "Q8", "Tipo impianto": "Altro", "Indirizzo": "Via Ferruccio Gilera 43 20862", "Nome impianto": "Q8 ", "Comune": "ARCORE", "idImpianto": 48754, "points": [{"type": "Feature", "properties": {}, "geometry": {"type": "Point", "coordinates": [9.329420467756975, 45.6295054253031]}}], "price": 2.164, "ultima_rilevazione": "17/05/2022 10:13:31"}, {"Gestore": "SERVIZI & GESTIONI ITALIA S.R.L.", "Bandiera": "Q8", "Tipo impianto": "Altro", "Indirizzo": "VIA GILERA 150 20043", "Nome impianto": "ARCORE-VIA GILERA 150", "Comune": "ARCORE", "idImpianto": 11639, "points": [{"type": "Feature", "properties": {}, "geometry": {"type": "Point", "coordinates": [9.335339067459133, 45.63390750203607]}}], "price": 2.184, "ultima_rilevazione": "18/05/2022 07:07:47"}, {"Gestore": "SERVIZI & GESTIONI ITALIA S.R.L.", "Bandiera": "Q8", "Tipo impianto": "Altro", "Indirizzo": "VIA MILANO 165 20033", "Nome impianto": "DESIO-VIA MILANO 165", "Comune": "DESIO", "idImpianto": 11642, "points": [{"type": "Feature", "properties": {}, "geometry": {"type": "Point", "coordinates": [9.20041492757798, 45.61516903593563]}}], "price": 2.129, "ultima_rilevazione": "18/05/2022 07:07:47"}, {"Gestore": "SERVIZI & GESTIONI ITALIA S.R.L.", "Bandiera": "Q8", "Tipo impianto": "Altro", "Indirizzo": "S.S.36 SPLUGA KM 10+495  20841", "Nome impianto": "CARATE BRIANZA  S.S.36 SPLUGA KM 10+495", "Comune": "CARATE BRIANZA", "idImpianto": 43651, "points": [{"type": "Feature", "properties": {}, "geometry": {"type": "Point", "coordinates": [9.219860217790938, 45.67494693789578]}}], "price": 2.169, "ultima_rilevazione": "18/05/2022 07:07:50"}, {"Gestore": "NUOVA SIDAP  S.R.L.", "Bandiera": "Q8", "Tipo impianto": "Strada Statale", "Indirizzo": "36 del Lago di Como e dello Spluga, Km.  23,470, Sud 20841", "Nome impianto": "CARATE OVEST", "Comune": "CARATE BRIANZA", "idImpianto": 46534, "points": [{"type": "Feature", "properties": {}, "geometry": {"type": "Point", "coordinates": [9.219954758882524, 45.67205225949342]}}], "price": 2.109, "ultima_rilevazione": "19/05/2022 09:57:39"}, {"Gestore": "SERVIZI & GESTIONI ITALIA S.R.L.", "Bandiera": "Q8", "Tipo impianto": "Altro", "Indirizzo": "S.P.192 VALASSINA  20851", "Nome impianto": "LISSONE S.P.192 VALASSINA", "Comune": "LISSONE", "idImpianto": 39112, "points": [{"type": "Feature", "properties": {}, "geometry": {"type": "Point", "coordinates": [9.231563955545424, 45.60228936339683]}}], "price": 2.149, "ultima_rilevazione": "20/05/2022 06:32:48"}, {"Gestore": "SERVIZI & GESTIONI ITALIA S.R.L.", "Bandiera": "Q8", "Tipo impianto": "Altro", "Indirizzo": "VIA GILERA 150 20043", "Nome impianto": "ARCORE-VIA GILERA 150", "Comune": "ARCORE", "idImpianto": 11639, "points": [{"type": "Feature", "properties": {}, "geometry": {"type": "Point", "coordinates": [9.335339067459133, 45.63390750203607]}}], "price": 2.199, "ultima_rilevazione": "18/05/2022 07:07:47"}, {"Gestore": "SERVIZI & GESTIONI ITALIA S.R.L.", "Bandiera": "Q8", "Tipo impianto": "Altro", "Indirizzo": "VIA MILANO 165 20033", "Nome impianto": "DESIO-VIA MILANO 165", "Comune": "DESIO", "idImpianto": 11642, "points": [{"type": "Feature", "properties": {}, "geometry": {"type": "Point", "coordinates": [9.20041492757798, 45.61516903593563]}}], "price": 2.169, "ultima_rilevazione": "18/05/2022 07:07:47"}, {"Gestore": "SERVIZI & GESTIONI ITALIA S.R.L.", "Bandiera": "Q8", "Tipo impianto": "Altro", "Indirizzo": "S.S.36 SPLUGA KM 10+495  20841", "Nome impianto": "CARATE BRIANZA  S.S.36 SPLUGA KM 10+495", "Comune": "CARATE BRIANZA", "idImpianto": 43651, "points": [{"type": "Feature", "properties": {}, "geometry": {"type": "Point", "coordinates": [9.219860217790938, 45.67494693789578]}}], "price": 2.199, "ultima_rilevazione": "18/05/2022 07:07:50"}, {"Gestore": "EGI-2GO S.R.L.", "Bandiera": "Esso", "Tipo impianto": "Altro", "Indirizzo": "VIA G. MAZZINI 13 20835", "Nome impianto": "Muggio", "Comune": "MUGGIO'", "idImpianto": 48001, "points": [{"type": "Feature", "properties": {}, "geometry": {"type": "Point", "coordinates": [9.236082046627049, 45.59281963065065]}}], "price": 1.929, "ultima_rilevazione": "20/05/2022 08:02:53"}, {"Gestore": "CAR SERVICE S.N.C. DI CARLO SPADONE E ALBERTO SCORZA", "Bandiera": "Esso", "Tipo impianto": "Altro", "Indirizzo": "VIA ANTONIO STOPPANI 92 20831", "Nome impianto": "car service snc", "Comune": "SEREGNO", "idImpianto": 43540, "points": [{"type": "Feature", "properties": {}, "geometry": {"type": "Point", "coordinates": [9.195143177909811, 45.6563447475817]}}], "price": 1.996, "ultima_rilevazione": "20/05/2022 10:55:29"}]}, "Gasolio High Quality": {"1": [{"Gestore": "SANICAR SERVICE S.N.C. DI SALVATORE NICOLA E LOMBARDO SALVATORE", "Bandiera": "Esso", "Tipo impianto": "Altro", "Indirizzo": "VIA ALESSANDRO VOLTA 2 20846", "Nome impianto": "sanicarservice snc di salvatore nicola e lombardo salvatore", "Comune": "MACHERIO", "idImpianto": 5656, "points": [{"type": "Feature", "properties": {}, "geometry": {"type": "Point", "coordinates": [9.265367770676107, 45.63839694383991]}}], "price": 2.036, "ultima_rilevazione": "20/05/2022 07:08:22"}], "3": [{"Gestore": "CURIONI ANGELO E POZZI SANDRA SNC", "Bandiera": "Esso", "Tipo impianto": "Altro", "Indirizzo": "VIA MILANO 81 20831", "Nome impianto": "SEREGNO VIA MILANO 81  ", "Comune": "SEREGNO", "idImpianto": 43069, "points": [{"type": "Feature", "properties": {}, "geometry": {"type": "Point", "coordinates": [9.205776271163929, 45.63923175066154]}}], "price": 1.966, "ultima_rilevazione": "20/05/2022 07:50:44"}, {"Gestore": "STAZIONE DI SERVIZIO CURIONI GIOVANNI & POZZI SANDRA S.N.C.", "Bandiera": "Esso", "Tipo impianto": "Strada Statale", "Indirizzo": "Statale 36 del Lago di Como e dello Spluga, Km. 20+400, dir. LECCO 20831", "Nome impianto": "SEREGNO SAN SALVATORE", "Comune": "SEREGNO", "idImpianto": 7628, "points": [{"type": "Feature", "properties": {}, "geometry": {"type": "Point", "coordinates": [9.226229041814804, 45.6486815094895]}}], "price": 2.016, "ultima_rilevazione": "20/05/2022 07:52:12"}, {"Gestore": "GALIFI DOMENICO", "Bandiera": "Api-Ip", "Tipo impianto": "Altro", "Indirizzo": "Via M.Buonarroti 148 20035", "Nome impianto": "total erg di Galifi ", "Comune": "LISSONE", "idImpianto": 43616, "points": [{"type": "Feature", "properties": {}, "geometry": {"type": "Point", "coordinates": [9.239804046627114, 45.62240218615924]}}], "price": 1.834, "ultima_rilevazione": "28/03/2022 10:16:18"}], "5": [{"Gestore": "VANOLI S.N.C. DI VANOLI FIRMINO E MARONI", "Bandiera": "Esso", "Tipo impianto": "Altro", "Indirizzo": "via 4 Novembre, Paina di Giussano  160 20034", "Nome impianto": "stazione di servizio Esso Vanoli snc", "Comune": "GIUSSANO", "idImpianto": 5160, "points": [{"type": "Feature", "properties": {}, "geometry": {"type": "Point", "coordinates": [9.202318489551544, 45.668298036450224]}}], "price": 1.966, "ultima_rilevazione": "19/05/2022 18:49:51"}, {"Gestore": "RUSSO GIORGIO", "Bandiera": "Esso", "Tipo impianto": "Altro", "Indirizzo": "VIA GIUSEPPE GARIBALDI 306 20832", "Nome impianto": "ESSO ", "Comune": "DESIO", "idImpianto": 21100, "points": [{"type": "Feature", "properties": {}, "geometry": {"type": "Point", "coordinates": [9.202510938048365, 45.6069307654106]}}], "price": 1.989, "ultima_rilevazione": "19/05/2022 19:04:00"}, {"Gestore": "ALMAS AUTOLAVAGGIO DI MAZHAR MOHAMMAD AYYAZ", "Bandiera": "Esso", "Tipo impianto": "Altro", "Indirizzo": "VIALE LOMBARDIA 16 20900", "Nome impianto": "ESSO - ALMAS AUTOLAVAGGIO", "Comune": "MONZA", "idImpianto": 51146, "points": [{"type": "Feature", "properties": {}, "geometry": {"type": "Point", "coordinates": [9.252574549598677, 45.58845789608662]}}], "price": 1.929, "ultima_rilevazione": "20/05/2022 08:16:50"}]}, "null": {}}