{"area_comune": "[{\"type\": \"Feature\", \"properties\": {}, \"geometry\": {\"type\": \"Polygon\", \"coordinates\": [[[9.606000883970331, 45.71043394300533], [9.62508733287345, 45.709936229902794], [9.625417485336053, 45.70813587522268], [9.622435744842813, 45.70379016554394], [9.621725865446612, 45.700775400812816], [9.622127448181752, 45.697604945030534], [9.62299884423458, 45.69676343199401], [9.614020695950638, 45.69392248683631], [9.609621143091335, 45.69327998749002], [9.602967372580078, 45.69440439322952], [9.602546844052558, 45.69471264496183], [9.60089640596266, 45.69531538041742], [9.599589574522533, 45.69561928311794], [9.59401884681144, 45.69596339607576], [9.593523461487386, 45.697703132838825], [9.594546932501169, 45.70216218252848], [9.59934249111916, 45.70976075968072], [9.601355651668236, 45.710596261933226], [9.606000883970331, 45.71043394300533]]]}}]", "comune": "mozzo", "buffer_1": "[{\"type\": \"Feature\", \"properties\": {}, \"geometry\": {\"type\": \"Polygon\", \"coordinates\": [[[9.594888008164434, 45.714950762734105], [9.59557493063835, 45.715693560600776], [9.596362692266027, 45.716385501695086], [9.597243677272774, 45.71701989350088], [9.598209367343946, 45.71759059991403], [9.5992504239856, 45.71809210065206], [9.600356778859958, 45.71851954470831], [9.601517731220683, 45.71886879733017], [9.602722051502715, 45.719136480064606], [9.603958090060232, 45.71932000348142], [9.605213889995388, 45.71941759225527], [9.606477302979592, 45.71942830236248], [9.625566808216533, 45.71893049445785], [9.626804451692827, 45.7188560200132], [9.628026038931287, 45.71869816716006], [9.629220147647718, 45.7184584119261], [9.63037561286184, 45.71813899613972], [9.631481631421966, 45.71774290643863], [9.632527863123215, 45.717273846306256], [9.633504527468657, 45.71673620139949], [9.634402495164494, 45.716134998493914], [9.63521337349099, 45.7154758584326], [9.635929584749507, 45.71476494352109], [9.636544437052168, 45.714008899862606], [9.637052186793785, 45.71321479517526], [9.637448092224824, 45.71239005267505], [9.63772845762877, 45.71154238164447], [9.637890667696158, 45.710679705338215], [9.637933211780311, 45.70981008690075], [9.637855697815013, 45.70894165398986], [9.635764252822051, 45.695769102956554], [9.635554684960075, 45.69486783694298], [9.635215891237438, 45.69398608877384], [9.634751364439284, 45.69313293326556], [9.634165890767235, 45.69231715056469], [9.633465500379092, 45.691547135834476], [9.632657405164078, 45.690830812916566], [9.631749924400482, 45.69017555285325], [9.630752399065381, 45.68958809810561], [9.629675095680883, 45.68907449324375], [9.628529100686801, 45.68864002281904], [9.627326206425053, 45.68828915705394], [9.626078789905323, 45.68802550590507], [9.624799685593839, 45.687851781969286], [9.623502053527012, 45.68776977261191], [9.59452669631073, 45.686969840042366], [9.593280405196445, 45.6869776901645], [9.59204106605578, 45.68707016477507], [9.590820346947645, 45.68724639327789], [9.589629740884572, 45.68750471654307], [9.588480457771535, 45.68784270250469], [9.587383318991362, 45.68825716902675], [9.58634865562328, 45.688744213823], [9.585386211247657, 45.689299251151716], [9.5845050502482, 45.689917054941176], [9.583713472472315, 45.6905918079429], [9.583018935052014, 45.69131715645201], [9.58242798212173, 45.69208627008204], [9.58194618309672, 45.69289190603412], [9.581578080096344, 45.69372647725747], [9.581327145011933, 45.69458212386145], [9.581195746629184, 45.69545078710871], [9.581185128121371, 45.69632428529373], [9.581295395132626, 45.69719439079329], [9.58152551457139, 45.698052907563614], [9.581873324133271, 45.69889174835416], [9.582335552471504, 45.69970301091035], [9.582907849832344, 45.70047905244648], [9.594888008164434, 45.714950762734105]]]}}]", "buffer_3": "[{\"type\": \"Feature\", \"properties\": {}, \"geometry\": {\"type\": \"Polygon\", \"coordinates\": [[[9.572656863081567, 45.72398117424704], [9.574717140936748, 45.72620995503521], [9.57708016329705, 45.72828619071767], [9.57972309301698, 45.73018978782282], [9.582620376169189, 45.731902321752386], [9.585743989083705, 45.733407215640064], [9.589063709667842, 45.73468990133303], [9.592547410369944, 45.73573796091234], [9.596161369925758, 45.73654124735854], [9.599870600830714, 45.7370919831724], [9.603639189317018, 45.737384835978], [9.607430644483328, 45.73741697036097], [9.626526266723417, 45.73691897270297], [9.630240373975656, 45.7366954724653], [9.633906249610215, 45.73622176005558], [9.637489585183891, 45.73550226930507], [9.640956848072356, 45.734543734107255], [9.644275596452527, 45.73335512512852], [9.64741478386636, 45.731947565515156], [9.650345050468777, 45.73033422640147], [9.653038998197149, 45.72853020321559], [9.655471447261986, 45.72655237396155], [9.657619671545937, 45.72441924082542], [9.659463610708771, 45.72215075661096], [9.660986057027422, 45.7197681376502], [9.662172815249217, 45.71729366496064], [9.663012834001021, 45.71475047552801], [9.663498307573416, 45.71216234568274], [9.66362474718508, 45.709553468609535], [9.663391021124486, 45.706948228078815], [9.661293664853908, 45.69377617270155], [9.6606637766619, 45.69107251920478], [9.659646317399584, 45.68842749889218], [9.658251809653008, 45.68586832699565], [9.656494650056509, 45.683421331849736], [9.654392959355002, 45.68111168444965], [9.651968394492036, 45.678963140031854], [9.649245924714482, 45.67699779430933], [9.646253574038086, 45.67523585684032], [9.643022132745688, 45.67369544382975], [9.63958484088926, 45.67239239246314], [9.63597704703556, 45.67134009865041], [9.632235845731293, 45.67054937981935], [9.62839969736555, 45.67002836414287], [9.624508034273433, 45.66978240731719], [9.595541950899449, 45.66898268120496], [9.59180427459158, 45.669006218151246], [9.588087425947055, 45.669283548710915], [9.584426365260727, 45.66981206459513], [9.580855530393025, 45.670586794778785], [9.577408514130415, 45.671600452055245], [9.574117749327092, 45.67284350129714], [9.571014204735167, 45.674304248793845], [9.568127094338957, 45.67596895184257], [9.565483602892296, 45.67782194758089], [9.563108630217407, 45.6798457998705], [9.561024556660213, 45.68202146287278], [9.559251031911401, 45.684328459800035], [9.557804789196073, 45.68674507518294], [9.556699486609167, 45.68924855886595], [9.555945577130256, 45.69181533982979], [9.555550208591974, 45.69442124784461], [9.555517154603173, 45.69704174087951], [9.555846777142985, 45.699652136136635], [9.556536021248, 45.702227842538214], [9.557578441914142, 45.70474459247739], [9.558964263030342, 45.70717867064525], [9.56068046785576, 45.709507137769535], [9.572656863081567, 45.72398117424704]]]}}]", "buffer_5": "[{\"type\": \"Feature\", \"properties\": {}, \"geometry\": {\"type\": \"Polygon\", \"coordinates\": [[[9.550418526636722, 45.73300727843274], [9.553851505222527, 45.7367225583105], [9.557789436559272, 45.74018363856343], [9.56219427585153, 45.74335700351051], [9.567023435036571, 45.74621191830743], [9.572230194434642, 45.74872072809719], [9.577764155464086, 45.75085912734911], [9.583571730007348, 45.75260639670695], [9.5895966616174, 45.7539456049844], [9.595780573407065, 45.75486377429022], [9.60206353717116, 45.75535200663145], [9.608384658057389, 45.75540557072677], [9.627486403086907, 45.75490738311637], [9.633678545036613, 45.754534754400254], [9.6397901959001, 45.75374497700038], [9.645764105486503, 45.75254545024428], [9.651544323177651, 45.75094741134152], [9.657076725254829, 45.74896582937353], [9.662309524525847, 45.74661926413054], [9.667193757347704, 45.743929691161945], [9.67168374338039, 45.74092229473217], [9.675737513695603, 45.737625230678475], [9.679317203196112, 45.73406936145438], [9.682389403672849, 45.73028796590243], [9.684925474232614, 45.72631642653574], [9.686901806264183, 45.72219189731437], [9.68830004056942, 45.71795295507843], [9.689107234762835, 45.71363923794513], [9.689315979532658, 45.70929107408833], [9.68892446285318, 45.704949104397876], [9.686821197217448, 45.69177754721598], [9.685769410151712, 45.687271699790244], [9.684071849300743, 45.682863706960724], [9.681746125895808, 45.67859891203827], [9.678816297547998, 45.674521175374664], [9.675312615772306, 45.670672424458445], [9.67127121075471, 45.667092224209334], [9.666733716762776, 45.66381737181751], [9.661746842163879, 45.66088152021253], [9.656361888533674, 45.65831483394664], [9.6506342238077, 45.656143680941305], [9.644622714848389, 45.65439036317883], [9.638389125165878, 45.65307288902582], [9.631997483842474, 45.6522047894553], [9.625513431965821, 45.65179497999491], [9.59655661368073, 45.65099546002004], [9.590329146339613, 45.65103466591253], [9.584136344771373, 45.651496728239685], [9.57803640314827, 45.65237730566925], [9.572086649405477, 45.653668123735834], [9.566343010071225, 45.65535705203758], [9.5608594878035, 45.657428217446515], [9.555687656393259, 45.65986215230446], [9.550876177853727, 45.66263597625816], [9.54647034603662, 45.66572361007756], [9.542511660999544, 45.669096019506775], [9.539037438095377, 45.67272148691711], [9.536080455465008, 45.67656590827246], [9.533668643290822, 45.68059311267606], [9.531824817811582, 45.68476520155253], [9.530566462711505, 45.689042904327074], [9.52990556008024, 45.69338594730077], [9.529848472698335, 45.69775343228603], [9.530395878938485, 45.70210422146315], [9.531542761089312, 45.70639732484711], [9.533278447410371, 45.71059228671659], [9.535586707718442, 45.71464956735305], [9.53844590179109, 45.718530916469234], [9.550418526636722, 45.73300727843274]]]}}]", "centroid": "[{\"type\": \"Feature\", \"properties\": {}, \"geometry\": {\"type\": \"Point\", \"coordinates\": [9.610855023010433, 45.70238066333359]}}]", "Diesel High Quality": {"1": [{"Gestore": "SERVIZI & GESTIONI ITALIA S.R.L.", "Bandiera": "Q8", "Tipo impianto": "Altro", "Indirizzo": "SS.BRIANTEA 342 VIA BERGAMO 21 24035", "Nome impianto": "CURNO-SS.BRIANTEA 342 VIA BERGAMO 21", "Comune": "CURNO", "idImpianto": 11492, "points": [{"type": "Feature", "properties": {}, "geometry": {"type": "Point", "coordinates": [9.62216897916801, 45.69200117253395]}}], "price": 2.199, "ultima_rilevazione": "18/07/2022 14:04:46"}, {"Gestore": "SERVIZI & GESTIONI ITALIA S.R.L.", "Bandiera": "Q8", "Tipo impianto": "Altro", "Indirizzo": "SS.BRIANTEA 342 VIA BERGAMO 21 24035", "Nome impianto": "CURNO-SS.BRIANTEA 342 VIA BERGAMO 21", "Comune": "CURNO", "idImpianto": 11492, "points": [{"type": "Feature", "properties": {}, "geometry": {"type": "Point", "coordinates": [9.62216897916801, 45.69200117253395]}}], "price": 2.189, "ultima_rilevazione": "18/07/2022 14:04:46"}, {"Gestore": "CO.RINA. S.N.C. DI CORNA, RINALDI & C.", "Bandiera": "Q8", "Tipo impianto": "Altro", "Indirizzo": "VIA BRIANTEA, KM 4  24129", "Nome impianto": "co.rina ", "Comune": "BERGAMO", "idImpianto": 8053, "points": [{"type": "Feature", "properties": {}, "geometry": {"type": "Point", "coordinates": [9.626941680908203, 45.69124802532839]}}], "price": 2.289, "ultima_rilevazione": "20/07/2022 12:48:27"}], "3": [{"Gestore": "GAS S.N.C. DI GREGORIO ALESSIO & SILVANO PREDA", "Bandiera": "Q8", "Tipo impianto": "Altro", "Indirizzo": "VIA CESARE BATTISTI 81 24030", "Nome impianto": "Q8", "Comune": "BREMBATE DI SOPRA", "idImpianto": 31728, "points": [{"type": "Feature", "properties": {}, "geometry": {"type": "Point", "coordinates": [9.583364410381364, 45.72765278972703]}}], "price": 2.364, "ultima_rilevazione": "25/03/2022 18:20:22"}, {"Gestore": "GAS S.N.C. DI GREGORIO ALESSIO & SILVANO PREDA", "Bandiera": "Q8", "Tipo impianto": "Altro", "Indirizzo": "VIA CESARE BATTISTI 81 24030", "Nome impianto": "Q8", "Comune": "BREMBATE DI SOPRA", "idImpianto": 31728, "points": [{"type": "Feature", "properties": {}, "geometry": {"type": "Point", "coordinates": [9.583364410381364, 45.72765278972703]}}], "price": 2.424, "ultima_rilevazione": "25/03/2022 18:20:22"}, {"Gestore": "ILHAMI HAMZA", "Bandiera": "Esso", "Tipo impianto": "Altro", "Indirizzo": "Via dalmine 23 24035", "Nome impianto": "Esso di Ilhami Hamza", "Comune": "CURNO", "idImpianto": 44677, "points": [{"type": "Feature", "properties": {}, "geometry": {"type": "Point", "coordinates": [9.602728246486322, 45.685638241888576]}}], "price": 2.189, "ultima_rilevazione": "04/07/2022 09:58:28"}, {"Gestore": "SERVIZI & GESTIONI ITALIA S.R.L.", "Bandiera": "Q8", "Tipo impianto": "Altro", "Indirizzo": "VIA MANZONI STATALE BRIANTEA S/N 24036", "Nome impianto": "PONTE SAN PIETRO-VIA MANZONI STATALE BRIANTEA", "Comune": "PONTE SAN PIETRO", "idImpianto": 11484, "points": [{"type": "Feature", "properties": {}, "geometry": {"type": "Point", "coordinates": [9.571070846557632, 45.705104895083466]}}], "price": 2.219, "ultima_rilevazione": "18/07/2022 00:36:43"}, {"Gestore": "SERVIZI & GESTIONI ITALIA S.R.L.", "Bandiera": "Q8", "Tipo impianto": "Altro", "Indirizzo": "VIA MANZONI STATALE BRIANTEA S/N 24036", "Nome impianto": "PONTE SAN PIETRO-VIA MANZONI STATALE BRIANTEA", "Comune": "PONTE SAN PIETRO", "idImpianto": 11484, "points": [{"type": "Feature", "properties": {}, "geometry": {"type": "Point", "coordinates": [9.571070846557632, 45.705104895083466]}}], "price": 2.249, "ultima_rilevazione": "18/07/2022 00:36:43"}, {"Gestore": "SERVIZI & GESTIONI ITALIA S.R.L.", "Bandiera": "Q8", "Tipo impianto": "Altro", "Indirizzo": "VIALE EUROPA S/N 24048", "Nome impianto": "TREVIOLO-VIALE EUROPA", "Comune": "TREVIOLO", "idImpianto": 11493, "points": [{"type": "Feature", "properties": {}, "geometry": {"type": "Point", "coordinates": [9.631402682209, 45.67589183113847]}}], "price": 2.219, "ultima_rilevazione": "18/07/2022 14:04:47"}, {"Gestore": "SERVIZI & GESTIONI ITALIA S.R.L.", "Bandiera": "Q8", "Tipo impianto": "Altro", "Indirizzo": "VIALE EUROPA S/N 24048", "Nome impianto": "TREVIOLO-VIALE EUROPA", "Comune": "TREVIOLO", "idImpianto": 11493, "points": [{"type": "Feature", "properties": {}, "geometry": {"type": "Point", "coordinates": [9.631402682209, 45.67589183113847]}}], "price": 2.229, "ultima_rilevazione": "18/07/2022 14:04:47"}, {"Gestore": "EGI-2GO S.R.L.", "Bandiera": "Esso", "Tipo impianto": "Strada Statale", "Indirizzo": "671 della Val Seriana, Km. 0+750, LECCO 24035", "Nome impianto": "EGI-2GO CURNO", "Comune": "CURNO", "idImpianto": 50728, "points": [{"type": "Feature", "properties": {}, "geometry": {"type": "Point", "coordinates": [9.611357382954363, 45.67949785174545]}}], "price": 2.029, "ultima_rilevazione": "20/07/2022 07:54:00"}, {"Gestore": "DORELEI CARBURANTI DI GUALCO DAVIDE & C. S.A.S.", "Bandiera": "Esso", "Tipo impianto": "Strada Statale", "Indirizzo": "Statale 470 della Val Brembana, Km. 1,4, dir. DALMINE 24035", "Nome impianto": "DORELEI CARBURANTI SAS ", "Comune": "CURNO", "idImpianto": 14558, "points": [{"type": "Feature", "properties": {}, "geometry": {"type": "Point", "coordinates": [9.602007865905762, 45.68602346571805]}}], "price": 2.026, "ultima_rilevazione": "20/07/2022 07:58:54"}], "5": [{"Gestore": "SERVIZI & GESTIONI ITALIA srl", "Bandiera": "Q8", "Tipo impianto": "Altro", "Indirizzo": "VIA SAN BERNARDINO DISTR.Q8 SNC 24100", "Nome impianto": "BERGAMO VIA SAN BERNARDINO DISTR.Q8", "Comune": "BERGAMO", "idImpianto": 6425, "points": [{"type": "Feature", "properties": {}, "geometry": {"type": "Point", "coordinates": [9.660737890213, 45.67485736569532]}}], "price": 1.728, "ultima_rilevazione": "20/07/2022 14:40:09"}, {"Gestore": "SERVIZI & GESTIONI ITALIA S.R.L.", "Bandiera": "Q8", "Tipo impianto": "Altro", "Indirizzo": "VIA LOCATELLI 19 24010", "Nome impianto": "ALME-VIA LOCATELLI 19", "Comune": "ALME'", "idImpianto": 11481, "points": [{"type": "Feature", "properties": {}, "geometry": {"type": "Point", "coordinates": [9.621048279762247, 45.73959812803139]}}], "price": 2.219, "ultima_rilevazione": "18/07/2022 00:35:41"}, {"Gestore": "SERVIZI & GESTIONI ITALIA S.R.L.", "Bandiera": "Q8", "Tipo impianto": "Altro", "Indirizzo": "VIA LOCATELLI 19 24010", "Nome impianto": "ALME-VIA LOCATELLI 19", "Comune": "ALME'", "idImpianto": 11481, "points": [{"type": "Feature", "properties": {}, "geometry": {"type": "Point", "coordinates": [9.621048279762247, 45.73959812803139]}}], "price": 2.269, "ultima_rilevazione": "18/07/2022 00:35:41"}, {"Gestore": "CAFFE' SCUDELETTI S.R.L.", "Bandiera": "Q8", "Tipo impianto": "Altro", "Indirizzo": "VIA PROVINCIALE 4 24040", "Nome impianto": "0956", "Comune": "LALLIO", "idImpianto": 49364, "points": [{"type": "Feature", "properties": {}, "geometry": {"type": "Point", "coordinates": [9.633973697424487, 45.66537756829584]}}], "price": 2.307, "ultima_rilevazione": "18/07/2022 10:31:55"}, {"Gestore": "CAFFE' SCUDELETTI S.R.L.", "Bandiera": "Q8", "Tipo impianto": "Altro", "Indirizzo": "VIA PROVINCIALE 4 24040", "Nome impianto": "0956", "Comune": "LALLIO", "idImpianto": 49364, "points": [{"type": "Feature", "properties": {}, "geometry": {"type": "Point", "coordinates": [9.633973697424487, 45.66537756829584]}}], "price": 2.347, "ultima_rilevazione": "18/07/2022 10:31:55"}, {"Gestore": "SERVIZI & GESTIONI ITALIA S.R.L.", "Bandiera": "Q8", "Tipo impianto": "Altro", "Indirizzo": "VIA A.MAY 7/C 24121", "Nome impianto": "BERGAMO-VIA A.MAY 7/C", "Comune": "BERGAMO", "idImpianto": 11482, "points": [{"type": "Feature", "properties": {}, "geometry": {"type": "Point", "coordinates": [9.677001516532869, 45.69395995197229]}}], "price": 2.199, "ultima_rilevazione": "18/07/2022 14:04:45"}, {"Gestore": "SERVIZI & GESTIONI ITALIA S.R.L.", "Bandiera": "Q8", "Tipo impianto": "Altro", "Indirizzo": "VIA A.MAY 7/C 24121", "Nome impianto": "BERGAMO-VIA A.MAY 7/C", "Comune": "BERGAMO", "idImpianto": 11482, "points": [{"type": "Feature", "properties": {}, "geometry": {"type": "Point", "coordinates": [9.677001516532869, 45.69395995197229]}}], "price": 2.229, "ultima_rilevazione": "18/07/2022 14:04:45"}, {"Gestore": "SG69.SOCIETA' A RESPONSABILITA' LIMITATA SEMPLIFICATA", "Bandiera": "Esso", "Tipo impianto": "Altro", "Indirizzo": "VIA GRUMELLO 40 24100", "Nome impianto": "Esso", "Comune": "BERGAMO", "idImpianto": 47125, "points": [{"type": "Feature", "properties": {}, "geometry": {"type": "Point", "coordinates": [9.640194017048753, 45.67048560607016]}}], "price": 2.099, "ultima_rilevazione": "19/07/2022 14:41:18"}, {"Gestore": "SERVIZI & GESTIONI ITALIA S.R.L.", "Bandiera": "Q8", "Tipo impianto": "Altro", "Indirizzo": "VIA STEZZANO - SS.42 KM.17+004 99 24126", "Nome impianto": "BERGAMO-VIA STEZZANO N. 99 SS.42 KM.17+004", "Comune": "BERGAMO", "idImpianto": 11488, "points": [{"type": "Feature", "properties": {}, "geometry": {"type": "Point", "coordinates": [9.6569712539673, 45.66011751627286]}}], "price": 2.189, "ultima_rilevazione": "20/07/2022 07:08:17"}, {"Gestore": "SERVIZI & GESTIONI ITALIA S.R.L.", "Bandiera": "Q8", "Tipo impianto": "Altro", "Indirizzo": "VIA STEZZANO - SS.42 KM.17+004 99 24126", "Nome impianto": "BERGAMO-VIA STEZZANO N. 99 SS.42 KM.17+004", "Comune": "BERGAMO", "idImpianto": 11488, "points": [{"type": "Feature", "properties": {}, "geometry": {"type": "Point", "coordinates": [9.6569712539673, 45.66011751627286]}}], "price": 2.239, "ultima_rilevazione": "20/07/2022 07:08:17"}, {"Gestore": "R.C. S.N.C. DI ROSSETTI STEFANO E COFFETTI LUCA", "Bandiera": "Esso", "Tipo impianto": "Altro", "Indirizzo": "via autostrada 14 24126", "Nome impianto": "via autostrada (108947)", "Comune": "BERGAMO", "idImpianto": 48572, "points": [{"type": "Feature", "properties": {}, "geometry": {"type": "Point", "coordinates": [9.66834582824174, 45.68642489259134]}}], "price": 1.995, "ultima_rilevazione": "20/07/2022 09:58:18"}]}, "Blue Diesel": {"1": [{"Gestore": "TIRONI VITTORIO DI TIRONI ERNESTO & C.SNC", "Bandiera": "Agip Eni", "Tipo impianto": "Altro", "Indirizzo": "via provinciale dalmine alme 3 24030", "Nome impianto": "ENI", "Comune": "MOZZO", "idImpianto": 28870, "points": [{"type": "Feature", "properties": {}, "geometry": {"type": "Point", "coordinates": [9.604947566986084, 45.70374271843002]}}], "price": 2.024, "ultima_rilevazione": "21/07/2022 07:34:08"}, {"Gestore": "TIRONI VITTORIO DI TIRONI ERNESTO & C.SNC", "Bandiera": "Agip Eni", "Tipo impianto": "Altro", "Indirizzo": "via provinciale dalmine alme 3 24030", "Nome impianto": "ENI", "Comune": "MOZZO", "idImpianto": 28870, "points": [{"type": "Feature", "properties": {}, "geometry": {"type": "Point", "coordinates": [9.604947566986084, 45.70374271843002]}}], "price": 2.104, "ultima_rilevazione": "21/07/2022 07:34:08"}], "3": [{"Gestore": "PIAZZOLLA FAUSTA", "Bandiera": "Agip Eni", "Tipo impianto": "Altro", "Indirizzo": "Via Broseta 61/63 24128", "Nome impianto": "ENI Piazzolla Fausta", "Comune": "BERGAMO", "idImpianto": 46889, "points": [{"type": "Feature", "properties": {}, "geometry": {"type": "Point", "coordinates": [9.655722271163995, 45.69338727669847]}}], "price": 2.089, "ultima_rilevazione": "18/07/2022 11:32:09"}, {"Gestore": "GARGANTINI MASSIMO", "Bandiera": "Agip Eni", "Tipo impianto": "Altro", "Indirizzo": "VIA CARDUCCI 236 24127", "Nome impianto": "STAZIONE DI SERVIZIO GARGANTINI MASSIMO", "Comune": "BERGAMO", "idImpianto": 47921, "points": [{"type": "Feature", "properties": {}, "geometry": {"type": "Point", "coordinates": [9.651470482349396, 45.68944822678624]}}], "price": 2.019, "ultima_rilevazione": "17/07/2022 21:42:26"}, {"Gestore": "COSMA FABRIZIO", "Bandiera": "Agip Eni", "Tipo impianto": "Altro", "Indirizzo": "VIA ARRIGO BOITO 12 24040", "Nome impianto": "Cosma Fabrizio - Stezzano", "Comune": "STEZZANO", "idImpianto": 12534, "points": [{"type": "Feature", "properties": {}, "geometry": {"type": "Point", "coordinates": [9.63703751564026, 45.671871760248166]}}], "price": 2.024, "ultima_rilevazione": "17/07/2022 22:39:01"}, {"Gestore": "MA.PI. S.N.C. DEI F.LLI CORNAGO", "Bandiera": "Agip Eni", "Tipo impianto": "Strada Statale", "Indirizzo": "Statale 671 della Val Seriana, Km. 0,982, dir. bergamo 24035", "Nome impianto": "eni", "Comune": "CURNO", "idImpianto": 4981, "points": [{"type": "Feature", "properties": {}, "geometry": {"type": "Point", "coordinates": [9.613474309444427, 45.67956670215767]}}], "price": 2.024, "ultima_rilevazione": "18/07/2022 17:26:09"}], "5": [{"Gestore": "F.LLI CAPELLI E C. S.N.C.", "Bandiera": "Agip Eni", "Tipo impianto": "Altro", "Indirizzo": "VIA SIGISMONDI 39 24018", "Nome impianto": "ENI", "Comune": "VILLA D'ALME'", "idImpianto": 46851, "points": [{"type": "Feature", "properties": {}, "geometry": {"type": "Point", "coordinates": [9.612978352927255, 45.74835409254968]}}], "price": 2.119, "ultima_rilevazione": "17/07/2022 23:14:13"}, {"Gestore": "F.LLI CAPELLI E C. S.N.C.", "Bandiera": "Agip Eni", "Tipo impianto": "Altro", "Indirizzo": "VIA SIGISMONDI 39 24018", "Nome impianto": "ENI", "Comune": "VILLA D'ALME'", "idImpianto": 46851, "points": [{"type": "Feature", "properties": {}, "geometry": {"type": "Point", "coordinates": [9.612978352927255, 45.74835409254968]}}], "price": 2.019, "ultima_rilevazione": "17/07/2022 23:14:13"}, {"Gestore": "D'APOTE VINCENZO", "Bandiera": "Agip Eni", "Tipo impianto": "Altro", "Indirizzo": "CIRCONVALLAZIONE MUGAZZONE 10 24125", "Nome impianto": "ENI MUGAZZONE", "Comune": "BERGAMO", "idImpianto": 47975, "points": [{"type": "Feature", "properties": {}, "geometry": {"type": "Point", "coordinates": [9.68490402331354, 45.68628518936725]}}], "price": 2.024, "ultima_rilevazione": "20/07/2022 17:32:57"}, {"Gestore": "VALSECCHI ANDREA", "Bandiera": "Agip Eni", "Tipo impianto": "Altro", "Indirizzo": "VIA BAIONI 76 24123", "Nome impianto": "STAZIONE DI SERVIZIO ENI di Valsecchi Andrea", "Comune": "BERGAMO", "idImpianto": 50492, "points": [{"type": "Feature", "properties": {}, "geometry": {"type": "Point", "coordinates": [9.668584822973395, 45.71291006891518]}}], "price": 2.024, "ultima_rilevazione": "21/07/2022 07:34:07"}, {"Gestore": "VALSECCHI ANDREA", "Bandiera": "Agip Eni", "Tipo impianto": "Altro", "Indirizzo": "VIA BAIONI 76 24123", "Nome impianto": "STAZIONE DI SERVIZIO ENI di Valsecchi Andrea", "Comune": "BERGAMO", "idImpianto": 50492, "points": [{"type": "Feature", "properties": {}, "geometry": {"type": "Point", "coordinates": [9.668584822973395, 45.71291006891518]}}], "price": 2.104, "ultima_rilevazione": "21/07/2022 07:34:07"}]}, "Gasolio High Quality": {"1": [], "3": [{"Gestore": "EMANUELE FRANCESCO S.R.L.", "Bandiera": "Esso", "Tipo impianto": "Strada Statale", "Indirizzo": "Statale 470 della Val Brembana, Km. 5+523, dir. nord ", "Nome impianto": "stazione di servizio Emanuele Francesco Srl", "Comune": "SORISOLE", "idImpianto": 13878, "points": [{"type": "Feature", "properties": {}, "geometry": {"type": "Point", "coordinates": [9.640401005744934, 45.73222188663616]}}], "price": 1.858, "ultima_rilevazione": "19/07/2022 18:23:52"}, {"Gestore": "DORELEI CARBURANTI DI GUALCO DAVIDE & C. S.A.S.", "Bandiera": "Esso", "Tipo impianto": "Strada Statale", "Indirizzo": "Statale 470 della Val Brembana, Km. 1,4, dir. DALMINE 24035", "Nome impianto": "DORELEI CARBURANTI SAS ", "Comune": "CURNO", "idImpianto": 14558, "points": [{"type": "Feature", "properties": {}, "geometry": {"type": "Point", "coordinates": [9.602007865905762, 45.68602346571805]}}], "price": 2.026, "ultima_rilevazione": "20/07/2022 07:58:54"}], "5": []}, "Benzina": {"1": [{"Gestore": "BAR ONE DI SANGALLI ZEUDI E C. S.A.S.", "Bandiera": "Total Erg", "Tipo impianto": "Altro", "Indirizzo": "Via Lecco 18 24040", "Nome impianto": "Stazione di servizio ip", "Comune": "CURNO", "idImpianto": 47973, "points": [{"type": "Feature", "properties": {}, "geometry": {"type": "Point", "coordinates": [9.600723306134208, 45.69435968371205]}}], "price": 1.969, "ultima_rilevazione": "11/07/2022 09:12:01"}, {"Gestore": "C.T. S.N.C. DI TIRONI ERNESTO &  FUMAGALLI GIACOMO", "Bandiera": "Q8", "Tipo impianto": "Strada Statale", "Indirizzo": "470 della Val Brembana, Km. 5,8, Villa d'alme' 24035", "Nome impianto": "Q8 mozzo", "Comune": "MOZZO", "idImpianto": 15255, "points": [{"type": "Feature", "properties": {}, "geometry": {"type": "Point", "coordinates": [9.605923891067505, 45.70470372147232]}}], "price": 1.969, "ultima_rilevazione": "18/07/2022 06:57:17"}, {"Gestore": "SERVIZI & GESTIONI ITALIA S.R.L.", "Bandiera": "Q8", "Tipo impianto": "Altro", "Indirizzo": "S.S. 342 BRIANTEA KM.4,885  24035", "Nome impianto": "CURNO S.S. 342 BRIANTEA KM.4,885 -Q8", "Comune": "CURNO", "idImpianto": 24759, "points": [{"type": "Feature", "properties": {}, "geometry": {"type": "Point", "coordinates": [9.616742851589947, 45.69245442050466]}}], "price": 1.869, "ultima_rilevazione": "18/07/2022 14:04:42"}, {"Gestore": "SERVIZI & GESTIONI ITALIA S.R.L.", "Bandiera": "Q8", "Tipo impianto": "Altro", "Indirizzo": "SS.BRIANTEA 342 VIA BERGAMO 21 24035", "Nome impianto": "CURNO-SS.BRIANTEA 342 VIA BERGAMO 21", "Comune": "CURNO", "idImpianto": 11492, "points": [{"type": "Feature", "properties": {}, "geometry": {"type": "Point", "coordinates": [9.62216897916801, 45.69200117253395]}}], "price": 1.889, "ultima_rilevazione": "18/07/2022 14:04:46"}, {"Gestore": "BELOTTI GIAMPIETRO & C. S.N.C.", "Bandiera": "Api-Ip", "Tipo impianto": "Altro", "Indirizzo": "VIA ROMA 81 24030", "Nome impianto": "BELOTTI GIAMPIETRO & C. S.N.C.", "Comune": "VALBREMBO", "idImpianto": 11305, "points": [{"type": "Feature", "properties": {}, "geometry": {"type": "Point", "coordinates": [9.606021720237775, 45.71050488939503]}}], "price": 1.929, "ultima_rilevazione": "19/07/2022 09:38:22"}, {"Gestore": "CO.RINA. S.N.C. DI CORNA, RINALDI & C.", "Bandiera": "Q8", "Tipo impianto": "Altro", "Indirizzo": "VIA BRIANTEA, KM 4  24129", "Nome impianto": "co.rina ", "Comune": "BERGAMO", "idImpianto": 8053, "points": [{"type": "Feature", "properties": {}, "geometry": {"type": "Point", "coordinates": [9.626941680908203, 45.69124802532839]}}], "price": 1.939, "ultima_rilevazione": "20/07/2022 12:48:27"}, {"Gestore": "AF PETROL S.R.L.", "Bandiera": "Pompe Bianche", "Tipo impianto": "Altro", "Indirizzo": "VIA BERGAMO  40 24035", "Nome impianto": "AF PETROL SRL", "Comune": "CURNO", "idImpianto": 47362, "points": [{"type": "Feature", "properties": {}, "geometry": {"type": "Point", "coordinates": [9.618496000123, 45.692214000123]}}], "price": 1.864, "ultima_rilevazione": "21/07/2022 01:24:08"}, {"Gestore": "TIRONI VITTORIO DI TIRONI ERNESTO & C.SNC", "Bandiera": "Agip Eni", "Tipo impianto": "Altro", "Indirizzo": "via provinciale dalmine alme 3 24030", "Nome impianto": "ENI", "Comune": "MOZZO", "idImpianto": 28870, "points": [{"type": "Feature", "properties": {}, "geometry": {"type": "Point", "coordinates": [9.604947566986084, 45.70374271843002]}}], "price": 1.954, "ultima_rilevazione": "21/07/2022 07:34:08"}], "3": [{"Gestore": "PIAZZOLLA FAUSTA", "Bandiera": "Agip Eni", "Tipo impianto": "Altro", "Indirizzo": "Via Broseta 61/63 24128", "Nome impianto": "ENI Piazzolla Fausta", "Comune": "BERGAMO", "idImpianto": 46889, "points": [{"type": "Feature", "properties": {}, "geometry": {"type": "Point", "coordinates": [9.655722271163995, 45.69338727669847]}}], "price": 2.119, "ultima_rilevazione": "18/07/2022 11:32:09"}, {"Gestore": "GAS S.N.C. DI GREGORIO ALESSIO & SILVANO PREDA", "Bandiera": "Q8", "Tipo impianto": "Altro", "Indirizzo": "VIA CESARE BATTISTI 81 24030", "Nome impianto": "Q8", "Comune": "BREMBATE DI SOPRA", "idImpianto": 31728, "points": [{"type": "Feature", "properties": {}, "geometry": {"type": "Point", "coordinates": [9.583364410381364, 45.72765278972703]}}], "price": 1.799, "ultima_rilevazione": "25/03/2022 18:20:22"}, {"Gestore": "ILHAMI HAMZA", "Bandiera": "Esso", "Tipo impianto": "Altro", "Indirizzo": "Via dalmine 23 24035", "Nome impianto": "Esso di Ilhami Hamza", "Comune": "CURNO", "idImpianto": 44677, "points": [{"type": "Feature", "properties": {}, "geometry": {"type": "Point", "coordinates": [9.602728246486322, 45.685638241888576]}}], "price": 2.049, "ultima_rilevazione": "04/07/2022 09:58:28"}, {"Gestore": "STAZIONE DI SERVIZIO ESSO DI ILHAMI AZEDDINE", "Bandiera": "Esso", "Tipo impianto": "Altro", "Indirizzo": "VIA BROSETA 55 24128", "Nome impianto": "Stazione Esso di Ilhami Azeddine", "Comune": "BERGAMO", "idImpianto": 48392, "points": [{"type": "Feature", "properties": {}, "geometry": {"type": "Point", "coordinates": [9.657846267875811, 45.69296505836206]}}], "price": 2.009, "ultima_rilevazione": "04/07/2022 10:00:30"}, {"Gestore": "GARGANTINI MASSIMO", "Bandiera": "Agip Eni", "Tipo impianto": "Altro", "Indirizzo": "VIA CARDUCCI 236 24127", "Nome impianto": "STAZIONE DI SERVIZIO GARGANTINI MASSIMO", "Comune": "BERGAMO", "idImpianto": 47921, "points": [{"type": "Feature", "properties": {}, "geometry": {"type": "Point", "coordinates": [9.651470482349396, 45.68944822678624]}}], "price": 1.949, "ultima_rilevazione": "17/07/2022 21:42:26"}, {"Gestore": "COSMA FABRIZIO", "Bandiera": "Agip Eni", "Tipo impianto": "Altro", "Indirizzo": "VIA ARRIGO BOITO 12 24040", "Nome impianto": "Cosma Fabrizio - Stezzano", "Comune": "STEZZANO", "idImpianto": 12534, "points": [{"type": "Feature", "properties": {}, "geometry": {"type": "Point", "coordinates": [9.63703751564026, 45.671871760248166]}}], "price": 1.994, "ultima_rilevazione": "17/07/2022 22:39:01"}, {"Gestore": "SERVIZI & GESTIONI ITALIA S.R.L.", "Bandiera": "Q8", "Tipo impianto": "Altro", "Indirizzo": "VIA MANZONI STATALE BRIANTEA S/N 24036", "Nome impianto": "PONTE SAN PIETRO-VIA MANZONI STATALE BRIANTEA", "Comune": "PONTE SAN PIETRO", "idImpianto": 11484, "points": [{"type": "Feature", "properties": {}, "geometry": {"type": "Point", "coordinates": [9.571070846557632, 45.705104895083466]}}], "price": 1.949, "ultima_rilevazione": "18/07/2022 00:36:43"}, {"Gestore": "IMMOBILIARE GESTINVEST S.R.L.", "Bandiera": "Q8", "Tipo impianto": "Altro", "Indirizzo": "VIA DONIZETTI 74 24030", "Nome impianto": "Q8 via donizetti 74 brembate sopra", "Comune": "BREMBATE DI SOPRA", "idImpianto": 15806, "points": [{"type": "Feature", "properties": {}, "geometry": {"type": "Point", "coordinates": [9.584220338623028, 45.711260258601385]}}], "price": 1.959, "ultima_rilevazione": "18/07/2022 13:54:15"}, {"Gestore": "SERVIZI & GESTIONI ITALIA srl", "Bandiera": "Q8", "Tipo impianto": "Altro", "Indirizzo": "S.P.MILANESE.V.MORONI DISTR.Q8 SNC 24100", "Nome impianto": "BERGAMO S.P.MILANESE.V.MORONI DISTR.Q8", "Comune": "BERGAMO", "idImpianto": 6424, "points": [{"type": "Feature", "properties": {}, "geometry": {"type": "Point", "coordinates": [9.65119043086338, 45.6792499525339]}}], "price": 1.919, "ultima_rilevazione": "18/07/2022 14:04:41"}, {"Gestore": "SERVIZI & GESTIONI ITALIA S.R.L.", "Bandiera": "Q8", "Tipo impianto": "Altro", "Indirizzo": "VIALE EUROPA S/N 24048", "Nome impianto": "TREVIOLO-VIALE EUROPA", "Comune": "TREVIOLO", "idImpianto": 11493, "points": [{"type": "Feature", "properties": {}, "geometry": {"type": "Point", "coordinates": [9.631402682209, 45.67589183113847]}}], "price": 1.929, "ultima_rilevazione": "18/07/2022 14:04:47"}, {"Gestore": "MA.PI. S.N.C. DEI F.LLI CORNAGO", "Bandiera": "Agip Eni", "Tipo impianto": "Strada Statale", "Indirizzo": "Statale 671 della Val Seriana, Km. 0,982, dir. bergamo 24035", "Nome impianto": "eni", "Comune": "CURNO", "idImpianto": 4981, "points": [{"type": "Feature", "properties": {}, "geometry": {"type": "Point", "coordinates": [9.613474309444427, 45.67956670215767]}}], "price": 1.974, "ultima_rilevazione": "18/07/2022 17:26:09"}, {"Gestore": "DALCO DI DALMAGGIONI SIMONE BATTISTA & C. S.N.C.", "Bandiera": "Q8", "Tipo impianto": "Altro", "Indirizzo": "VIA BRUNO LOCATELLI 29 24030", "Nome impianto": "Q8  dalco snc", "Comune": "BREMBATE DI SOPRA", "idImpianto": 16731, "points": [{"type": "Feature", "properties": {}, "geometry": {"type": "Point", "coordinates": [9.582115032540855, 45.71200081939895]}}], "price": 1.959, "ultima_rilevazione": "18/07/2022 19:48:25"}, {"Gestore": "EMANUELE FRANCESCO S.R.L.", "Bandiera": "Esso", "Tipo impianto": "Strada Statale", "Indirizzo": "Statale 470 della Val Brembana, Km. 5+523, dir. nord ", "Nome impianto": "stazione di servizio Emanuele Francesco Srl", "Comune": "SORISOLE", "idImpianto": 13878, "points": [{"type": "Feature", "properties": {}, "geometry": {"type": "Point", "coordinates": [9.640401005744934, 45.73222188663616]}}], "price": 1.847, "ultima_rilevazione": "19/07/2022 18:23:52"}, {"Gestore": "ALL CAR SERVICE S.N.C. DEI F.LLI SANA", "Bandiera": "Esso", "Tipo impianto": "Altro", "Indirizzo": "VIA VITTORIO VENETO 1697 24030", "Nome impianto": "ALL CAR SERVICE SNC", "Comune": "PRESEZZO", "idImpianto": 11306, "points": [{"type": "Feature", "properties": {}, "geometry": {"type": "Point", "coordinates": [9.562004226389265, 45.69084381775606]}}], "price": 1.919, "ultima_rilevazione": "20/07/2022 07:50:38"}, {"Gestore": "EGI-2GO S.R.L.", "Bandiera": "Esso", "Tipo impianto": "Strada Statale", "Indirizzo": "671 della Val Seriana, Km. 0+750, LECCO 24035", "Nome impianto": "EGI-2GO CURNO", "Comune": "CURNO", "idImpianto": 50728, "points": [{"type": "Feature", "properties": {}, "geometry": {"type": "Point", "coordinates": [9.611357382954363, 45.67949785174545]}}], "price": 1.879, "ultima_rilevazione": "20/07/2022 07:54:00"}, {"Gestore": "DORELEI CARBURANTI DI GUALCO DAVIDE & C. S.A.S.", "Bandiera": "Esso", "Tipo impianto": "Strada Statale", "Indirizzo": "Statale 470 della Val Brembana, Km. 1,4, dir. DALMINE 24035", "Nome impianto": "DORELEI CARBURANTI SAS ", "Comune": "CURNO", "idImpianto": 14558, "points": [{"type": "Feature", "properties": {}, "geometry": {"type": "Point", "coordinates": [9.602007865905762, 45.68602346571805]}}], "price": 1.896, "ultima_rilevazione": "20/07/2022 07:58:54"}, {"Gestore": "IP SERVICES S.R.L.", "Bandiera": "Api-Ip", "Tipo impianto": "Altro", "Indirizzo": "Via delle Valli 10 24048", "Nome impianto": "TREVIOLO", "Comune": "TREVIOLO", "idImpianto": 5519, "points": [{"type": "Feature", "properties": {}, "geometry": {"type": "Point", "coordinates": [9.601222000000009, 45.671643006037066]}}], "price": 1.839, "ultima_rilevazione": "20/07/2022 09:03:56"}, {"Gestore": "IP SERVICES S.R.L.", "Bandiera": "Api-Ip", "Tipo impianto": "Altro", "Indirizzo": "Via BROSETA 75 24128", "Nome impianto": "BROSETA", "Comune": "BERGAMO", "idImpianto": 29630, "points": [{"type": "Feature", "properties": {}, "geometry": {"type": "Point", "coordinates": [9.65200443435856, 45.69376833520888]}}], "price": 1.899, "ultima_rilevazione": "20/07/2022 09:04:18"}, {"Gestore": "IP SERVICES S.R.L.", "Bandiera": "Api-Ip", "Tipo impianto": "Altro", "Indirizzo": "Via Moroni   24122", "Nome impianto": "Bergamo", "Comune": "BERGAMO", "idImpianto": 10094, "points": [{"type": "Feature", "properties": {}, "geometry": {"type": "Point", "coordinates": [9.65637236427915, 45.68440930548873]}}], "price": 1.899, "ultima_rilevazione": "20/07/2022 09:04:19"}, {"Gestore": "IPERSTAROIL S.R.L.", "Bandiera": "Auchan", "Tipo impianto": "Altro", "Indirizzo": "VIA FERMI ANGOLO VIA CURNASCO SNC 24035", "Nome impianto": "Curno", "Comune": "CURNO", "idImpianto": 50282, "points": [{"type": "Feature", "properties": {}, "geometry": {"type": "Point", "coordinates": [9.617299983614926, 45.68332426509254]}}], "price": 1.864, "ultima_rilevazione": "20/07/2022 11:46:07"}, {"Gestore": "T.D.M. S.R.L.", "Bandiera": "Tamoil", "Tipo impianto": "Altro", "Indirizzo": "VIA CARLINGA CENTRO COMMERCIALE  24035", "Nome impianto": "3676", "Comune": "CURNO", "idImpianto": 47370, "points": [{"type": "Feature", "properties": {}, "geometry": {"type": "Point", "coordinates": [9.607331713372956, 45.68289598467205]}}], "price": 1.839, "ultima_rilevazione": "20/07/2022 12:04:14"}, {"Gestore": "LA SIESTA DI LAZZARONI OSCAR & C. S.N.C.", "Bandiera": "Tamoil", "Tipo impianto": "Altro", "Indirizzo": "strada provinciale 153 24030", "Nome impianto": "TAMOIL", "Comune": "VALBREMBO", "idImpianto": 40536, "points": [{"type": "Feature", "properties": {}, "geometry": {"type": "Point", "coordinates": [9.610003530979156, 45.72304072139144]}}], "price": 1.929, "ultima_rilevazione": "20/07/2022 15:04:06"}, {"Gestore": "LA SIESTA DI LAZZARONI OSCAR & C. S.N.C.", "Bandiera": "Tamoil", "Tipo impianto": "Altro", "Indirizzo": "strada provinciale 153 24030", "Nome impianto": "TAMOIL", "Comune": "VALBREMBO", "idImpianto": 40536, "points": [{"type": "Feature", "properties": {}, "geometry": {"type": "Point", "coordinates": [9.610003530979156, 45.72304072139144]}}], "price": 2.079, "ultima_rilevazione": "20/07/2022 15:04:06"}, {"Gestore": "DIEFFE SRL", "Bandiera": "Pompe Bianche", "Tipo impianto": "Altro", "Indirizzo": "VIA Giosu\u00e8 Carducci 450 24127", "Nome impianto": "BergamOil", "Comune": "BERGAMO", "idImpianto": 43500, "points": [{"type": "Feature", "properties": {}, "geometry": {"type": "Point", "coordinates": [9.647449271163964, 45.68944386284728]}}], "price": 1.879, "ultima_rilevazione": "20/07/2022 17:13:17"}, {"Gestore": "AUTOSERVICE DI GIOVANNI D'ALOIA S.A.S.", "Bandiera": "Tamoil", "Tipo impianto": "Altro", "Indirizzo": "Via Marconi 63 24010", "Nome impianto": "TAMOIL 8034", "Comune": "SORISOLE", "idImpianto": 36250, "points": [{"type": "Feature", "properties": {}, "geometry": {"type": "Point", "coordinates": [9.629782952045389, 45.73405320154285]}}], "price": 1.839, "ultima_rilevazione": "20/07/2022 17:30:08"}, {"Gestore": "AUTOSERVICE DI GIOVANNI D'ALOIA S.A.S.", "Bandiera": "Tamoil", "Tipo impianto": "Altro", "Indirizzo": "Via Marconi 63 24010", "Nome impianto": "TAMOIL 8034", "Comune": "SORISOLE", "idImpianto": 36250, "points": [{"type": "Feature", "properties": {}, "geometry": {"type": "Point", "coordinates": [9.629782952045389, 45.73405320154285]}}], "price": 1.989, "ultima_rilevazione": "20/07/2022 17:30:08"}, {"Gestore": "IPERSTAROIL S.R.L.", "Bandiera": "Auchan", "Tipo impianto": "Altro", "Indirizzo": "VIA GIOSUE CARDUCCI 4 24127", "Nome impianto": "Bergamo", "Comune": "BERGAMO", "idImpianto": 50283, "points": [{"type": "Feature", "properties": {}, "geometry": {"type": "Point", "coordinates": [9.650376858887563, 45.68715129690769]}}], "price": 1.879, "ultima_rilevazione": "20/07/2022 18:26:09"}, {"Gestore": "AF PETROL S.R.L.", "Bandiera": "Pompe Bianche", "Tipo impianto": "Altro", "Indirizzo": "VIA MILANO  9 24040", "Nome impianto": "AF PETROL", "Comune": "BONATE SOPRA", "idImpianto": 46031, "points": [{"type": "Feature", "properties": {}, "geometry": {"type": "Point", "coordinates": [9.568731020832049, 45.68179171980827]}}], "price": 1.918, "ultima_rilevazione": "21/07/2022 00:08:05"}], "5": [{"Gestore": "F.LLI BELOTTI DI OVIDIO E GIOVANNI S.N.C.", "Bandiera": "OIL ONE", "Tipo impianto": "Altro", "Indirizzo": "VIA GRUMELLO 45/A 24127", "Nome impianto": "IP F.LLI BELOTTI", "Comune": "BERGAMO", "idImpianto": 14436, "points": [{"type": "Feature", "properties": {}, "geometry": {"type": "Point", "coordinates": [9.64323341846466, 45.673581038934536]}}], "price": 2.159, "ultima_rilevazione": "21/07/2022 07:43:57"}, {"Gestore": "GREEN FUELS MANAGEMENT S.R.L.", "Bandiera": "Esso", "Tipo impianto": "Altro", "Indirizzo": "VIA MAURO GAVAZZENI 39 24125", "Nome impianto": "Green Fuels", "Comune": "BERGAMO", "idImpianto": 38030, "points": [{"type": "Feature", "properties": {}, "geometry": {"type": "Point", "coordinates": [9.68568313128344, 45.69067429819868]}}], "price": 2.099, "ultima_rilevazione": "21/07/2022 07:00:14"}, {"Gestore": "AMBROGIO MORO S.P.A.", "Bandiera": "Api-Ip", "Tipo impianto": "Altro", "Indirizzo": "VIA ITALIA 7 24011", "Nome impianto": "MORO ALME'", "Comune": "ALME'", "idImpianto": 49120, "points": [{"type": "Feature", "properties": {}, "geometry": {"type": "Point", "coordinates": [9.619764864816428, 45.74096326010482]}}], "price": 1.959, "ultima_rilevazione": "15/07/2022 11:36:40"}, {"Gestore": "F.LLI CAPELLI E C. S.N.C.", "Bandiera": "Agip Eni", "Tipo impianto": "Altro", "Indirizzo": "VIA SIGISMONDI 39 24018", "Nome impianto": "ENI", "Comune": "VILLA D'ALME'", "idImpianto": 46851, "points": [{"type": "Feature", "properties": {}, "geometry": {"type": "Point", "coordinates": [9.612978352927255, 45.74835409254968]}}], "price": 1.969, "ultima_rilevazione": "17/07/2022 23:14:13"}, {"Gestore": "SERVIZI & GESTIONI ITALIA S.R.L.", "Bandiera": "Q8", "Tipo impianto": "Altro", "Indirizzo": "VIA LOCATELLI 19 24010", "Nome impianto": "ALME-VIA LOCATELLI 19", "Comune": "ALME'", "idImpianto": 11481, "points": [{"type": "Feature", "properties": {}, "geometry": {"type": "Point", "coordinates": [9.621048279762247, 45.73959812803139]}}], "price": 2.019, "ultima_rilevazione": "18/07/2022 00:35:41"}, {"Gestore": "CALOR SYSTEMS S.R.L.", "Bandiera": "Api-Ip", "Tipo impianto": "Altro", "Indirizzo": "VIA GHISLANDI 35 24125", "Nome impianto": "BERGAMO GHISLANDI", "Comune": "BERGAMO", "idImpianto": 50000, "points": [{"type": "Feature", "properties": {}, "geometry": {"type": "Point", "coordinates": [9.684616401223357, 45.69764748196743]}}], "price": 2.029, "ultima_rilevazione": "18/07/2022 09:33:34"}, {"Gestore": "CAFFE' SCUDELETTI S.R.L.", "Bandiera": "Q8", "Tipo impianto": "Altro", "Indirizzo": "VIA PROVINCIALE 4 24040", "Nome impianto": "0956", "Comune": "LALLIO", "idImpianto": 49364, "points": [{"type": "Feature", "properties": {}, "geometry": {"type": "Point", "coordinates": [9.633973697424487, 45.66537756829584]}}], "price": 1.957, "ultima_rilevazione": "18/07/2022 10:31:55"}, {"Gestore": "SERVIZI & GESTIONI ITALIA S.R.L.", "Bandiera": "Q8", "Tipo impianto": "Altro", "Indirizzo": "VIA A.MAY 7/C 24121", "Nome impianto": "BERGAMO-VIA A.MAY 7/C", "Comune": "BERGAMO", "idImpianto": 11482, "points": [{"type": "Feature", "properties": {}, "geometry": {"type": "Point", "coordinates": [9.677001516532869, 45.69395995197229]}}], "price": 1.979, "ultima_rilevazione": "18/07/2022 14:04:45"}, {"Gestore": "TOMASINI GIAMPRIETO", "Bandiera": "Api-Ip", "Tipo impianto": "Altro", "Indirizzo": "VIA ZANICA 31/B 24126", "Nome impianto": "stazione di servizio", "Comune": "BERGAMO", "idImpianto": 15437, "points": [{"type": "Feature", "properties": {}, "geometry": {"type": "Point", "coordinates": [9.672985716886616, 45.68276943477138]}}], "price": 1.869, "ultima_rilevazione": "18/07/2022 18:52:59"}, {"Gestore": "SERVIZI & GESTIONI ITALIA S.R.L.", "Bandiera": "Q8", "Tipo impianto": "Altro", "Indirizzo": "VIA GHISLANDI 20 24125", "Nome impianto": "BERGAMO-VIA GHISLANDI 20", "Comune": "BERGAMO", "idImpianto": 11489, "points": [{"type": "Feature", "properties": {}, "geometry": {"type": "Point", "coordinates": [9.68528314847947, 45.69933300574483]}}], "price": 1.949, "ultima_rilevazione": "19/07/2022 01:38:11"}, {"Gestore": "AUTOSERVIZI GHILL S.N.C. DI KHABRA K. G. E SINGH J. & C.", "Bandiera": "Agip Eni", "Tipo impianto": "Altro", "Indirizzo": "VIA SAN BERNARDINO 127 24126", "Nome impianto": "stazione di servizio AGIP ", "Comune": "BERGAMO", "idImpianto": 42258, "points": [{"type": "Feature", "properties": {}, "geometry": {"type": "Point", "coordinates": [9.661690918433123, 45.68061701840012]}}], "price": 1.919, "ultima_rilevazione": "19/07/2022 11:04:59"}, {"Gestore": "SG69.SOCIETA' A RESPONSABILITA' LIMITATA SEMPLIFICATA", "Bandiera": "Esso", "Tipo impianto": "Altro", "Indirizzo": "VIA GRUMELLO 40 24100", "Nome impianto": "Esso", "Comune": "BERGAMO", "idImpianto": 47125, "points": [{"type": "Feature", "properties": {}, "geometry": {"type": "Point", "coordinates": [9.640194017048753, 45.67048560607016]}}], "price": 1.909, "ultima_rilevazione": "19/07/2022 14:41:18"}, {"Gestore": "SERVIZI & GESTIONI ITALIA S.R.L.", "Bandiera": "Q8", "Tipo impianto": "Altro", "Indirizzo": "VIA STEZZANO - SS.42 KM.17+004 99 24126", "Nome impianto": "BERGAMO-VIA STEZZANO N. 99 SS.42 KM.17+004", "Comune": "BERGAMO", "idImpianto": 11488, "points": [{"type": "Feature", "properties": {}, "geometry": {"type": "Point", "coordinates": [9.6569712539673, 45.66011751627286]}}], "price": 1.939, "ultima_rilevazione": "20/07/2022 07:08:17"}, {"Gestore": "F.LLI DENTELLA - S.N.C.", "Bandiera": "Tamoil", "Tipo impianto": "Altro", "Indirizzo": "VIA CRISTOFORO BAIONI 51 24123", "Nome impianto": "TAMOIL F.LLI DENTELLA SNC", "Comune": "BERGAMO", "idImpianto": 6848, "points": [{"type": "Feature", "properties": {}, "geometry": {"type": "Point", "coordinates": [9.67058196137691, 45.7119670952857]}}], "price": 1.899, "ultima_rilevazione": "20/07/2022 17:14:08"}, {"Gestore": "F.LLI DENTELLA - S.N.C.", "Bandiera": "Tamoil", "Tipo impianto": "Altro", "Indirizzo": "VIA CRISTOFORO BAIONI 51 24123", "Nome impianto": "TAMOIL F.LLI DENTELLA SNC", "Comune": "BERGAMO", "idImpianto": 6848, "points": [{"type": "Feature", "properties": {}, "geometry": {"type": "Point", "coordinates": [9.67058196137691, 45.7119670952857]}}], "price": 2.049, "ultima_rilevazione": "20/07/2022 17:14:08"}, {"Gestore": "CRIPPA ALESSANDRO E C. S.N.C.", "Bandiera": "Api-Ip", "Tipo impianto": "Altro", "Indirizzo": "viale giulio cesare 9 24124", "Nome impianto": "totalerg", "Comune": "BERGAMO", "idImpianto": 37343, "points": [{"type": "Feature", "properties": {}, "geometry": {"type": "Point", "coordinates": [9.679546585319486, 45.70613569236125]}}], "price": 1.899, "ultima_rilevazione": "20/07/2022 08:30:03"}, {"Gestore": "R.C. S.N.C. DI ROSSETTI STEFANO E COFFETTI LUCA", "Bandiera": "Esso", "Tipo impianto": "Altro", "Indirizzo": "via autostrada 14 24126", "Nome impianto": "via autostrada (108947)", "Comune": "BERGAMO", "idImpianto": 48572, "points": [{"type": "Feature", "properties": {}, "geometry": {"type": "Point", "coordinates": [9.66834582824174, 45.68642489259134]}}], "price": 1.879, "ultima_rilevazione": "20/07/2022 09:58:18"}, {"Gestore": "ERNESTO RONDINI S.R.L.", "Bandiera": "Ernesto Rondini", "Tipo impianto": "Altro", "Indirizzo": "VIA GHISLANDI 75 24125", "Nome impianto": "ERNESTO RONDINI SRL ", "Comune": "BERGAMO", "idImpianto": 26624, "points": [{"type": "Feature", "properties": {}, "geometry": {"type": "Point", "coordinates": [9.686588220901513, 45.70155729667968]}}], "price": 1.909, "ultima_rilevazione": "20/07/2022 14:13:39"}, {"Gestore": "SERVIZI & GESTIONI ITALIA srl", "Bandiera": "Q8", "Tipo impianto": "Altro", "Indirizzo": "VIA SAN BERNARDINO DISTR.Q8 SNC 24100", "Nome impianto": "BERGAMO VIA SAN BERNARDINO DISTR.Q8", "Comune": "BERGAMO", "idImpianto": 6425, "points": [{"type": "Feature", "properties": {}, "geometry": {"type": "Point", "coordinates": [9.660737890213, 45.67485736569532]}}], "price": 1.919, "ultima_rilevazione": "20/07/2022 14:40:09"}, {"Gestore": "COOP LOMBARDIA SOCIETA' COOPERATIVA", "Bandiera": "Enercoop", "Tipo impianto": "Altro", "Indirizzo": "VIA STRADA REGIA 4 24030", "Nome impianto": "ENERCOOP", "Comune": "MAPELLO", "idImpianto": 34929, "points": [{"type": "Feature", "properties": {}, "geometry": {"type": "Point", "coordinates": [9.56085942685604, 45.71408559561205]}}], "price": 1.859, "ultima_rilevazione": "20/07/2022 14:52:13"}, {"Gestore": "CALOR SYSTEMS S.R.L.", "Bandiera": "Api-Ip", "Tipo impianto": "Altro", "Indirizzo": "Via San Bernardino  24126", "Nome impianto": "BERGAMO SAN BERNARDINO", "Comune": "BERGAMO", "idImpianto": 50386, "points": [{"type": "Feature", "properties": {}, "geometry": {"type": "Point", "coordinates": [9.661669621495834, 45.6805536196216]}}], "price": 1.884, "ultima_rilevazione": "20/07/2022 15:44:45"}, {"Gestore": "D'APOTE VINCENZO", "Bandiera": "Agip Eni", "Tipo impianto": "Altro", "Indirizzo": "CIRCONVALLAZIONE MUGAZZONE 10 24125", "Nome impianto": "ENI MUGAZZONE", "Comune": "BERGAMO", "idImpianto": 47975, "points": [{"type": "Feature", "properties": {}, "geometry": {"type": "Point", "coordinates": [9.68490402331354, 45.68628518936725]}}], "price": 1.934, "ultima_rilevazione": "20/07/2022 17:32:57"}, {"Gestore": "GRUPPO NORD PETROLI S.R.L.", "Bandiera": "GNP", "Tipo impianto": "Altro", "Indirizzo": "VIA CIRCONVALLAZIONE FABRICIANO 30 24123", "Nome impianto": "GNP BERGAMO", "Comune": "BERGAMO", "idImpianto": 38967, "points": [{"type": "Feature", "properties": {}, "geometry": {"type": "Point", "coordinates": [9.672729671001434, 45.71625915262064]}}], "price": 1.899, "ultima_rilevazione": "20/07/2022 18:15:23"}, {"Gestore": "DITTA MORZENTI ANTONIO S.R.L.", "Bandiera": "Pompe Bianche", "Tipo impianto": "Strada Statale", "Indirizzo": "Statale 342 Briantea, Km. 11,633, dir. bergamo 24030", "Nome impianto": "Ambivere SS 342", "Comune": "AMBIVERE", "idImpianto": 22453, "points": [{"type": "Feature", "properties": {}, "geometry": {"type": "Point", "coordinates": [9.552420215938582, 45.72415561745917]}}], "price": 1.869, "ultima_rilevazione": "21/07/2022 00:20:22"}, {"Gestore": "DITTA MORZENTI ANTONIO S.R.L.", "Bandiera": "Pompe Bianche", "Tipo impianto": "Altro", "Indirizzo": "via Ruggeri da Stabello  24123", "Nome impianto": "Bergamo Via Ruggeri", "Comune": "BERGAMO", "idImpianto": 22452, "points": [{"type": "Feature", "properties": {}, "geometry": {"type": "Point", "coordinates": [9.663440644180357, 45.71702145452066]}}], "price": 1.899, "ultima_rilevazione": "21/07/2022 00:20:25"}, {"Gestore": "VALSECCHI ANDREA", "Bandiera": "Agip Eni", "Tipo impianto": "Altro", "Indirizzo": "VIA BAIONI 76 24123", "Nome impianto": "STAZIONE DI SERVIZIO ENI di Valsecchi Andrea", "Comune": "BERGAMO", "idImpianto": 50492, "points": [{"type": "Feature", "properties": {}, "geometry": {"type": "Point", "coordinates": [9.668584822973395, 45.71291006891518]}}], "price": 1.954, "ultima_rilevazione": "21/07/2022 07:34:07"}]}, "null": {}, "GPL": {"1": [{"Gestore": "C.T. S.N.C. DI TIRONI ERNESTO &  FUMAGALLI GIACOMO", "Bandiera": "Q8", "Tipo impianto": "Strada Statale", "Indirizzo": "470 della Val Brembana, Km. 5,8, Villa d'alme' 24035", "Nome impianto": "Q8 mozzo", "Comune": "MOZZO", "idImpianto": 15255, "points": [{"type": "Feature", "properties": {}, "geometry": {"type": "Point", "coordinates": [9.605923891067505, 45.70470372147232]}}], "price": 0.889, "ultima_rilevazione": "18/07/2022 06:57:17"}], "3": [{"Gestore": "PETITTI CIRO", "Bandiera": "Pompe Bianche", "Tipo impianto": "Altro", "Indirizzo": "VIA MILANO 25 24011", "Nome impianto": "3689", "Comune": "ALME'", "idImpianto": 46173, "points": [{"type": "Feature", "properties": {}, "geometry": {"type": "Point", "coordinates": [9.608917497441666, 45.735676109412616]}}], "price": 0.799, "ultima_rilevazione": "15/07/2022 19:23:37"}, {"Gestore": "DORELEI CARBURANTI DI GUALCO DAVIDE & C. S.A.S.", "Bandiera": "Esso", "Tipo impianto": "Strada Statale", "Indirizzo": "Statale 470 della Val Brembana, Km. 1,4, dir. DALMINE 24035", "Nome impianto": "DORELEI CARBURANTI SAS ", "Comune": "CURNO", "idImpianto": 14558, "points": [{"type": "Feature", "properties": {}, "geometry": {"type": "Point", "coordinates": [9.602007865905762, 45.68602346571805]}}], "price": 0.876, "ultima_rilevazione": "20/07/2022 07:58:54"}], "5": [{"Gestore": "GREEN FUELS MANAGEMENT S.R.L.", "Bandiera": "Esso", "Tipo impianto": "Altro", "Indirizzo": "VIA MAURO GAVAZZENI 39 24125", "Nome impianto": "Green Fuels", "Comune": "BERGAMO", "idImpianto": 38030, "points": [{"type": "Feature", "properties": {}, "geometry": {"type": "Point", "coordinates": [9.68568313128344, 45.69067429819868]}}], "price": 0.879, "ultima_rilevazione": "21/07/2022 07:00:14"}, {"Gestore": "MAFFI MARCO", "Bandiera": "Esso", "Tipo impianto": "Altro", "Indirizzo": "VIA GRUMELLO 30 24127", "Nome impianto": "ESSO", "Comune": "BERGAMO", "idImpianto": 7444, "points": [{"type": "Feature", "properties": {}, "geometry": {"type": "Point", "coordinates": [9.64455149517596, 45.67422225122757]}}], "price": 0.809, "ultima_rilevazione": "18/07/2022 13:58:14"}, {"Gestore": "SG69.SOCIETA' A RESPONSABILITA' LIMITATA SEMPLIFICATA", "Bandiera": "Esso", "Tipo impianto": "Altro", "Indirizzo": "VIA GRUMELLO 40 24100", "Nome impianto": "Esso", "Comune": "BERGAMO", "idImpianto": 47125, "points": [{"type": "Feature", "properties": {}, "geometry": {"type": "Point", "coordinates": [9.640194017048753, 45.67048560607016]}}], "price": 0.809, "ultima_rilevazione": "19/07/2022 14:41:18"}, {"Gestore": "COOP LOMBARDIA SOCIETA' COOPERATIVA", "Bandiera": "Enercoop", "Tipo impianto": "Altro", "Indirizzo": "VIA STRADA REGIA 4 24030", "Nome impianto": "ENERCOOP", "Comune": "MAPELLO", "idImpianto": 34929, "points": [{"type": "Feature", "properties": {}, "geometry": {"type": "Point", "coordinates": [9.56085942685604, 45.71408559561205]}}], "price": 0.829, "ultima_rilevazione": "20/07/2022 14:52:13"}]}, "Gasolio": {"1": [{"Gestore": "BAR ONE DI SANGALLI ZEUDI E C. S.A.S.", "Bandiera": "Total Erg", "Tipo impianto": "Altro", "Indirizzo": "Via Lecco 18 24040", "Nome impianto": "Stazione di servizio ip", "Comune": "CURNO", "idImpianto": 47973, "points": [{"type": "Feature", "properties": {}, "geometry": {"type": "Point", "coordinates": [9.600723306134208, 45.69435968371205]}}], "price": 1.949, "ultima_rilevazione": "11/07/2022 09:12:01"}, {"Gestore": "SERVIZI & GESTIONI ITALIA S.R.L.", "Bandiera": "Q8", "Tipo impianto": "Altro", "Indirizzo": "S.S. 342 BRIANTEA KM.4,885  24035", "Nome impianto": "CURNO S.S. 342 BRIANTEA KM.4,885 -Q8", "Comune": "CURNO", "idImpianto": 24759, "points": [{"type": "Feature", "properties": {}, "geometry": {"type": "Point", "coordinates": [9.616742851589947, 45.69245442050466]}}], "price": 1.879, "ultima_rilevazione": "18/07/2022 14:04:42"}, {"Gestore": "C.T. S.N.C. DI TIRONI ERNESTO &  FUMAGALLI GIACOMO", "Bandiera": "Q8", "Tipo impianto": "Strada Statale", "Indirizzo": "470 della Val Brembana, Km. 5,8, Villa d'alme' 24035", "Nome impianto": "Q8 mozzo", "Comune": "MOZZO", "idImpianto": 15255, "points": [{"type": "Feature", "properties": {}, "geometry": {"type": "Point", "coordinates": [9.605923891067505, 45.70470372147232]}}], "price": 1.939, "ultima_rilevazione": "18/07/2022 06:57:17"}, {"Gestore": "SERVIZI & GESTIONI ITALIA S.R.L.", "Bandiera": "Q8", "Tipo impianto": "Altro", "Indirizzo": "SS.BRIANTEA 342 VIA BERGAMO 21 24035", "Nome impianto": "CURNO-SS.BRIANTEA 342 VIA BERGAMO 21", "Comune": "CURNO", "idImpianto": 11492, "points": [{"type": "Feature", "properties": {}, "geometry": {"type": "Point", "coordinates": [9.62216897916801, 45.69200117253395]}}], "price": 1.899, "ultima_rilevazione": "18/07/2022 14:04:46"}, {"Gestore": "BELOTTI GIAMPIETRO & C. S.N.C.", "Bandiera": "Api-Ip", "Tipo impianto": "Altro", "Indirizzo": "VIA ROMA 81 24030", "Nome impianto": "BELOTTI GIAMPIETRO & C. S.N.C.", "Comune": "VALBREMBO", "idImpianto": 11305, "points": [{"type": "Feature", "properties": {}, "geometry": {"type": "Point", "coordinates": [9.606021720237775, 45.71050488939503]}}], "price": 1.929, "ultima_rilevazione": "19/07/2022 09:38:22"}, {"Gestore": "CO.RINA. S.N.C. DI CORNA, RINALDI & C.", "Bandiera": "Q8", "Tipo impianto": "Altro", "Indirizzo": "VIA BRIANTEA, KM 4  24129", "Nome impianto": "co.rina ", "Comune": "BERGAMO", "idImpianto": 8053, "points": [{"type": "Feature", "properties": {}, "geometry": {"type": "Point", "coordinates": [9.626941680908203, 45.69124802532839]}}], "price": 1.889, "ultima_rilevazione": "20/07/2022 12:48:27"}, {"Gestore": "TIRONI VITTORIO DI TIRONI ERNESTO & C.SNC", "Bandiera": "Agip Eni", "Tipo impianto": "Altro", "Indirizzo": "via provinciale dalmine alme 3 24030", "Nome impianto": "ENI", "Comune": "MOZZO", "idImpianto": 28870, "points": [{"type": "Feature", "properties": {}, "geometry": {"type": "Point", "coordinates": [9.604947566986084, 45.70374271843002]}}], "price": 1.924, "ultima_rilevazione": "21/07/2022 07:34:08"}, {"Gestore": "AF PETROL S.R.L.", "Bandiera": "Pompe Bianche", "Tipo impianto": "Altro", "Indirizzo": "VIA BERGAMO  40 24035", "Nome impianto": "AF PETROL SRL", "Comune": "CURNO", "idImpianto": 47362, "points": [{"type": "Feature", "properties": {}, "geometry": {"type": "Point", "coordinates": [9.618496000123, 45.692214000123]}}], "price": 1.874, "ultima_rilevazione": "21/07/2022 01:24:08"}], "3": [{"Gestore": "PIAZZOLLA FAUSTA", "Bandiera": "Agip Eni", "Tipo impianto": "Altro", "Indirizzo": "Via Broseta 61/63 24128", "Nome impianto": "ENI Piazzolla Fausta", "Comune": "BERGAMO", "idImpianto": 46889, "points": [{"type": "Feature", "properties": {}, "geometry": {"type": "Point", "coordinates": [9.655722271163995, 45.69338727669847]}}], "price": 1.989, "ultima_rilevazione": "18/07/2022 11:32:09"}, {"Gestore": "GAS S.N.C. DI GREGORIO ALESSIO & SILVANO PREDA", "Bandiera": "Q8", "Tipo impianto": "Altro", "Indirizzo": "VIA CESARE BATTISTI 81 24030", "Nome impianto": "Q8", "Comune": "BREMBATE DI SOPRA", "idImpianto": 31728, "points": [{"type": "Feature", "properties": {}, "geometry": {"type": "Point", "coordinates": [9.583364410381364, 45.72765278972703]}}], "price": 1.789, "ultima_rilevazione": "25/03/2022 18:20:22"}, {"Gestore": "ILHAMI HAMZA", "Bandiera": "Esso", "Tipo impianto": "Altro", "Indirizzo": "Via dalmine 23 24035", "Nome impianto": "Esso di Ilhami Hamza", "Comune": "CURNO", "idImpianto": 44677, "points": [{"type": "Feature", "properties": {}, "geometry": {"type": "Point", "coordinates": [9.602728246486322, 45.685638241888576]}}], "price": 2.039, "ultima_rilevazione": "04/07/2022 09:58:28"}, {"Gestore": "STAZIONE DI SERVIZIO ESSO DI ILHAMI AZEDDINE", "Bandiera": "Esso", "Tipo impianto": "Altro", "Indirizzo": "VIA BROSETA 55 24128", "Nome impianto": "Stazione Esso di Ilhami Azeddine", "Comune": "BERGAMO", "idImpianto": 48392, "points": [{"type": "Feature", "properties": {}, "geometry": {"type": "Point", "coordinates": [9.657846267875811, 45.69296505836206]}}], "price": 1.989, "ultima_rilevazione": "04/07/2022 10:00:30"}, {"Gestore": "GARGANTINI MASSIMO", "Bandiera": "Agip Eni", "Tipo impianto": "Altro", "Indirizzo": "VIA CARDUCCI 236 24127", "Nome impianto": "STAZIONE DI SERVIZIO GARGANTINI MASSIMO", "Comune": "BERGAMO", "idImpianto": 47921, "points": [{"type": "Feature", "properties": {}, "geometry": {"type": "Point", "coordinates": [9.651470482349396, 45.68944822678624]}}], "price": 1.919, "ultima_rilevazione": "17/07/2022 21:42:26"}, {"Gestore": "COSMA FABRIZIO", "Bandiera": "Agip Eni", "Tipo impianto": "Altro", "Indirizzo": "VIA ARRIGO BOITO 12 24040", "Nome impianto": "Cosma Fabrizio - Stezzano", "Comune": "STEZZANO", "idImpianto": 12534, "points": [{"type": "Feature", "properties": {}, "geometry": {"type": "Point", "coordinates": [9.63703751564026, 45.671871760248166]}}], "price": 1.924, "ultima_rilevazione": "17/07/2022 22:39:01"}, {"Gestore": "SERVIZI & GESTIONI ITALIA S.R.L.", "Bandiera": "Q8", "Tipo impianto": "Altro", "Indirizzo": "VIA MANZONI STATALE BRIANTEA S/N 24036", "Nome impianto": "PONTE SAN PIETRO-VIA MANZONI STATALE BRIANTEA", "Comune": "PONTE SAN PIETRO", "idImpianto": 11484, "points": [{"type": "Feature", "properties": {}, "geometry": {"type": "Point", "coordinates": [9.571070846557632, 45.705104895083466]}}], "price": 1.919, "ultima_rilevazione": "18/07/2022 00:36:43"}, {"Gestore": "IMMOBILIARE GESTINVEST S.R.L.", "Bandiera": "Q8", "Tipo impianto": "Altro", "Indirizzo": "VIA DONIZETTI 74 24030", "Nome impianto": "Q8 via donizetti 74 brembate sopra", "Comune": "BREMBATE DI SOPRA", "idImpianto": 15806, "points": [{"type": "Feature", "properties": {}, "geometry": {"type": "Point", "coordinates": [9.584220338623028, 45.711260258601385]}}], "price": 1.929, "ultima_rilevazione": "18/07/2022 13:54:15"}, {"Gestore": "SERVIZI & GESTIONI ITALIA srl", "Bandiera": "Q8", "Tipo impianto": "Altro", "Indirizzo": "S.P.MILANESE.V.MORONI DISTR.Q8 SNC 24100", "Nome impianto": "BERGAMO S.P.MILANESE.V.MORONI DISTR.Q8", "Comune": "BERGAMO", "idImpianto": 6424, "points": [{"type": "Feature", "properties": {}, "geometry": {"type": "Point", "coordinates": [9.65119043086338, 45.6792499525339]}}], "price": 1.889, "ultima_rilevazione": "18/07/2022 14:04:41"}, {"Gestore": "SERVIZI & GESTIONI ITALIA S.R.L.", "Bandiera": "Q8", "Tipo impianto": "Altro", "Indirizzo": "VIALE EUROPA S/N 24048", "Nome impianto": "TREVIOLO-VIALE EUROPA", "Comune": "TREVIOLO", "idImpianto": 11493, "points": [{"type": "Feature", "properties": {}, "geometry": {"type": "Point", "coordinates": [9.631402682209, 45.67589183113847]}}], "price": 1.919, "ultima_rilevazione": "18/07/2022 14:04:47"}, {"Gestore": "MA.PI. S.N.C. DEI F.LLI CORNAGO", "Bandiera": "Agip Eni", "Tipo impianto": "Strada Statale", "Indirizzo": "Statale 671 della Val Seriana, Km. 0,982, dir. bergamo 24035", "Nome impianto": "eni", "Comune": "CURNO", "idImpianto": 4981, "points": [{"type": "Feature", "properties": {}, "geometry": {"type": "Point", "coordinates": [9.613474309444427, 45.67956670215767]}}], "price": 1.924, "ultima_rilevazione": "18/07/2022 17:26:09"}, {"Gestore": "DALCO DI DALMAGGIONI SIMONE BATTISTA & C. S.N.C.", "Bandiera": "Q8", "Tipo impianto": "Altro", "Indirizzo": "VIA BRUNO LOCATELLI 29 24030", "Nome impianto": "Q8  dalco snc", "Comune": "BREMBATE DI SOPRA", "idImpianto": 16731, "points": [{"type": "Feature", "properties": {}, "geometry": {"type": "Point", "coordinates": [9.582115032540855, 45.71200081939895]}}], "price": 1.919, "ultima_rilevazione": "18/07/2022 19:48:25"}, {"Gestore": "EMANUELE FRANCESCO S.R.L.", "Bandiera": "Esso", "Tipo impianto": "Strada Statale", "Indirizzo": "Statale 470 della Val Brembana, Km. 5+523, dir. nord ", "Nome impianto": "stazione di servizio Emanuele Francesco Srl", "Comune": "SORISOLE", "idImpianto": 13878, "points": [{"type": "Feature", "properties": {}, "geometry": {"type": "Point", "coordinates": [9.640401005744934, 45.73222188663616]}}], "price": 1.858, "ultima_rilevazione": "19/07/2022 18:23:52"}, {"Gestore": "ALL CAR SERVICE S.N.C. DEI F.LLI SANA", "Bandiera": "Esso", "Tipo impianto": "Altro", "Indirizzo": "VIA VITTORIO VENETO 1697 24030", "Nome impianto": "ALL CAR SERVICE SNC", "Comune": "PRESEZZO", "idImpianto": 11306, "points": [{"type": "Feature", "properties": {}, "geometry": {"type": "Point", "coordinates": [9.562004226389265, 45.69084381775606]}}], "price": 1.889, "ultima_rilevazione": "20/07/2022 07:50:38"}, {"Gestore": "EGI-2GO S.R.L.", "Bandiera": "Esso", "Tipo impianto": "Strada Statale", "Indirizzo": "671 della Val Seriana, Km. 0+750, LECCO 24035", "Nome impianto": "EGI-2GO CURNO", "Comune": "CURNO", "idImpianto": 50728, "points": [{"type": "Feature", "properties": {}, "geometry": {"type": "Point", "coordinates": [9.611357382954363, 45.67949785174545]}}], "price": 1.889, "ultima_rilevazione": "20/07/2022 07:54:00"}, {"Gestore": "DORELEI CARBURANTI DI GUALCO DAVIDE & C. S.A.S.", "Bandiera": "Esso", "Tipo impianto": "Strada Statale", "Indirizzo": "Statale 470 della Val Brembana, Km. 1,4, dir. DALMINE 24035", "Nome impianto": "DORELEI CARBURANTI SAS ", "Comune": "CURNO", "idImpianto": 14558, "points": [{"type": "Feature", "properties": {}, "geometry": {"type": "Point", "coordinates": [9.602007865905762, 45.68602346571805]}}], "price": 1.876, "ultima_rilevazione": "20/07/2022 07:58:54"}, {"Gestore": "LA SIESTA DI LAZZARONI OSCAR & C. S.N.C.", "Bandiera": "Tamoil", "Tipo impianto": "Altro", "Indirizzo": "strada provinciale 153 24030", "Nome impianto": "TAMOIL", "Comune": "VALBREMBO", "idImpianto": 40536, "points": [{"type": "Feature", "properties": {}, "geometry": {"type": "Point", "coordinates": [9.610003530979156, 45.72304072139144]}}], "price": 1.899, "ultima_rilevazione": "20/07/2022 15:04:06"}, {"Gestore": "IP SERVICES S.R.L.", "Bandiera": "Api-Ip", "Tipo impianto": "Altro", "Indirizzo": "Via delle Valli 10 24048", "Nome impianto": "TREVIOLO", "Comune": "TREVIOLO", "idImpianto": 5519, "points": [{"type": "Feature", "properties": {}, "geometry": {"type": "Point", "coordinates": [9.601222000000009, 45.671643006037066]}}], "price": 1.849, "ultima_rilevazione": "20/07/2022 09:03:56"}, {"Gestore": "IP SERVICES S.R.L.", "Bandiera": "Api-Ip", "Tipo impianto": "Altro", "Indirizzo": "Via BROSETA 75 24128", "Nome impianto": "BROSETA", "Comune": "BERGAMO", "idImpianto": 29630, "points": [{"type": "Feature", "properties": {}, "geometry": {"type": "Point", "coordinates": [9.65200443435856, 45.69376833520888]}}], "price": 1.869, "ultima_rilevazione": "20/07/2022 09:04:18"}, {"Gestore": "IP SERVICES S.R.L.", "Bandiera": "Api-Ip", "Tipo impianto": "Altro", "Indirizzo": "Via Moroni   24122", "Nome impianto": "Bergamo", "Comune": "BERGAMO", "idImpianto": 10094, "points": [{"type": "Feature", "properties": {}, "geometry": {"type": "Point", "coordinates": [9.65637236427915, 45.68440930548873]}}], "price": 1.869, "ultima_rilevazione": "20/07/2022 09:04:19"}, {"Gestore": "IPERSTAROIL S.R.L.", "Bandiera": "Auchan", "Tipo impianto": "Altro", "Indirizzo": "VIA FERMI ANGOLO VIA CURNASCO SNC 24035", "Nome impianto": "Curno", "Comune": "CURNO", "idImpianto": 50282, "points": [{"type": "Feature", "properties": {}, "geometry": {"type": "Point", "coordinates": [9.617299983614926, 45.68332426509254]}}], "price": 1.874, "ultima_rilevazione": "20/07/2022 11:46:07"}, {"Gestore": "T.D.M. S.R.L.", "Bandiera": "Tamoil", "Tipo impianto": "Altro", "Indirizzo": "VIA CARLINGA CENTRO COMMERCIALE  24035", "Nome impianto": "3676", "Comune": "CURNO", "idImpianto": 47370, "points": [{"type": "Feature", "properties": {}, "geometry": {"type": "Point", "coordinates": [9.607331713372956, 45.68289598467205]}}], "price": 1.849, "ultima_rilevazione": "20/07/2022 12:04:14"}, {"Gestore": "DIEFFE SRL", "Bandiera": "Pompe Bianche", "Tipo impianto": "Altro", "Indirizzo": "VIA Giosu\u00e8 Carducci 450 24127", "Nome impianto": "BergamOil", "Comune": "BERGAMO", "idImpianto": 43500, "points": [{"type": "Feature", "properties": {}, "geometry": {"type": "Point", "coordinates": [9.647449271163964, 45.68944386284728]}}], "price": 1.869, "ultima_rilevazione": "20/07/2022 17:13:17"}, {"Gestore": "AUTOSERVICE DI GIOVANNI D'ALOIA S.A.S.", "Bandiera": "Tamoil", "Tipo impianto": "Altro", "Indirizzo": "Via Marconi 63 24010", "Nome impianto": "TAMOIL 8034", "Comune": "SORISOLE", "idImpianto": 36250, "points": [{"type": "Feature", "properties": {}, "geometry": {"type": "Point", "coordinates": [9.629782952045389, 45.73405320154285]}}], "price": 1.849, "ultima_rilevazione": "20/07/2022 17:30:08"}, {"Gestore": "IPERSTAROIL S.R.L.", "Bandiera": "Auchan", "Tipo impianto": "Altro", "Indirizzo": "VIA GIOSUE CARDUCCI 4 24127", "Nome impianto": "Bergamo", "Comune": "BERGAMO", "idImpianto": 50283, "points": [{"type": "Feature", "properties": {}, "geometry": {"type": "Point", "coordinates": [9.650376858887563, 45.68715129690769]}}], "price": 1.859, "ultima_rilevazione": "20/07/2022 18:26:09"}, {"Gestore": "AF PETROL S.R.L.", "Bandiera": "Pompe Bianche", "Tipo impianto": "Altro", "Indirizzo": "VIA MILANO  9 24040", "Nome impianto": "AF PETROL", "Comune": "BONATE SOPRA", "idImpianto": 46031, "points": [{"type": "Feature", "properties": {}, "geometry": {"type": "Point", "coordinates": [9.568731020832049, 45.68179171980827]}}], "price": 1.848, "ultima_rilevazione": "21/07/2022 00:08:05"}], "5": [{"Gestore": "GREEN FUELS MANAGEMENT S.R.L.", "Bandiera": "Esso", "Tipo impianto": "Altro", "Indirizzo": "VIA MAURO GAVAZZENI 39 24125", "Nome impianto": "Green Fuels", "Comune": "BERGAMO", "idImpianto": 38030, "points": [{"type": "Feature", "properties": {}, "geometry": {"type": "Point", "coordinates": [9.68568313128344, 45.69067429819868]}}], "price": 2.099, "ultima_rilevazione": "21/07/2022 07:00:14"}, {"Gestore": "AMBROGIO MORO S.P.A.", "Bandiera": "Api-Ip", "Tipo impianto": "Altro", "Indirizzo": "VIA ITALIA 7 24011", "Nome impianto": "MORO ALME'", "Comune": "ALME'", "idImpianto": 49120, "points": [{"type": "Feature", "properties": {}, "geometry": {"type": "Point", "coordinates": [9.619764864816428, 45.74096326010482]}}], "price": 1.919, "ultima_rilevazione": "15/07/2022 11:36:40"}, {"Gestore": "F.LLI CAPELLI E C. S.N.C.", "Bandiera": "Agip Eni", "Tipo impianto": "Altro", "Indirizzo": "VIA SIGISMONDI 39 24018", "Nome impianto": "ENI", "Comune": "VILLA D'ALME'", "idImpianto": 46851, "points": [{"type": "Feature", "properties": {}, "geometry": {"type": "Point", "coordinates": [9.612978352927255, 45.74835409254968]}}], "price": 1.919, "ultima_rilevazione": "17/07/2022 23:14:13"}, {"Gestore": "SERVIZI & GESTIONI ITALIA S.R.L.", "Bandiera": "Q8", "Tipo impianto": "Altro", "Indirizzo": "VIA LOCATELLI 19 24010", "Nome impianto": "ALME-VIA LOCATELLI 19", "Comune": "ALME'", "idImpianto": 11481, "points": [{"type": "Feature", "properties": {}, "geometry": {"type": "Point", "coordinates": [9.621048279762247, 45.73959812803139]}}], "price": 1.969, "ultima_rilevazione": "18/07/2022 00:35:41"}, {"Gestore": "CALOR SYSTEMS S.R.L.", "Bandiera": "Api-Ip", "Tipo impianto": "Altro", "Indirizzo": "VIA GHISLANDI 35 24125", "Nome impianto": "BERGAMO GHISLANDI", "Comune": "BERGAMO", "idImpianto": 50000, "points": [{"type": "Feature", "properties": {}, "geometry": {"type": "Point", "coordinates": [9.684616401223357, 45.69764748196743]}}], "price": 1.979, "ultima_rilevazione": "18/07/2022 09:33:34"}, {"Gestore": "CAFFE' SCUDELETTI S.R.L.", "Bandiera": "Q8", "Tipo impianto": "Altro", "Indirizzo": "VIA PROVINCIALE 4 24040", "Nome impianto": "0956", "Comune": "LALLIO", "idImpianto": 49364, "points": [{"type": "Feature", "properties": {}, "geometry": {"type": "Point", "coordinates": [9.633973697424487, 45.66537756829584]}}], "price": 1.927, "ultima_rilevazione": "18/07/2022 10:31:55"}, {"Gestore": "SERVIZI & GESTIONI ITALIA S.R.L.", "Bandiera": "Q8", "Tipo impianto": "Altro", "Indirizzo": "VIA A.MAY 7/C 24121", "Nome impianto": "BERGAMO-VIA A.MAY 7/C", "Comune": "BERGAMO", "idImpianto": 11482, "points": [{"type": "Feature", "properties": {}, "geometry": {"type": "Point", "coordinates": [9.677001516532869, 45.69395995197229]}}], "price": 1.949, "ultima_rilevazione": "18/07/2022 14:04:45"}, {"Gestore": "TOMASINI GIAMPRIETO", "Bandiera": "Api-Ip", "Tipo impianto": "Altro", "Indirizzo": "VIA ZANICA 31/B 24126", "Nome impianto": "stazione di servizio", "Comune": "BERGAMO", "idImpianto": 15437, "points": [{"type": "Feature", "properties": {}, "geometry": {"type": "Point", "coordinates": [9.672985716886616, 45.68276943477138]}}], "price": 1.849, "ultima_rilevazione": "18/07/2022 18:52:59"}, {"Gestore": "SERVIZI & GESTIONI ITALIA S.R.L.", "Bandiera": "Q8", "Tipo impianto": "Altro", "Indirizzo": "VIA GHISLANDI 20 24125", "Nome impianto": "BERGAMO-VIA GHISLANDI 20", "Comune": "BERGAMO", "idImpianto": 11489, "points": [{"type": "Feature", "properties": {}, "geometry": {"type": "Point", "coordinates": [9.68528314847947, 45.69933300574483]}}], "price": 1.919, "ultima_rilevazione": "19/07/2022 01:38:11"}, {"Gestore": "AUTOSERVIZI GHILL S.N.C. DI KHABRA K. G. E SINGH J. & C.", "Bandiera": "Agip Eni", "Tipo impianto": "Altro", "Indirizzo": "VIA SAN BERNARDINO 127 24126", "Nome impianto": "stazione di servizio AGIP ", "Comune": "BERGAMO", "idImpianto": 42258, "points": [{"type": "Feature", "properties": {}, "geometry": {"type": "Point", "coordinates": [9.661690918433123, 45.68061701840012]}}], "price": 1.869, "ultima_rilevazione": "19/07/2022 11:04:59"}, {"Gestore": "SG69.SOCIETA' A RESPONSABILITA' LIMITATA SEMPLIFICATA", "Bandiera": "Esso", "Tipo impianto": "Altro", "Indirizzo": "VIA GRUMELLO 40 24100", "Nome impianto": "Esso", "Comune": "BERGAMO", "idImpianto": 47125, "points": [{"type": "Feature", "properties": {}, "geometry": {"type": "Point", "coordinates": [9.640194017048753, 45.67048560607016]}}], "price": 1.889, "ultima_rilevazione": "19/07/2022 14:41:18"}, {"Gestore": "SERVIZI & GESTIONI ITALIA S.R.L.", "Bandiera": "Q8", "Tipo impianto": "Altro", "Indirizzo": "VIA STEZZANO - SS.42 KM.17+004 99 24126", "Nome impianto": "BERGAMO-VIA STEZZANO N. 99 SS.42 KM.17+004", "Comune": "BERGAMO", "idImpianto": 11488, "points": [{"type": "Feature", "properties": {}, "geometry": {"type": "Point", "coordinates": [9.6569712539673, 45.66011751627286]}}], "price": 1.889, "ultima_rilevazione": "20/07/2022 07:08:17"}, {"Gestore": "CRIPPA ALESSANDRO E C. S.N.C.", "Bandiera": "Api-Ip", "Tipo impianto": "Altro", "Indirizzo": "viale giulio cesare 9 24124", "Nome impianto": "totalerg", "Comune": "BERGAMO", "idImpianto": 37343, "points": [{"type": "Feature", "properties": {}, "geometry": {"type": "Point", "coordinates": [9.679546585319486, 45.70613569236125]}}], "price": 1.879, "ultima_rilevazione": "20/07/2022 08:30:03"}, {"Gestore": "R.C. S.N.C. DI ROSSETTI STEFANO E COFFETTI LUCA", "Bandiera": "Esso", "Tipo impianto": "Altro", "Indirizzo": "via autostrada 14 24126", "Nome impianto": "via autostrada (108947)", "Comune": "BERGAMO", "idImpianto": 48572, "points": [{"type": "Feature", "properties": {}, "geometry": {"type": "Point", "coordinates": [9.66834582824174, 45.68642489259134]}}], "price": 1.895, "ultima_rilevazione": "20/07/2022 09:58:18"}, {"Gestore": "ERNESTO RONDINI S.R.L.", "Bandiera": "Ernesto Rondini", "Tipo impianto": "Altro", "Indirizzo": "VIA GHISLANDI 75 24125", "Nome impianto": "ERNESTO RONDINI SRL ", "Comune": "BERGAMO", "idImpianto": 26624, "points": [{"type": "Feature", "properties": {}, "geometry": {"type": "Point", "coordinates": [9.686588220901513, 45.70155729667968]}}], "price": 1.899, "ultima_rilevazione": "20/07/2022 14:13:39"}, {"Gestore": "SERVIZI & GESTIONI ITALIA srl", "Bandiera": "Q8", "Tipo impianto": "Altro", "Indirizzo": "VIA SAN BERNARDINO DISTR.Q8 SNC 24100", "Nome impianto": "BERGAMO VIA SAN BERNARDINO DISTR.Q8", "Comune": "BERGAMO", "idImpianto": 6425, "points": [{"type": "Feature", "properties": {}, "geometry": {"type": "Point", "coordinates": [9.660737890213, 45.67485736569532]}}], "price": 1.869, "ultima_rilevazione": "20/07/2022 14:40:09"}, {"Gestore": "COOP LOMBARDIA SOCIETA' COOPERATIVA", "Bandiera": "Enercoop", "Tipo impianto": "Altro", "Indirizzo": "VIA STRADA REGIA 4 24030", "Nome impianto": "ENERCOOP", "Comune": "MAPELLO", "idImpianto": 34929, "points": [{"type": "Feature", "properties": {}, "geometry": {"type": "Point", "coordinates": [9.56085942685604, 45.71408559561205]}}], "price": 1.869, "ultima_rilevazione": "20/07/2022 14:52:13"}, {"Gestore": "CALOR SYSTEMS S.R.L.", "Bandiera": "Api-Ip", "Tipo impianto": "Altro", "Indirizzo": "Via San Bernardino  24126", "Nome impianto": "BERGAMO SAN BERNARDINO", "Comune": "BERGAMO", "idImpianto": 50386, "points": [{"type": "Feature", "properties": {}, "geometry": {"type": "Point", "coordinates": [9.661669621495834, 45.6805536196216]}}], "price": 1.854, "ultima_rilevazione": "20/07/2022 15:44:45"}, {"Gestore": "F.LLI DENTELLA - S.N.C.", "Bandiera": "Tamoil", "Tipo impianto": "Altro", "Indirizzo": "VIA CRISTOFORO BAIONI 51 24123", "Nome impianto": "TAMOIL F.LLI DENTELLA SNC", "Comune": "BERGAMO", "idImpianto": 6848, "points": [{"type": "Feature", "properties": {}, "geometry": {"type": "Point", "coordinates": [9.67058196137691, 45.7119670952857]}}], "price": 1.869, "ultima_rilevazione": "20/07/2022 17:14:08"}, {"Gestore": "D'APOTE VINCENZO", "Bandiera": "Agip Eni", "Tipo impianto": "Altro", "Indirizzo": "CIRCONVALLAZIONE MUGAZZONE 10 24125", "Nome impianto": "ENI MUGAZZONE", "Comune": "BERGAMO", "idImpianto": 47975, "points": [{"type": "Feature", "properties": {}, "geometry": {"type": "Point", "coordinates": [9.68490402331354, 45.68628518936725]}}], "price": 1.924, "ultima_rilevazione": "20/07/2022 17:32:57"}, {"Gestore": "GRUPPO NORD PETROLI S.R.L.", "Bandiera": "GNP", "Tipo impianto": "Altro", "Indirizzo": "VIA CIRCONVALLAZIONE FABRICIANO 30 24123", "Nome impianto": "GNP BERGAMO", "Comune": "BERGAMO", "idImpianto": 38967, "points": [{"type": "Feature", "properties": {}, "geometry": {"type": "Point", "coordinates": [9.672729671001434, 45.71625915262064]}}], "price": 1.879, "ultima_rilevazione": "20/07/2022 18:15:23"}, {"Gestore": "DITTA MORZENTI ANTONIO S.R.L.", "Bandiera": "Pompe Bianche", "Tipo impianto": "Strada Statale", "Indirizzo": "Statale 342 Briantea, Km. 11,633, dir. bergamo 24030", "Nome impianto": "Ambivere SS 342", "Comune": "AMBIVERE", "idImpianto": 22453, "points": [{"type": "Feature", "properties": {}, "geometry": {"type": "Point", "coordinates": [9.552420215938582, 45.72415561745917]}}], "price": 1.874, "ultima_rilevazione": "21/07/2022 00:20:22"}, {"Gestore": "DITTA MORZENTI ANTONIO S.R.L.", "Bandiera": "Pompe Bianche", "Tipo impianto": "Altro", "Indirizzo": "via Ruggeri da Stabello  24123", "Nome impianto": "Bergamo Via Ruggeri", "Comune": "BERGAMO", "idImpianto": 22452, "points": [{"type": "Feature", "properties": {}, "geometry": {"type": "Point", "coordinates": [9.663440644180357, 45.71702145452066]}}], "price": 1.869, "ultima_rilevazione": "21/07/2022 00:20:25"}, {"Gestore": "VALSECCHI ANDREA", "Bandiera": "Agip Eni", "Tipo impianto": "Altro", "Indirizzo": "VIA BAIONI 76 24123", "Nome impianto": "STAZIONE DI SERVIZIO ENI di Valsecchi Andrea", "Comune": "BERGAMO", "idImpianto": 50492, "points": [{"type": "Feature", "properties": {}, "geometry": {"type": "Point", "coordinates": [9.668584822973395, 45.71291006891518]}}], "price": 1.924, "ultima_rilevazione": "21/07/2022 07:34:07"}, {"Gestore": "F.LLI BELOTTI DI OVIDIO E GIOVANNI S.N.C.", "Bandiera": "OIL ONE", "Tipo impianto": "Altro", "Indirizzo": "VIA GRUMELLO 45/A 24127", "Nome impianto": "IP F.LLI BELOTTI", "Comune": "BERGAMO", "idImpianto": 14436, "points": [{"type": "Feature", "properties": {}, "geometry": {"type": "Point", "coordinates": [9.64323341846466, 45.673581038934536]}}], "price": 1.899, "ultima_rilevazione": "21/07/2022 07:43:57"}]}, "Metano": {"1": [], "3": [{"Gestore": "MA.PI. S.N.C. DEI F.LLI CORNAGO", "Bandiera": "Agip Eni", "Tipo impianto": "Strada Statale", "Indirizzo": "Statale 671 della Val Seriana, Km. 0,982, dir. bergamo 24035", "Nome impianto": "eni", "Comune": "CURNO", "idImpianto": 4981, "points": [{"type": "Feature", "properties": {}, "geometry": {"type": "Point", "coordinates": [9.613474309444427, 45.67956670215767]}}], "price": 2.231, "ultima_rilevazione": "18/07/2022 17:26:09"}, {"Gestore": "IPERSTAROIL S.R.L.", "Bandiera": "Auchan", "Tipo impianto": "Altro", "Indirizzo": "VIA FERMI ANGOLO VIA CURNASCO SNC 24035", "Nome impianto": "Curno", "Comune": "CURNO", "idImpianto": 50282, "points": [{"type": "Feature", "properties": {}, "geometry": {"type": "Point", "coordinates": [9.617299983614926, 45.68332426509254]}}], "price": 1.999, "ultima_rilevazione": "20/07/2022 11:46:07"}], "5": [{"Gestore": "GREEN FUELS MANAGEMENT S.R.L.", "Bandiera": "Esso", "Tipo impianto": "Altro", "Indirizzo": "VIA MAURO GAVAZZENI 39 24125", "Nome impianto": "Green Fuels", "Comune": "BERGAMO", "idImpianto": 38030, "points": [{"type": "Feature", "properties": {}, "geometry": {"type": "Point", "coordinates": [9.68568313128344, 45.69067429819868]}}], "price": 1.899, "ultima_rilevazione": "21/07/2022 07:00:14"}, {"Gestore": "COOP LOMBARDIA SOCIETA' COOPERATIVA", "Bandiera": "Enercoop", "Tipo impianto": "Altro", "Indirizzo": "VIA STRADA REGIA 4 24030", "Nome impianto": "ENERCOOP", "Comune": "MAPELLO", "idImpianto": 34929, "points": [{"type": "Feature", "properties": {}, "geometry": {"type": "Point", "coordinates": [9.56085942685604, 45.71408559561205]}}], "price": 1.599, "ultima_rilevazione": "20/07/2022 14:52:13"}]}}