{"area_comune": "[{\"type\": \"Feature\", \"properties\": {}, \"geometry\": {\"type\": \"Polygon\", \"coordinates\": [[[9.226341736738936, 45.6020896035155], [9.241543740011933, 45.596398610158765], [9.242428439974823, 45.59416005942242], [9.238070227727496, 45.581973077304575], [9.234043137628452, 45.58083053074434], [9.227392816478252, 45.57395617505965], [9.226983243946242, 45.57120043197427], [9.220140037160782, 45.569398059881784], [9.219872233619379, 45.56987100082718], [9.2202137009514, 45.57035613386052], [9.223395987071445, 45.573500429238784], [9.225095050142688, 45.57567335044833], [9.223152307627034, 45.576424474056374], [9.21649144692512, 45.578245699515094], [9.211487224300331, 45.57791942925182], [9.213299295882953, 45.582302356807055], [9.21378769839111, 45.58448707864461], [9.213783566629994, 45.58985596439964], [9.212256266050108, 45.593471580031704], [9.210304722525391, 45.59711672996323], [9.225565318561147, 45.60335182377391], [9.226341736738936, 45.6020896035155]]]}}]", "comune": "muggio", "buffer_1": "[{\"type\": \"Feature\", \"properties\": {}, \"geometry\": {\"type\": \"Polygon\", \"coordinates\": [[[9.207329283841194, 45.56940532812304], [9.20732820729147, 45.569405546030296], [9.206141644710259, 45.56973873595329], [9.205008209411789, 45.57015325497574], [9.203939167532738, 45.57064498332103], [9.20294514600833, 45.5712090337337], [9.2020360270057, 45.571839799996006], [9.201220849716844, 45.57253101258809], [9.200507720485598, 45.573275800941516], [9.199903732162186, 45.57406676167032], [9.199414893488882, 45.574896032104746], [9.199046069222566, 45.575755368399264], [9.198800931594754, 45.57663622744125], [9.198681923598468, 45.5775298517481], [9.197495063372319, 45.59672702846784], [9.197503413586146, 45.59762520646904], [9.197639240973551, 45.59851832804624], [9.19790119892773, 45.599397499162215], [9.198286684476047, 45.60025396429595], [9.198791863978743, 45.601079193663054], [9.199411711106073, 45.60186496820264], [9.200140056723647, 45.60260346148283], [9.20096965019578, 45.603287317706716], [9.201892231501546, 45.60390972503915], [9.202898613448765, 45.60446448352113], [9.203978773168826, 45.60494606689214], [9.2051219519808, 45.60534967770146], [9.221160859698722, 45.610323268101595], [9.22239201347657, 45.61065297225098], [9.223664884977868, 45.61089225647504], [9.224966030220896, 45.61103859341033], [9.226281706172875, 45.61109043740922], [9.227598016106997, 45.611047240887714], [9.22890105659417, 45.61090946011703], [9.230177064565922, 45.61067855039689], [9.231412562884072, 45.61035695066207], [9.232594502869063, 45.60994805768613], [9.233710402271887, 45.60945619015632], [9.249798164080147, 45.60152561644928], [9.2507616237269, 45.60100077926123], [9.25164967748269, 45.60041405907103], [9.252454292083732, 45.59977076493205], [9.253168190022631, 45.59907671762761], [9.253784915352329, 45.598338196953016], [9.25429889202333, 45.59756188484863], [9.254705474228697, 45.59675480490023], [9.255000988304817, 45.59592425875644], [9.255182765813382, 45.5950777600398], [9.255249167510728, 45.59422296635103], [9.255199597993736, 45.593367609982565], [9.255034510896467, 45.59251942796872], [9.254755404597303, 45.59168609210554], [9.254364808482277, 45.590875139573235], [9.25386625989546, 45.59009390478772], [9.253264271990997, 45.58934945309713], [9.230973027139875, 45.564589552347016], [9.230239399843175, 45.56385755317657], [9.22940590606078, 45.56318035574461], [9.22848079098482, 45.562564656347085], [9.227473204868662, 45.56201654296766], [9.22639311253256, 45.56154143514193], [9.225251194858672, 45.56114403043087], [9.224058743247399, 45.5608282580297], [9.22282754807492, 45.56059723996835], [9.221569782249505, 45.56045326028459], [9.220297881011378, 45.56039774247245], [9.219024419156925, 45.560431235428], [9.217761986892839, 45.56055340802957], [9.216523065538842, 45.560763052406514], [9.215319904299184, 45.56105809586389], [9.214164399312786, 45.56143562134623], [9.213067976170128, 45.561891896239324], [9.212041477051562, 45.562422409227544], [9.211095053597472, 45.56302191484394], [9.210238066565415, 45.56368448527609], [9.209478993263978, 45.56440356891779], [9.208825343678058, 45.56517205509098], [9.208283586115996, 45.565982344300814], [9.207859083116857, 45.56682642333212], [9.207556038256115, 45.56769594444734], [9.207377454381993, 45.568582307905], [9.207329283841194, 45.56940532812304]]]}}]", "buffer_3": "[{\"type\": \"Feature\", \"properties\": {}, \"geometry\": {\"type\": \"Polygon\", \"coordinates\": [[[9.185154987742772, 45.55828027705406], [9.183139748591815, 45.559678166770155], [9.1806939865312, 45.561751387094404], [9.178554135197203, 45.563985359009806], [9.17674149147862, 45.56635788794826], [9.17527410847338, 45.568845399913066], [9.174166614795173, 45.57142317524709], [9.173430067595724, 45.57406559388672], [9.173071840824303, 45.57674638968443], [9.17187626449352, 45.59594331556366], [9.171900089431174, 45.59863785689872], [9.172306373762877, 45.60131731330792], [9.1730911252787, 45.60395499905173], [9.17424657968732, 45.6065246407298], [9.175761275936011, 45.60900063921198], [9.177620168554082, 45.61135832498664], [9.17980477597231, 45.613574204366465], [9.182293363401488, 45.61562619407794], [9.185061158495518, 45.61749384187346], [9.188080597682415, 45.619158530940474], [9.191321600724658, 45.62060366604275], [9.194751870771604, 45.62181483950987], [9.210794566768596, 45.62678986473162], [9.21448897257103, 45.62777926790497], [9.218308683096273, 45.62849733799787], [9.222213320192532, 45.62893648374627], [9.226161604106604, 45.629092062513045], [9.230111791693657, 45.628962429572645], [9.23402211962906, 45.62854895556887], [9.237851247836758, 45.627856011957455], [9.241558698346166, 45.626890924591095], [9.245105284842296, 45.62566389594774], [9.248453528280775, 45.624187896841754], [9.264543406050171, 45.616255262709764], [9.26743407151631, 45.614680356974176], [9.270098299660143, 45.612919790765204], [9.272511988307855, 45.610989505902246], [9.274653310579673, 45.608906979275915], [9.276502912094681, 45.6066910641685], [9.278044085492727, 45.60436181915079], [9.279262920714924, 45.60194032612321], [9.280148429714327, 45.5994484991658], [9.280692644509182, 45.59690888594272], [9.28089068774047, 45.59434446347045], [9.280740815150503, 45.59177843010759], [9.280244429657683, 45.58923399565313], [9.279406066961622, 45.58673417145463], [9.278233352870354, 45.584301562422255], [9.276736932794849, 45.581958162824215], [9.27493037410352, 45.57972515770096], [9.252633454572692, 45.554969455056955], [9.250432165087586, 45.55277385760414], [9.24793151129823, 45.55074268523429], [9.24515623553937, 45.54889601027538], [9.242133785792937, 45.54725207999216], [9.238894044317835, 45.545827136836], [9.235469032618518, 45.54463525850103], [9.231892595648963, 45.54368821934087], [9.228200068338607, 45.54299537449034], [9.224427927687634, 45.542563567815556], [9.220613433809774, 45.542397064584065], [9.216794263400537, 45.542497509506255], [9.213008139177044, 45.54286391055452], [9.20929245887189, 45.5434926487166], [9.205683927367495, 45.54437751358887], [9.202218195529259, 45.545509764465564], [9.198929509235546, 45.54687821633305], [9.195850372010675, 45.548469349936525], [9.193011224543936, 45.550267444852956], [9.190440144224322, 45.55225473427914], [9.188162567637843, 45.554411580031925], [9.186201038763349, 45.55671666605841], [9.185154987742772, 45.55828027705406]]]}}]", "buffer_5": "[{\"type\": \"Feature\", \"properties\": {}, \"geometry\": {\"type\": \"Polygon\", \"coordinates\": [[[9.164125294011292, 45.54762043234475], [9.160174969082792, 45.55096804215551], [9.156607779344375, 45.55469067339024], [9.153585577149986, 45.55864429928103], [9.151138495611013, 45.56278965319519], [9.149290972830574, 45.56708555552795], [9.1480615046917, 45.57148932167059], [9.147462455966323, 45.575957185262745], [9.14625816460254, 45.59515385649234], [9.146295829953619, 45.59964477004241], [9.146970973515558, 45.60411068266107], [9.148277021009784, 45.608507112128486], [9.150201106428005, 45.61279025809913], [9.152724194596582, 45.6169174390997], [9.15582126575672, 45.620847518751994], [9.159461560521569, 45.624541316929445], [9.163608882939288, 45.627962001692396], [9.168221958774799, 45.63107545802854], [9.173254845530124, 45.63385062964789], [9.178657390161186, 45.636259830346035], [9.184375729925582, 45.63827902175024], [9.200422215894932, 45.643255483295654], [9.206581133931213, 45.64490497365809], [9.212949146253289, 45.64610211994296], [9.219458878797225, 45.64683425470837], [9.226041447382212, 45.64709363070608], [9.232627191640573, 45.64687750342658], [9.239146417449351, 45.6461881603355], [9.245530139727977, 45.64503289648159], [9.251710817462275, 45.64342393674399], [9.25762307290944, 45.64137830557113], [9.263204387130314, 45.63891764563746], [9.27929637927823, 45.63098294948421], [9.284114631860438, 45.62835744918461], [9.288555122377266, 45.625422495762145], [9.292577676664232, 45.62220468338646], [9.296145926116699, 45.61873316447023], [9.299227636009398, 45.61503938432495], [9.301794995538462, 45.61115679515089], [9.303824867019397, 45.6071205520049], [9.305298992073814, 45.602967193548494], [9.306204153053438, 45.59873431050897], [9.306532288377284, 45.59446020488919], [9.306280560892215, 45.59018354303588], [9.3054513788038, 45.58594300572104], [9.304052369159225, 45.58177693840681], [9.30209630429283, 45.57772300485136], [9.299600982063719, 45.57381784717181], [9.296589061120505, 45.570096755411825], [9.27428647942812, 45.54534525157021], [9.27061698614335, 45.54168658924964], [9.26644894403926, 45.53830200165183], [9.261823601461765, 45.535224915087134], [9.256786700307789, 45.53248571389653], [9.251388023939315, 45.530111441959264], [9.245680906276075, 45.52812553717522], [9.239721706861937, 45.526547601470405], [9.23356925699417, 45.52539320852905], [9.227284282252393, 45.52467375109065], [9.220928806964675, 45.524396329270004], [9.214565546300607, 45.52456368096583], [9.208257291785443, 45.52517415502114], [9.20206629608443, 45.526221727391714], [9.196053662912844, 45.52769606016899], [9.190278747884358, 45.52958260289546], [9.184798576018727, 45.53186273520714], [9.179667281489438, 45.53451394944218], [9.174935575003571, 45.537510071470535], [9.170650243970053, 45.5408215176309], [9.166853690330132, 45.544415585310105], [9.164125294011292, 45.54762043234475]]]}}]", "centroid": "[{\"type\": \"Feature\", \"properties\": {}, \"geometry\": {\"type\": \"Point\", \"coordinates\": [9.223700671864247, 45.58705513096488]}}]", "Benzina": {"1": [{"Gestore": "EUROGAS NOVA S.R.L.", "Bandiera": "Pompe Bianche", "Tipo impianto": "Altro", "Indirizzo": "Via G. A. Diaz 31 20834", "Nome impianto": "EUROGAS", "Comune": "NOVA MILANESE", "idImpianto": 49274, "points": [{"type": "Feature", "properties": {}, "geometry": {"type": "Point", "coordinates": [9.200202285811043, 45.59990726284961]}}], "price": 1.699, "ultima_rilevazione": "06/10/2021 00:08:48"}, {"Gestore": "EGI-2GO S.R.L.", "Bandiera": "Esso", "Tipo impianto": "Altro", "Indirizzo": "VIA G. MAZZINI 13 20835", "Nome impianto": "Muggio", "Comune": "MUGGIO'", "idImpianto": 48001, "points": [{"type": "Feature", "properties": {}, "geometry": {"type": "Point", "coordinates": [9.236082046627049, 45.59281963065065]}}], "price": 1.859, "ultima_rilevazione": "25/05/2022 17:09:38"}, {"Gestore": "NOCE SAMUELE", "Bandiera": "Api-Ip", "Tipo impianto": "Altro", "Indirizzo": "VIA VITTORIO VENETO 25 20834", "Nome impianto": "Italiana Petroli", "Comune": "NOVA MILANESE", "idImpianto": 37257, "points": [{"type": "Feature", "properties": {}, "geometry": {"type": "Point", "coordinates": [9.201848411045034, 45.5914146691208]}}], "price": 1.929, "ultima_rilevazione": "26/05/2022 08:19:13"}, {"Gestore": "KEROPETROL S.P.A.", "Bandiera": "KEROPETROL", "Tipo impianto": "Altro", "Indirizzo": "VIA UGO FOSCOLO 2 20834", "Nome impianto": "KEROPETROL SPA NOVA MILANESE", "Comune": "NOVA MILANESE", "idImpianto": 49204, "points": [{"type": "Feature", "properties": {}, "geometry": {"type": "Point", "coordinates": [9.209046421212811, 45.59021508857542]}}], "price": 1.959, "ultima_rilevazione": "26/05/2022 16:59:00"}, {"Gestore": "SUPER CAR WASH DI MIRZA SHAFEEQ SIDDIQUE", "Bandiera": "Api-Ip", "Tipo impianto": "Altro", "Indirizzo": "VIA MASCAGNI 75 20832", "Nome impianto": "ITALIANA PETROLI", "Comune": "DESIO", "idImpianto": 48408, "points": [{"type": "Feature", "properties": {}, "geometry": {"type": "Point", "coordinates": [9.217777163194668, 45.60871324729638]}}], "price": 1.899, "ultima_rilevazione": "27/05/2022 18:59:00"}, {"Gestore": "F.LLI SCURATTI AUTORIPARAZIONI S.N.C. DI DANIELE E STEFANO SCURAT TI", "Bandiera": "KEROPETROL", "Tipo impianto": "Altro", "Indirizzo": "VIA PER CINISELLO 8 20834", "Nome impianto": "F.lli scuratti", "Comune": "NOVA MILANESE", "idImpianto": 25385, "points": [{"type": "Feature", "properties": {}, "geometry": {"type": "Point", "coordinates": [9.204874733839231, 45.58543539394178]}}], "price": 1.949, "ultima_rilevazione": "29/05/2022 22:41:38"}, {"Gestore": "FOLTRAN MARCO", "Bandiera": "Api-Ip", "Tipo impianto": "Altro", "Indirizzo": "Via Combattenti 4 20835", "Nome impianto": "IP", "Comune": "MUGGIO'", "idImpianto": 10320, "points": [{"type": "Feature", "properties": {}, "geometry": {"type": "Point", "coordinates": [9.230070086508247, 45.57588091184567]}}], "price": 1.899, "ultima_rilevazione": "30/05/2022 15:08:09"}, {"Gestore": "LOR GAS DI OLIVARES RODRIGUEZ JUAN CARLOS", "Bandiera": "Api-Ip", "Tipo impianto": "Altro", "Indirizzo": "via ugo foscolo  20900", "Nome impianto": "totalerg", "Comune": "MONZA", "idImpianto": 11211, "points": [{"type": "Feature", "properties": {}, "geometry": {"type": "Point", "coordinates": [9.22737032175064, 45.57082423144908]}}], "price": 1.954, "ultima_rilevazione": "31/05/2022 09:53:11"}, {"Gestore": "IP SERVICES S.R.L.", "Bandiera": "Api-Ip", "Tipo impianto": "Altro", "Indirizzo": "Via Generale Giardino 1 20851", "Nome impianto": "Lissone", "Comune": "LISSONE", "idImpianto": 22981, "points": [{"type": "Feature", "properties": {}, "geometry": {"type": "Point", "coordinates": [9.229980111122131, 45.60220426098312]}}], "price": 1.869, "ultima_rilevazione": "31/05/2022 12:07:53"}, {"Gestore": "SCARFONE COSIMO", "Bandiera": "Agip Eni", "Tipo impianto": "Altro", "Indirizzo": "mazzini  20835", "Nome impianto": "eni", "Comune": "MUGGIO'", "idImpianto": 41512, "points": [{"type": "Feature", "properties": {}, "geometry": {"type": "Point", "coordinates": [9.233100190758703, 45.59301366559917]}}], "price": 1.919, "ultima_rilevazione": "31/05/2022 14:48:06"}, {"Gestore": "MERONI SERVICE CAR S.A.S. DI G. MERONI & C.", "Bandiera": "Esso", "Tipo impianto": "Altro", "Indirizzo": "via carducci 65 20851", "Nome impianto": "ESSO MERONI SERVICE CAR SAS", "Comune": "LISSONE", "idImpianto": 22190, "points": [{"type": "Feature", "properties": {}, "geometry": {"type": "Point", "coordinates": [9.235237428465894, 45.60339971326928]}}], "price": 2.006, "ultima_rilevazione": "31/05/2022 18:58:51"}, {"Gestore": "DICOMI S.R.L.", "Bandiera": "Q8", "Tipo impianto": "Altro", "Indirizzo": "VIA ARMANDO DIAZ 31 20834", "Nome impianto": "Q8", "Comune": "NOVA MILANESE", "idImpianto": 51349, "points": [{"type": "Feature", "properties": {}, "geometry": {"type": "Point", "coordinates": [9.200262000000016, 45.59991908386896]}}], "price": 1.869, "ultima_rilevazione": "01/06/2022 00:08:12"}, {"Gestore": "SERVIZI & GESTIONI ITALIA S.R.L.", "Bandiera": "Q8", "Tipo impianto": "Altro", "Indirizzo": "VIA RISORGIMENTO 120 20092", "Nome impianto": "CINISELLO BALSAMO-VIA RISORGIMENTO 120", "Comune": "CINISELLO BALSAMO", "idImpianto": 11709, "points": [{"type": "Feature", "properties": {}, "geometry": {"type": "Point", "coordinates": [9.211318192625072, 45.5656530402386]}}], "price": 2.019, "ultima_rilevazione": "01/06/2022 07:09:04"}, {"Gestore": "SERVIZI & GESTIONI ITALIA S.R.L.", "Bandiera": "Q8", "Tipo impianto": "Altro", "Indirizzo": "S.P.192 VALASSINA  20851", "Nome impianto": "LISSONE S.P.192 VALASSINA", "Comune": "LISSONE", "idImpianto": 39112, "points": [{"type": "Feature", "properties": {}, "geometry": {"type": "Point", "coordinates": [9.231563955545424, 45.60228936339683]}}], "price": 1.999, "ultima_rilevazione": "01/06/2022 07:09:09"}], "3": [{"Gestore": "ALCA S.N.C. DI TROIANO E LUPOLI", "Bandiera": "Q8", "Tipo impianto": "Altro", "Indirizzo": "VIALE FULVIO TESTI 214 20092", "Nome impianto": "ALCA s.n.c.", "Comune": "CINISELLO BALSAMO", "idImpianto": 31194, "points": [{"type": "Feature", "properties": {}, "geometry": {"type": "Point", "coordinates": [9.233167916536331, 45.54780119027294]}}], "price": 1.769, "ultima_rilevazione": "15/11/2021 08:58:13"}, {"Gestore": "GALIFI DOMENICO", "Bandiera": "Api-Ip", "Tipo impianto": "Altro", "Indirizzo": "Via M.Buonarroti 148 20035", "Nome impianto": "total erg di Galifi ", "Comune": "LISSONE", "idImpianto": 43616, "points": [{"type": "Feature", "properties": {}, "geometry": {"type": "Point", "coordinates": [9.239804046627114, 45.62240218615924]}}], "price": 1.834, "ultima_rilevazione": "28/03/2022 10:16:18"}, {"Gestore": "BR.IT ENERGY SRL", "Bandiera": "Q8", "Tipo impianto": "Altro", "Indirizzo": "VIA VIGANO DE' VIZZI  36 20092", "Nome impianto": "Q8 PV 1061", "Comune": "CINISELLO BALSAMO", "idImpianto": 51243, "points": [{"type": "Feature", "properties": {}, "geometry": {"type": "Point", "coordinates": [9.23158615430675, 45.56033578108916]}}], "price": 1.739, "ultima_rilevazione": "26/04/2022 08:56:11"}, {"Gestore": "PROGETTI E SVILUPPO S.A.S. DI  MARAZZINA PAOLO E C.", "Bandiera": "KEROPETROL", "Tipo impianto": "Altro", "Indirizzo": "VIA MONFALCONE SNC 20092", "Nome impianto": "Keropetrol  Cinisello Balsamo MI", "Comune": "CINISELLO BALSAMO", "idImpianto": 46561, "points": [{"type": "Feature", "properties": {}, "geometry": {"type": "Point", "coordinates": [9.216780691950476, 45.5514147041983]}}], "price": 1.955, "ultima_rilevazione": "23/05/2022 11:45:48"}, {"Gestore": "EGI-2GO S.R.L.", "Bandiera": "Esso", "Tipo impianto": "Altro", "Indirizzo": "VIA A. LOCATELLI 10 20834", "Nome impianto": "Nova Milanese", "Comune": "NOVA MILANESE", "idImpianto": 48753, "points": [{"type": "Feature", "properties": {}, "geometry": {"type": "Point", "coordinates": [9.195352999999995, 45.59261673865961]}}], "price": 1.879, "ultima_rilevazione": "25/05/2022 17:08:35"}, {"Gestore": "CALOGERO LUCA", "Bandiera": "Api-Ip", "Tipo impianto": "Altro", "Indirizzo": "VIA DANTE ALIGHIERI 84 20092", "Nome impianto": "Stazione di servizio IP d", "Comune": "CINISELLO BALSAMO", "idImpianto": 8744, "points": [{"type": "Feature", "properties": {}, "geometry": {"type": "Point", "coordinates": [9.209659200663737, 45.55304702467864]}}], "price": 1.974, "ultima_rilevazione": "27/05/2022 08:35:09"}, {"Gestore": "CALOGERO LUCA", "Bandiera": "Api-Ip", "Tipo impianto": "Altro", "Indirizzo": "VIA TOGLIATTI 43 20092", "Nome impianto": "IP t", "Comune": "CINISELLO BALSAMO", "idImpianto": 46435, "points": [{"type": "Feature", "properties": {}, "geometry": {"type": "Point", "coordinates": [9.200220039963824, 45.55619380216169]}}], "price": 1.859, "ultima_rilevazione": "27/05/2022 08:35:26"}, {"Gestore": "ROSSI ALBERTO", "Bandiera": "Api-Ip", "Tipo impianto": "Altro", "Indirizzo": "VIA SABOTINO 53, 20832", "Nome impianto": "IP Rossi", "Comune": "DESIO", "idImpianto": 20022, "points": [{"type": "Feature", "properties": {}, "geometry": {"type": "Point", "coordinates": [9.194773435592651, 45.60774196976108]}}], "price": 1.899, "ultima_rilevazione": "27/05/2022 15:42:19"}, {"Gestore": "NUOVA SIDAP  S.R.L.", "Bandiera": "Api-Ip", "Tipo impianto": "Autostradale", "Indirizzo": "A52 TANG.LE NORD DI MILANO, Km. 10,9, Est 20092", "Nome impianto": "CINISELLO B. NORD", "Comune": "CINISELLO BALSAMO", "idImpianto": 43748, "points": [{"type": "Feature", "properties": {}, "geometry": {"type": "Point", "coordinates": [9.19825166463852, 45.57018517883253]}}], "price": 1.934, "ultima_rilevazione": "28/05/2022 14:53:03"}, {"Gestore": "Nuova Sidap SRL", "Bandiera": "Api-Ip", "Tipo impianto": "Autostradale", "Indirizzo": "A4 MILANO-BRESCIA, Km. 133+599, Est 20092", "Nome impianto": "LAMBRO SUD", "Comune": "CINISELLO BALSAMO", "idImpianto": 3548, "points": [{"type": "Feature", "properties": {}, "geometry": {"type": "Point", "coordinates": [9.208756966934176, 45.54819602199825]}}], "price": 1.937, "ultima_rilevazione": "29/05/2022 10:00:04"}, {"Gestore": "DALLAVALLE S.A.S. DI BONFANTI MASSIMO & C.", "Bandiera": "Q8", "Tipo impianto": "Altro", "Indirizzo": "VIA ROMAGNA  20900", "Nome impianto": "DALLAVALLE S.A.S. DI BONFANTI MASSIMO & C.", "Comune": "MONZA", "idImpianto": 38696, "points": [{"type": "Feature", "properties": {}, "geometry": {"type": "Point", "coordinates": [9.253979846835136, 45.573366739548135]}}], "price": 1.899, "ultima_rilevazione": "30/05/2022 06:56:23"}, {"Gestore": "S.M.C. SNC DI AGNANI MASSIMO E STEFANO", "Bandiera": "Beyfin", "Tipo impianto": "Strada Statale", "Indirizzo": "Statale 35 dei Giovi, Km. 134, dir. sud", "Nome impianto": "S.M.C. SNC DI AGNANI MASSIMO E STEFANO", "Comune": "PADERNO DUGNANO", "idImpianto": 24113, "points": [{"type": "Feature", "properties": {}, "geometry": {"type": "Point", "coordinates": [9.17557418346405, 45.57421087244983]}}], "price": 1.869, "ultima_rilevazione": "30/05/2022 10:02:34"}, {"Gestore": "KEROPETROL S.P.A.", "Bandiera": "KEROPETROL", "Tipo impianto": "Altro", "Indirizzo": "Viale Fulvio Testi SNC 20092", "Nome impianto": "KEROPETROL SPA CINISELLO BALSAMO", "Comune": "CINISELLO BALSAMO", "idImpianto": 40566, "points": [{"type": "Feature", "properties": {}, "geometry": {"type": "Point", "coordinates": [9.225009977817535, 45.54521808386223]}}], "price": 1.944, "ultima_rilevazione": "30/05/2022 16:52:49"}, {"Gestore": "STELLUTI LIBERO SNC", "Bandiera": "Esso", "Tipo impianto": "Altro", "Indirizzo": "corso milano 32 20900", "Nome impianto": "stazione di servizio esso di stelluti libero snc", "Comune": "MONZA", "idImpianto": 21145, "points": [{"type": "Feature", "properties": {}, "geometry": {"type": "Point", "coordinates": [9.271898106220988, 45.57866365616646]}}], "price": 1.899, "ultima_rilevazione": "31/05/2022 07:03:31"}, {"Gestore": "ESSEBI S.N.C. DI BORACCO LORENZO E SALA ANDREA", "Bandiera": "Esso", "Tipo impianto": "Altro", "Indirizzo": "viale vittorio veneto 19 20900", "Nome impianto": "esso", "Comune": "MONZA", "idImpianto": 37759, "points": [{"type": "Feature", "properties": {}, "geometry": {"type": "Point", "coordinates": [9.253012496958943, 45.57905863394036]}}], "price": 1.899, "ultima_rilevazione": "31/05/2022 07:13:36"}, {"Gestore": "STAZIONE SERVIZIO Q8 DI DI PADOVA FRANCESCO E MATTEO S.N.C.", "Bandiera": "Q8", "Tipo impianto": "Altro", "Indirizzo": "VIA GIUSEPPE GARIBALDI 130 20834", "Nome impianto": "stazione di servizio di padova francesco e matteo", "Comune": "NOVA MILANESE", "idImpianto": 7752, "points": [{"type": "Feature", "properties": {}, "geometry": {"type": "Point", "coordinates": [9.195328474204985, 45.585064792838175]}}], "price": 1.799, "ultima_rilevazione": "31/05/2022 07:25:23"}, {"Gestore": "STAZIONE DI SERVIZIO DI CORVINO CONCETTA", "Bandiera": "Agip Eni", "Tipo impianto": "Altro", "Indirizzo": "VIA MATTEOTTI 160 20851", "Nome impianto": "STAZ. SERV. ENI di Corvino Concetta", "Comune": "LISSONE", "idImpianto": 45886, "points": [{"type": "Feature", "properties": {}, "geometry": {"type": "Point", "coordinates": [9.234296000123, 45.618672000123]}}], "price": 1.919, "ultima_rilevazione": "31/05/2022 07:51:35"}, {"Gestore": "STAZIONE DI SERVIZIO SNC DI DE NARDI ROBERTO & C.", "Bandiera": "Esso", "Tipo impianto": "Altro", "Indirizzo": "Viale fulvio testi 141 20092", "Nome impianto": "Stazione di servizio snc", "Comune": "CINISELLO BALSAMO", "idImpianto": 20204, "points": [{"type": "Feature", "properties": {}, "geometry": {"type": "Point", "coordinates": [9.22626298954924, 45.546465100148346]}}], "price": 1.899, "ultima_rilevazione": "31/05/2022 08:03:08"}, {"Gestore": "ALMAS AUTOLAVAGGIO DI MAZHAR MOHAMMAD AYYAZ", "Bandiera": "Esso", "Tipo impianto": "Altro", "Indirizzo": "VIALE LOMBARDIA 16 20900", "Nome impianto": "ESSO - ALMAS AUTOLAVAGGIO", "Comune": "MONZA", "idImpianto": 51146, "points": [{"type": "Feature", "properties": {}, "geometry": {"type": "Point", "coordinates": [9.252574549598677, 45.58845789608662]}}], "price": 1.969, "ultima_rilevazione": "31/05/2022 08:12:35"}, {"Gestore": "LUCARELLI LEONARDO", "Bandiera": "Agip Eni", "Tipo impianto": "Altro", "Indirizzo": "VIALE CAMPANIA 64, 20900", "Nome impianto": "leonardo lucarelli", "Comune": "MONZA", "idImpianto": 24973, "points": [{"type": "Feature", "properties": {}, "geometry": {"type": "Point", "coordinates": [9.252105412372655, 45.56871310184942]}}], "price": 1.959, "ultima_rilevazione": "31/05/2022 08:22:38"}, {"Gestore": "RUSSO GIORGIO", "Bandiera": "Esso", "Tipo impianto": "Altro", "Indirizzo": "VIA GIUSEPPE GARIBALDI 306 20832", "Nome impianto": "ESSO ", "Comune": "DESIO", "idImpianto": 21100, "points": [{"type": "Feature", "properties": {}, "geometry": {"type": "Point", "coordinates": [9.202510938048365, 45.6069307654106]}}], "price": 1.939, "ultima_rilevazione": "31/05/2022 08:32:47"}, {"Gestore": "AWWAD SALEH IBRAHIM", "Bandiera": "Esso", "Tipo impianto": "Altro", "Indirizzo": "VIA F. CAVALLOTTI 24 20900", "Nome impianto": "ESSO via cavallotti", "Comune": "MONZA", "idImpianto": 48429, "points": [{"type": "Feature", "properties": {}, "geometry": {"type": "Point", "coordinates": [9.266201259507172, 45.581103198922094]}}], "price": 1.939, "ultima_rilevazione": "31/05/2022 08:35:02"}, {"Gestore": "D'ALOIA GIOVANNI", "Bandiera": "Agip Eni", "Tipo impianto": "Altro", "Indirizzo": "VIA DELLA REPUBBLICA 134 20851", "Nome impianto": "ENI 2281", "Comune": "LISSONE", "idImpianto": 15800, "points": [{"type": "Feature", "properties": {}, "geometry": {"type": "Point", "coordinates": [9.25201915204525, 45.603109323245846]}}], "price": 1.919, "ultima_rilevazione": "31/05/2022 08:54:27"}, {"Gestore": "TREMOLADA E FIGLI SAS DI TREMOLADA DARIO & C.", "Bandiera": "Agip Eni", "Tipo impianto": "Strada Statale", "Indirizzo": "36 del Lago di Como e dello Spluga, Km. snc, Milano 20832 ", "Nome impianto": "Tremolada Sas", "Comune": "DESIO", "idImpianto": 50331, "points": [{"type": "Feature", "properties": {}, "geometry": {"type": "Point", "coordinates": [9.223568613082731, 45.61646218811291]}}], "price": 1.919, "ultima_rilevazione": "31/05/2022 09:57:59"}, {"Gestore": "BRAMBILLA S.N.C. DI GABRIELE BRAMBILLA & C.", "Bandiera": "Agip Eni", "Tipo impianto": "Altro", "Indirizzo": "VIALE LOMBARDIA 224 20052", "Nome impianto": "AGIP di BRAMBILLA S.N.C.", "Comune": "MONZA", "idImpianto": 6254, "points": [{"type": "Feature", "properties": {}, "geometry": {"type": "Point", "coordinates": [9.244179725646973, 45.56768653673911]}}], "price": 1.959, "ultima_rilevazione": "31/05/2022 10:56:17"}, {"Gestore": "T.D.M. S.R.L.", "Bandiera": "Tamoil", "Tipo impianto": "Altro", "Indirizzo": "via Como 112 20851", "Nome impianto": "8049", "Comune": "LISSONE", "idImpianto": 32684, "points": [{"type": "Feature", "properties": {}, "geometry": {"type": "Point", "coordinates": [9.233988001942636, 45.61964253800573]}}], "price": 1.929, "ultima_rilevazione": "31/05/2022 11:50:12"}, {"Gestore": "IP SERVICES S.R.L.", "Bandiera": "Api-Ip", "Tipo impianto": "Altro", "Indirizzo": "VIALE FULVIO TESTI  51 20092", "Nome impianto": "CINISELLO BALSAMO - FULVIO TESTI 51", "Comune": "CINISELLO BALSAMO", "idImpianto": 28047, "points": [{"type": "Feature", "properties": {}, "geometry": {"type": "Point", "coordinates": [9.220614752149572, 45.54258215365598]}}], "price": 1.869, "ultima_rilevazione": "31/05/2022 12:04:11"}, {"Gestore": "IP SERVICES S.R.L.", "Bandiera": "Api-Ip", "Tipo impianto": "Altro", "Indirizzo": "VIA CAVALLOTTI 68 20052", "Nome impianto": "MONZA - CAVALLOTTI", "Comune": "MONZA", "idImpianto": 29921, "points": [{"type": "Feature", "properties": {}, "geometry": {"type": "Point", "coordinates": [9.260762449073807, 45.57971877321861]}}], "price": 1.859, "ultima_rilevazione": "31/05/2022 12:05:43"}, {"Gestore": "IP SERVICES S.R.L.", "Bandiera": "Api-Ip", "Tipo impianto": "Autostradale", "Indirizzo": "Autostrada A4 MILANO-BRESCIA, Km. 383, dir. Torino 15077", "Nome impianto": "LAMBRO NORD", "Comune": "CINISELLO BALSAMO", "idImpianto": 36458, "points": [{"type": "Feature", "properties": {}, "geometry": {"type": "Point", "coordinates": [9.207860525131196, 45.54869436492454]}}], "price": 1.977, "ultima_rilevazione": "31/05/2022 12:05:54"}, {"Gestore": "IP SERVICES S.R.L.", "Bandiera": "Api-Ip", "Tipo impianto": "Altro", "Indirizzo": "via CAVALLOTTI 110 20900", "Nome impianto": "Monza Cavallotti", "Comune": "MONZA", "idImpianto": 31387, "points": [{"type": "Feature", "properties": {}, "geometry": {"type": "Point", "coordinates": [9.254766404628754, 45.57817602447157]}}], "price": 1.889, "ultima_rilevazione": "31/05/2022 12:07:17"}, {"Gestore": "IP SERVICES S.R.L.", "Bandiera": "Api-Ip", "Tipo impianto": "Altro", "Indirizzo": "Via Fulvio Testi 196 20092", "Nome impianto": "CINISELLO BALSAMO", "Comune": "CINISELLO BALSAMO", "idImpianto": 5529, "points": [{"type": "Feature", "properties": {}, "geometry": {"type": "Point", "coordinates": [9.229324635581976, 45.54657702743668]}}], "price": 1.879, "ultima_rilevazione": "31/05/2022 12:07:17"}, {"Gestore": "IPERSTAROIL S.R.L.", "Bandiera": "Pompe Bianche", "Tipo impianto": "Altro", "Indirizzo": "viale Brianza 31 20092", "Nome impianto": "iperstaroil CINISELLO", "Comune": "CINISELLO BALSAMO", "idImpianto": 50704, "points": [{"type": "Feature", "properties": {}, "geometry": {"type": "Point", "coordinates": [9.23803592007732, 45.55229444729481]}}], "price": 1.889, "ultima_rilevazione": "31/05/2022 13:58:07"}, {"Gestore": "SCARFONE COSIMO", "Bandiera": "Agip Eni", "Tipo impianto": "Altro", "Indirizzo": "via milano 230 20832", "Nome impianto": "ENI DESIO", "Comune": "DESIO", "idImpianto": 32877, "points": [{"type": "Feature", "properties": {}, "geometry": {"type": "Point", "coordinates": [9.199714064598083, 45.62074583216158]}}], "price": 1.919, "ultima_rilevazione": "31/05/2022 14:43:55"}, {"Gestore": "STAZIONE DI SERVIZIO TAMOIL DI MORAMARCO GIACINTO E C. SNC", "Bandiera": "Tamoil", "Tipo impianto": "Altro", "Indirizzo": "VIA TAGLIABUE 22 20832", "Nome impianto": "STAZIONE DI SERVIZIO TAMOIL di MORAMARCO GIACINTO & C. snc", "Comune": "DESIO", "idImpianto": 14629, "points": [{"type": "Feature", "properties": {}, "geometry": {"type": "Point", "coordinates": [9.216838628053663, 45.619648203491856]}}], "price": 1.929, "ultima_rilevazione": "31/05/2022 15:06:09"}, {"Gestore": "DE NITTIS PASQUALE", "Bandiera": "Tamoil", "Tipo impianto": "Altro", "Indirizzo": "VIALE CAMPANIA 8 20900", "Nome impianto": "STAZIONE DI SERVIZIO TAMOIL", "Comune": "MONZA", "idImpianto": 9990, "points": [{"type": "Feature", "properties": {}, "geometry": {"type": "Point", "coordinates": [9.258126151520514, 45.5659023786019]}}], "price": 1.929, "ultima_rilevazione": "31/05/2022 15:10:12"}, {"Gestore": "IP SERVICES S.R.L.", "Bandiera": "Api-Ip", "Tipo impianto": "Altro", "Indirizzo": "VIA  TOGLIATTI 2 20092", "Nome impianto": "CINISELLO BALSAMO - TOGLIATTI", "Comune": "CINISELLO BALSAMO", "idImpianto": 29861, "points": [{"type": "Feature", "properties": {}, "geometry": {"type": "Point", "coordinates": [9.202316093254126, 45.55392629457841]}}], "price": 1.899, "ultima_rilevazione": "31/05/2022 16:03:27"}, {"Gestore": "GS SPA", "Bandiera": "Q8", "Tipo impianto": "Altro", "Indirizzo": "S.S. 35 dei Giovi  20037", "Nome impianto": "Carrefour Q8 Paderno", "Comune": "PADERNO DUGNANO", "idImpianto": 48742, "points": [{"type": "Feature", "properties": {}, "geometry": {"type": "Point", "coordinates": [9.17677844662704, 45.574291657480615]}}], "price": 1.899, "ultima_rilevazione": "31/05/2022 16:05:54"}, {"Gestore": "FERA MARCO", "Bandiera": "Agip Eni", "Tipo impianto": "Altro", "Indirizzo": "via robecco  27 20092", "Nome impianto": "eni", "Comune": "CINISELLO BALSAMO", "idImpianto": 40748, "points": [{"type": "Feature", "properties": {}, "geometry": {"type": "Point", "coordinates": [9.220705364417997, 45.55809624391139]}}], "price": 1.954, "ultima_rilevazione": "31/05/2022 16:38:58"}, {"Gestore": "ZACCONE FRATELLI S.N.C. DI FABIO E MAURIZIO ZACCONE", "Bandiera": "Tamoil", "Tipo impianto": "Altro", "Indirizzo": "VIALE MARTIRI DELLA LIBERTA' 114 20851", "Nome impianto": "TAMOIL", "Comune": "LISSONE", "idImpianto": 12233, "points": [{"type": "Feature", "properties": {}, "geometry": {"type": "Point", "coordinates": [9.243964514276286, 45.62425321888188]}}], "price": 1.939, "ultima_rilevazione": "01/06/2022 06:42:11"}, {"Gestore": "PROVVIDO SALVATORE", "Bandiera": "Retitalia", "Tipo impianto": "Altro", "Indirizzo": "VIA ABRAMO LINCOLN 7 20092", "Nome impianto": "Retitalia", "Comune": "CINISELLO BALSAMO", "idImpianto": 12462, "points": [{"type": "Feature", "properties": {}, "geometry": {"type": "Point", "coordinates": [9.227097333712209, 45.55886811119226]}}], "price": 1.939, "ultima_rilevazione": "31/05/2022 22:57:20"}, {"Gestore": "COMMERCIALE PAGANONI S.P.A.", "Bandiera": "Pompe Bianche", "Tipo impianto": "Altro", "Indirizzo": "VIA XXV APRILE 245 20092", "Nome impianto": "COMMERCIALE PAGANONI PC18", "Comune": "CINISELLO BALSAMO", "idImpianto": 48139, "points": [{"type": "Feature", "properties": {}, "geometry": {"type": "Point", "coordinates": [9.196240983221193, 45.55346798912397]}}], "price": 1.899, "ultima_rilevazione": "01/06/2022 00:08:11"}, {"Gestore": "ENI FUEL S.P.A.", "Bandiera": "Agip Eni", "Tipo impianto": "Altro", "Indirizzo": "Viale Lombardia 166 20052", "Nome impianto": "PV 2172 Monza V. Lombardia", "Comune": "MONZA", "idImpianto": 38524, "points": [{"type": "Feature", "properties": {}, "geometry": {"type": "Point", "coordinates": [9.24692600852893, 45.5745145949299]}}], "price": 1.959, "ultima_rilevazione": "01/06/2022 00:18:02"}, {"Gestore": "SERVIZI & GESTIONI ITALIA S.R.L.", "Bandiera": "Q8", "Tipo impianto": "Altro", "Indirizzo": "VIA MARTIRI LIBERTA'  / PANZINI 12 20035", "Nome impianto": "LISSONE-VIA MARTIRI LIBERTA' 12 / PANZINI", "Comune": "LISSONE", "idImpianto": 11645, "points": [{"type": "Feature", "properties": {}, "geometry": {"type": "Point", "coordinates": [9.248222974204964, 45.61524052887886]}}], "price": 1.949, "ultima_rilevazione": "01/06/2022 01:39:15"}, {"Gestore": "SERVIZI & GESTIONI ITALIA srl", "Bandiera": "Q8", "Tipo impianto": "Altro", "Indirizzo": "VIA MONTE ORTIGARA 19 20092", "Nome impianto": "CINISELLO BALSAMO VIA MONTE ORTIGARA  19", "Comune": "CINISELLO BALSAMO", "idImpianto": 6434, "points": [{"type": "Feature", "properties": {}, "geometry": {"type": "Point", "coordinates": [9.211831747221368, 45.559275424392986]}}], "price": 1.919, "ultima_rilevazione": "01/06/2022 01:39:43"}, {"Gestore": "SERVIZI & GESTIONI ITALIA S.R.L.", "Bandiera": "Q8", "Tipo impianto": "Altro", "Indirizzo": "VIA U.GIORDANO S/N 20092", "Nome impianto": "CINISELLO BALSAMO-VIA U.GIORDANO", "Comune": "CINISELLO BALSAMO", "idImpianto": 11676, "points": [{"type": "Feature", "properties": {}, "geometry": {"type": "Point", "coordinates": [9.219528746032664, 45.55855024253631]}}], "price": 1.939, "ultima_rilevazione": "01/06/2022 01:39:46"}, {"Gestore": "SERVIZI & GESTIONI ITALIA S.R.L.", "Bandiera": "Q8", "Tipo impianto": "Altro", "Indirizzo": "VIA LINCOLN ANG.VIA ROBECCO S/N 20092", "Nome impianto": "CINISELLO BALSAMO-VIA LINCOLN ANG.VIA ROBECCO", "Comune": "CINISELLO BALSAMO", "idImpianto": 11680, "points": [{"type": "Feature", "properties": {}, "geometry": {"type": "Point", "coordinates": [9.227057084655826, 45.55971971323913]}}], "price": 1.939, "ultima_rilevazione": "01/06/2022 01:39:49"}, {"Gestore": "SERVIZI & GESTIONI ITALIA S.R.L.", "Bandiera": "Q8", "Tipo impianto": "Altro", "Indirizzo": "VIA BETTOLA - ANGOLO VIA CASTALDI 32 20092", "Nome impianto": "CINISELLO BALSAMO-VIA BETTOLA 32 - ANGOLO VIA CASTALDI", "Comune": "CINISELLO BALSAMO", "idImpianto": 11710, "points": [{"type": "Feature", "properties": {}, "geometry": {"type": "Point", "coordinates": [9.243809580802916, 45.556688014194734]}}], "price": 1.949, "ultima_rilevazione": "01/06/2022 01:39:54"}, {"Gestore": "SERVIZI & GESTIONI ITALIA S.R.L.", "Bandiera": "Q8", "Tipo impianto": "Altro", "Indirizzo": "V.LE ROMAGNA 42 20052", "Nome impianto": "MONZA V.LE ROMAGNA 42", "Comune": "MONZA", "idImpianto": 6439, "points": [{"type": "Feature", "properties": {}, "geometry": {"type": "Point", "coordinates": [9.248283505439758, 45.572231571073054]}}], "price": 1.949, "ultima_rilevazione": "01/06/2022 01:39:56"}, {"Gestore": "SERVIZI & GESTIONI ITALIA srl", "Bandiera": "Q8", "Tipo impianto": "Altro", "Indirizzo": "VIA ROBECCO 69 20092", "Nome impianto": "CINISELLO BALSAMO ROBECCO 69", "Comune": "CINISELLO BALSAMO", "idImpianto": 6449, "points": [{"type": "Feature", "properties": {}, "geometry": {"type": "Point", "coordinates": [9.22493409451215, 45.5589375284437]}}], "price": 1.939, "ultima_rilevazione": "01/06/2022 01:40:37"}, {"Gestore": "SERVIZI & GESTIONI ITALIA S.R.L.", "Bandiera": "Q8", "Tipo impianto": "Altro", "Indirizzo": "VIA MILANO 165 20033", "Nome impianto": "DESIO-VIA MILANO 165", "Comune": "DESIO", "idImpianto": 11642, "points": [{"type": "Feature", "properties": {}, "geometry": {"type": "Point", "coordinates": [9.20041492757798, 45.61516903593563]}}], "price": 1.949, "ultima_rilevazione": "01/06/2022 07:08:59"}, {"Gestore": "SERVIZI & GESTIONI ITALIA S.R.L.", "Bandiera": "Q8", "Tipo impianto": "Altro", "Indirizzo": "VIA VALASSINA 144 EST 20033", "Nome impianto": "DESIO-VIA VALASSINA 144 EST", "Comune": "DESIO", "idImpianto": 11643, "points": [{"type": "Feature", "properties": {}, "geometry": {"type": "Point", "coordinates": [9.224793526458711, 45.62338022251562]}}], "price": 1.969, "ultima_rilevazione": "01/06/2022 07:09:00"}, {"Gestore": "SERVIZI & GESTIONI ITALIA S.R.L.", "Bandiera": "Q8", "Tipo impianto": "Altro", "Indirizzo": "VIA BORGAZZI 96 20052", "Nome impianto": "MONZA-VIA BORGAZZI 96", "Comune": "MONZA", "idImpianto": 11651, "points": [{"type": "Feature", "properties": {}, "geometry": {"type": "Point", "coordinates": [9.261414576721222, 45.566349778721616]}}], "price": 1.969, "ultima_rilevazione": "01/06/2022 07:09:02"}, {"Gestore": "SERVIZI & GESTIONI ITALIA S.R.L.", "Bandiera": "Q8", "Tipo impianto": "Altro", "Indirizzo": "FZ.PALAZZOLO SS/SP 35 KM.6+550 OVEST S/N 20037", "Nome impianto": "PADERNO DUGNANO-FZ.PALAZZOLO SS/SP35KM.6+550 OVEST", "Comune": "PADERNO DUGNANO", "idImpianto": 11678, "points": [{"type": "Feature", "properties": {}, "geometry": {"type": "Point", "coordinates": [9.173264373016307, 45.588769325187954]}}], "price": 1.949, "ultima_rilevazione": "01/06/2022 07:09:10"}, {"Gestore": "SERVIZI & GESTIONI ITALIA S.R.L.", "Bandiera": "Q8", "Tipo impianto": "Altro", "Indirizzo": "VIALE CASIRAGHI F.TESTI 493 20099", "Nome impianto": "SESTO SAN GIOVANNI-VIALE CASIRAGHI F.TESTI 493", "Comune": "SESTO SAN GIOVANNI", "idImpianto": 11656, "points": [{"type": "Feature", "properties": {}, "geometry": {"type": "Point", "coordinates": [9.23625172023776, 45.54886994636463]}}], "price": 1.969, "ultima_rilevazione": "01/06/2022 07:09:11"}, {"Gestore": "SERVIZI & GESTIONI ITALIA S.R.L.", "Bandiera": "Q8", "Tipo impianto": "Altro", "Indirizzo": "VIA PELIZZA DA VOLPEDO  20092", "Nome impianto": "CINISELLO BALSAMO VIA PELIZZA DA VOLPEDO", "Comune": "CINISELLO BALSAMO", "idImpianto": 42916, "points": [{"type": "Feature", "properties": {}, "geometry": {"type": "Point", "coordinates": [9.23242891226846, 45.555156760928725]}}], "price": 1.999, "ultima_rilevazione": "01/06/2022 07:09:13"}, {"Gestore": "F.LLI CERUTI S.N.C. DI ANGELO E ATTILIO CERUTI", "Bandiera": "Tamoil", "Tipo impianto": "Altro", "Indirizzo": "STRADA PROVINCIALE 35 MILANO MEDA  20037", "Nome impianto": "TAMOIL", "Comune": "PADERNO DUGNANO", "idImpianto": 16979, "points": [{"type": "Feature", "properties": {}, "geometry": {"type": "Point", "coordinates": [9.17536363005638, 45.583678765520126]}}], "price": 1.929, "ultima_rilevazione": "01/06/2022 07:20:14"}, {"Gestore": "STAZIONE DI SERVIZIO TAMOIL DI MORAMARCO GIACINTO E C. SNC", "Bandiera": "Tamoil", "Tipo impianto": "Altro", "Indirizzo": "VIA TAGLIABUE 22 20832", "Nome impianto": "STAZIONE DI SERVIZIO TAMOIL di MORAMARCO GIACINTO & C. snc", "Comune": "DESIO", "idImpianto": 14629, "points": [{"type": "Feature", "properties": {}, "geometry": {"type": "Point", "coordinates": [9.216838628053663, 45.619648203491856]}}], "price": 2.079, "ultima_rilevazione": "31/05/2022 15:06:09"}, {"Gestore": "DE NITTIS PASQUALE", "Bandiera": "Tamoil", "Tipo impianto": "Altro", "Indirizzo": "VIALE CAMPANIA 8 20900", "Nome impianto": "STAZIONE DI SERVIZIO TAMOIL", "Comune": "MONZA", "idImpianto": 9990, "points": [{"type": "Feature", "properties": {}, "geometry": {"type": "Point", "coordinates": [9.258126151520514, 45.5659023786019]}}], "price": 2.079, "ultima_rilevazione": "31/05/2022 15:10:12"}], "5": [{"Gestore": "STRIPPOLI ALFIO", "Bandiera": "Agip Eni", "Tipo impianto": "Altro", "Indirizzo": "VIALE LIBERTA' 88 20900", "Nome impianto": "Strippoli Alfio", "Comune": "MONZA", "idImpianto": 14409, "points": [{"type": "Feature", "properties": {}, "geometry": {"type": "Point", "coordinates": [9.295753240585327, 45.58941435702956]}}], "price": 1.789, "ultima_rilevazione": "04/11/2021 22:15:50"}, {"Gestore": "RHN ENTERPRISE DI AHMED NAVEED", "Bandiera": "Retitalia", "Tipo impianto": "Altro", "Indirizzo": "via monte santo 36 20900", "Nome impianto": "reteitalia", "Comune": "MONZA", "idImpianto": 49483, "points": [{"type": "Feature", "properties": {}, "geometry": {"type": "Point", "coordinates": [9.26951166601285, 45.56208227724076]}}], "price": 1.894, "ultima_rilevazione": "02/05/2022 14:56:58"}, {"Gestore": "NUOVA SIDAP  S.R.L.", "Bandiera": "Esso", "Tipo impianto": "Altro", "Indirizzo": "VIALE DELLE INDUSTRIE 43 20900", "Nome impianto": "Monza 2", "Comune": "MONZA", "idImpianto": 4657, "points": [{"type": "Feature", "properties": {}, "geometry": {"type": "Point", "coordinates": [9.292220771312714, 45.56863365263018]}}], "price": 1.892, "ultima_rilevazione": "20/05/2022 18:18:36"}, {"Gestore": "G.T. CARBURANTI  DI  GIULIANI TOMMASO MARCO", "Bandiera": "Esso", "Tipo impianto": "Altro", "Indirizzo": "VIALE MARELLI 266 20099", "Nome impianto": "ESSO GTcarburanti", "Comune": "SESTO SAN GIOVANNI", "idImpianto": 31812, "points": [{"type": "Feature", "properties": {}, "geometry": {"type": "Point", "coordinates": [9.22847156745911, 45.52596815708628]}}], "price": 2.059, "ultima_rilevazione": "24/05/2022 21:00:49"}, {"Gestore": "F.LLI SARTORATO S.N.C. DI GABRIELE MARCO & C.", "Bandiera": "Agip Eni", "Tipo impianto": "Altro", "Indirizzo": "PIAZZA ITALIA  20091", "Nome impianto": "eni spa", "Comune": "BRESSO", "idImpianto": 13164, "points": [{"type": "Feature", "properties": {}, "geometry": {"type": "Point", "coordinates": [9.19575110077858, 45.53213298472479]}}], "price": 1.919, "ultima_rilevazione": "25/05/2022 10:30:04"}, {"Gestore": "NASSER PETROL SOCIETA' A RESPONSABILITA' LIMITATA SEMPLIFICATA", "Bandiera": "KEROPETROL", "Tipo impianto": "Altro", "Indirizzo": "VIALE Fratello Casiraghi 270 20099", "Nome impianto": "keropetrol", "Comune": "SESTO SAN GIOVANNI", "idImpianto": 50167, "points": [{"type": "Feature", "properties": {}, "geometry": {"type": "Point", "coordinates": [9.23442288458464, 45.54196656139872]}}], "price": 1.869, "ultima_rilevazione": "25/05/2022 19:44:50"}, {"Gestore": "MANDIA ANTONIO", "Bandiera": "Pompe Bianche", "Tipo impianto": "Altro", "Indirizzo": "VIA PER CESANO 44 20832", "Nome impianto": "NUOVA COMA SRL", "Comune": "DESIO", "idImpianto": 14095, "points": [{"type": "Feature", "properties": {}, "geometry": {"type": "Point", "coordinates": [9.195360888360597, 45.62368386848299]}}], "price": 1.889, "ultima_rilevazione": "26/05/2022 06:49:22"}, {"Gestore": "STAZIONE DI SERVIZIO KUWAIT DI MUNARI MAURO", "Bandiera": "Q8", "Tipo impianto": "Altro", "Indirizzo": "via seveso s.n.c. snc 20095", "Nome impianto": "stazione di servizio Q8 di mauro Munari", "Comune": "CUSANO MILANINO", "idImpianto": 50046, "points": [{"type": "Feature", "properties": {}, "geometry": {"type": "Point", "coordinates": [9.172633886337277, 45.555949923215685]}}], "price": 1.899, "ultima_rilevazione": "28/05/2022 08:15:22"}, {"Gestore": "BASELICE FRANCESCO", "Bandiera": "Q8", "Tipo impianto": "Altro", "Indirizzo": "via tiepolo  20900", "Nome impianto": "Q8", "Comune": "MONZA", "idImpianto": 13606, "points": [{"type": "Feature", "properties": {}, "geometry": {"type": "Point", "coordinates": [9.300115182995796, 45.58058447639117]}}], "price": 1.919, "ultima_rilevazione": "28/05/2022 08:26:57"}, {"Gestore": "STAZIONE AGIP DI VETRI PAOLO E C. S.A.S.", "Bandiera": "Agip Eni", "Tipo impianto": "Altro", "Indirizzo": "VIA ANTONIO GRAMSCI 109 20037", "Nome impianto": "staz.agip di vetri paolo ", "Comune": "PADERNO DUGNANO", "idImpianto": 13647, "points": [{"type": "Feature", "properties": {}, "geometry": {"type": "Point", "coordinates": [9.17061626441796, 45.558841461515954]}}], "price": 1.929, "ultima_rilevazione": "28/05/2022 08:30:14"}, {"Gestore": "FERRARI & MARIANI S.N.C. DI FERRARI STEFANO & C.", "Bandiera": "Agip Eni", "Tipo impianto": "Altro", "Indirizzo": "VIALE SICILIA 40 20900", "Nome impianto": "ferrari & mariani snc", "Comune": "MONZA", "idImpianto": 11978, "points": [{"type": "Feature", "properties": {}, "geometry": {"type": "Point", "coordinates": [9.302946925163267, 45.58137197335687]}}], "price": 1.924, "ultima_rilevazione": "30/05/2022 07:47:34"}, {"Gestore": "SOLDINI GIUSEPPE", "Bandiera": "Q8", "Tipo impianto": "Altro", "Indirizzo": "via monte santo  9 20900", "Nome impianto": "stazione di servizio q8", "Comune": "MONZA", "idImpianto": 48949, "points": [{"type": "Feature", "properties": {}, "geometry": {"type": "Point", "coordinates": [9.266720082221722, 45.56293401042127]}}], "price": 1.899, "ultima_rilevazione": "30/05/2022 15:09:22"}, {"Gestore": "AUTODROMO NAZIONALE MONZA S.I.A.S. SOCIETA' INCREMENTO AUTOMOBILISMO E SPORT -S.P.A.", "Bandiera": "Agip Eni", "Tipo impianto": "Altro", "Indirizzo": "VIALE DI VEDANO 5 20900", "Nome impianto": "Autodromo Nazionale Monza", "Comune": "MONZA", "idImpianto": 29043, "points": [{"type": "Feature", "properties": {}, "geometry": {"type": "Point", "coordinates": [9.282018981114788, 45.61894867633523]}}], "price": 2.124, "ultima_rilevazione": "30/05/2022 16:14:07"}, {"Gestore": "NIGRO SNC DI NIGRO ANTONINO E MAURO", "Bandiera": "Agip Eni", "Tipo impianto": "Altro", "Indirizzo": "VIA F. FILZI 9 20032", "Nome impianto": "NIGRO SNC Cormano", "Comune": "CORMANO", "idImpianto": 12665, "points": [{"type": "Feature", "properties": {}, "geometry": {"type": "Point", "coordinates": [9.166926741600037, 45.54489498527752]}}], "price": 1.959, "ultima_rilevazione": "31/05/2022 04:35:56"}, {"Gestore": "NIGRO SNC DI NIGRO ANTONINO E MAURO", "Bandiera": "Agip Eni", "Tipo impianto": "Strada Statale", "Indirizzo": "35 dei Giovi, Km. 132+300, Nord 20037", "Nome impianto": "enimilanomeda", "Comune": "PADERNO DUGNANO", "idImpianto": 50212, "points": [{"type": "Feature", "properties": {}, "geometry": {"type": "Point", "coordinates": [9.173606993586697, 45.559938200567736]}}], "price": 1.959, "ultima_rilevazione": "31/05/2022 04:37:15"}, {"Gestore": "TOREGAS S.A.S. DI PAROZZI RINALDO & C.", "Bandiera": "Api-Ip", "Tipo impianto": "Altro", "Indirizzo": "VIA CARDUCCI SNC 20091", "Nome impianto": "TOREGAS", "Comune": "BRESSO", "idImpianto": 29239, "points": [{"type": "Feature", "properties": {}, "geometry": {"type": "Point", "coordinates": [9.20464069428715, 45.5327732952849]}}], "price": 1.929, "ultima_rilevazione": "31/05/2022 06:23:03"}, {"Gestore": "STAZIONE DI SERVIZIO DI DI BERNARDO IVANO", "Bandiera": "Agip Eni", "Tipo impianto": "Altro", "Indirizzo": "VIA SORMANI 29 20095", "Nome impianto": "Stazione di servizio di Di Bernardo Ivano", "Comune": "CUSANO MILANINO", "idImpianto": 51338, "points": [{"type": "Feature", "properties": {}, "geometry": {"type": "Point", "coordinates": [9.185928728641352, 45.54929389932906]}}], "price": 1.954, "ultima_rilevazione": "31/05/2022 06:44:16"}, {"Gestore": "NATALI SNC DI NATALI STEFANO E NATALI NICOLO'", "Bandiera": "Agip Eni", "Tipo impianto": "Altro", "Indirizzo": "VIA DON MINZONI SNC 20091", "Nome impianto": "ENI", "Comune": "BRESSO", "idImpianto": 12442, "points": [{"type": "Feature", "properties": {}, "geometry": {"type": "Point", "coordinates": [9.190016507283502, 45.54247778006184]}}], "price": 1.959, "ultima_rilevazione": "31/05/2022 07:19:32"}, {"Gestore": "TUFO CARMINE  S.N.C. DI TUFO CARMINE E C.", "Bandiera": "Agip Eni", "Tipo impianto": "Altro", "Indirizzo": "VIALE ITALIA ANGOLO VIA ISONZO  20099", "Nome impianto": "TUFO SNC", "Comune": "SESTO SAN GIOVANNI", "idImpianto": 4272, "points": [{"type": "Feature", "properties": {}, "geometry": {"type": "Point", "coordinates": [9.233606457710266, 45.52644861308865]}}], "price": 1.959, "ultima_rilevazione": "31/05/2022 07:25:01"}, {"Gestore": "F.LLI PUPPIO SNC DI PUPPIO PASQUALE E C.", "Bandiera": "Agip Eni", "Tipo impianto": "Altro", "Indirizzo": "VIALE GRAMSCI ANG. VIA MONTENERO  20099", "Nome impianto": "F.LLI PUPPIO SNC", "Comune": "SESTO SAN GIOVANNI", "idImpianto": 12374, "points": [{"type": "Feature", "properties": {}, "geometry": {"type": "Point", "coordinates": [9.24358695745468, 45.546936861949234]}}], "price": 1.954, "ultima_rilevazione": "31/05/2022 07:25:37"}, {"Gestore": "CURIONI ANGELO E POZZI SANDRA SNC", "Bandiera": "Esso", "Tipo impianto": "Altro", "Indirizzo": "VIA MILANO 81 20831", "Nome impianto": "SEREGNO VIA MILANO 81  ", "Comune": "SEREGNO", "idImpianto": 43069, "points": [{"type": "Feature", "properties": {}, "geometry": {"type": "Point", "coordinates": [9.205776271163929, 45.63923175066154]}}], "price": 1.936, "ultima_rilevazione": "31/05/2022 08:04:47"}, {"Gestore": "LOMBARDI STEFANO", "Bandiera": "Agip Eni", "Tipo impianto": "Altro", "Indirizzo": "VIA TOGLIATTI 47 20037", "Nome impianto": "stazione di servizio eni di lombardi stefano", "Comune": "PADERNO DUGNANO", "idImpianto": 44608, "points": [{"type": "Feature", "properties": {}, "geometry": {"type": "Point", "coordinates": [9.15239831590361, 45.57772291146348]}}], "price": 1.954, "ultima_rilevazione": "31/05/2022 08:49:38"}, {"Gestore": "LEVAGGI ROBERTO", "Bandiera": "Agip Eni", "Tipo impianto": "Altro", "Indirizzo": "Viale Fulvio Testi 25 20099", "Nome impianto": "ENI 2480", "Comune": "SESTO SAN GIOVANNI", "idImpianto": 38484, "points": [{"type": "Feature", "properties": {}, "geometry": {"type": "Point", "coordinates": [9.217412733729589, 45.53491661675064]}}], "price": 1.959, "ultima_rilevazione": "31/05/2022 10:03:00"}, {"Gestore": "F.LLI TIRINATO NICOLA & PIETRO S.N.C.", "Bandiera": "Tamoil", "Tipo impianto": "Altro", "Indirizzo": "VIA SORMANI 38 20095", "Nome impianto": "Tamoil", "Comune": "CUSANO MILANINO", "idImpianto": 15514, "points": [{"type": "Feature", "properties": {}, "geometry": {"type": "Point", "coordinates": [9.186291620135307, 45.55366889427864]}}], "price": 2.039, "ultima_rilevazione": "31/05/2022 11:34:07"}, {"Gestore": "T.D.M. S.R.L.", "Bandiera": "Tamoil", "Tipo impianto": "Altro", "Indirizzo": "Viale Marconi/Ang. Via Manzoni  20095", "Nome impianto": "2517", "Comune": "CUSANO MILANINO", "idImpianto": 27870, "points": [{"type": "Feature", "properties": {}, "geometry": {"type": "Point", "coordinates": [9.17568951845169, 45.54620994598323]}}], "price": 1.909, "ultima_rilevazione": "31/05/2022 11:46:04"}, {"Gestore": "T.D.M. S.R.L.", "Bandiera": "Tamoil", "Tipo impianto": "Altro", "Indirizzo": "SP. 6 MONZA/CARATE SNC 20853", "Nome impianto": "8498", "Comune": "BIASSONO", "idImpianto": 42799, "points": [{"type": "Feature", "properties": {}, "geometry": {"type": "Point", "coordinates": [9.276267804727697, 45.62270253219843]}}], "price": 1.919, "ultima_rilevazione": "31/05/2022 11:52:07"}, {"Gestore": "IP SERVICES S.R.L.", "Bandiera": "Api-Ip", "Tipo impianto": "Altro", "Indirizzo": "VIA LUIGI CADORNA  20032", "Nome impianto": "CORMANO - CADORNA", "Comune": "CORMANO", "idImpianto": 27528, "points": [{"type": "Feature", "properties": {}, "geometry": {"type": "Point", "coordinates": [9.184189271163971, 45.54291596769146]}}], "price": 1.869, "ultima_rilevazione": "31/05/2022 12:01:49"}, {"Gestore": "IP SERVICES S.R.L.", "Bandiera": "Api-Ip", "Tipo impianto": "Altro", "Indirizzo": "VIA MONTERESEGONE 67 20031", "Nome impianto": "CESANO MADERNO-RESEGONE", "Comune": "CESANO MADERNO", "idImpianto": 28719, "points": [{"type": "Feature", "properties": {}, "geometry": {"type": "Point", "coordinates": [9.16732570982174, 45.62525623601152]}}], "price": 1.879, "ultima_rilevazione": "31/05/2022 12:03:20"}, {"Gestore": "IEVA VINCENZO", "Bandiera": "OIL ONE", "Tipo impianto": "Altro", "Indirizzo": "EX S.S. 527 KM 7+885  20814", "Nome impianto": "OIL ONE", "Comune": "VAREDO", "idImpianto": 48993, "points": [{"type": "Feature", "properties": {}, "geometry": {"type": "Point", "coordinates": [9.158191955959492, 45.60393141410619]}}], "price": 1.899, "ultima_rilevazione": "31/05/2022 14:50:54"}, {"Gestore": "SILIATO LUIGI", "Bandiera": "Api-Ip", "Tipo impianto": "Altro", "Indirizzo": "enrico fermi  20900", "Nome impianto": "stazione di servizio IP di Luigi Siliato", "Comune": "MONZA", "idImpianto": 38935, "points": [{"type": "Feature", "properties": {}, "geometry": {"type": "Point", "coordinates": [9.27997313439846, 45.564417700011056]}}], "price": 1.929, "ultima_rilevazione": "31/05/2022 15:40:08"}, {"Gestore": "SERVIZI E GESTIONI ZENIT S.R.L. IN SIGLA - ZENIT S.R.L.", "Bandiera": "Giap", "Tipo impianto": "Altro", "Indirizzo": "VIA DESIO 50 20030", "Nome impianto": "VIA DESIO - BOVISIO MASCIAGO", "Comune": "BOVISIO-MASCIAGO", "idImpianto": 32972, "points": [{"type": "Feature", "properties": {}, "geometry": {"type": "Point", "coordinates": [9.16067808673222, 45.61334190429158]}}], "price": 1.929, "ultima_rilevazione": "31/05/2022 18:14:16"}, {"Gestore": "SERVIZI E GESTIONI ZENIT S.R.L. IN SIGLA - ZENIT S.R.L.", "Bandiera": "Esso", "Tipo impianto": "Altro", "Indirizzo": "VIA CIRCONVALLAZIONE (EX SS 527 BUSTESE)  20814", "Nome impianto": "VIA CIRCONVALLAZIONE VAREDO", "Comune": "VAREDO", "idImpianto": 22380, "points": [{"type": "Feature", "properties": {}, "geometry": {"type": "Point", "coordinates": [9.153016898147598, 45.60391424697533]}}], "price": 1.899, "ultima_rilevazione": "31/05/2022 18:14:17"}, {"Gestore": "SERVIZI E GESTIONI ZENIT S.R.L. IN SIGLA - ZENIT S.R.L.", "Bandiera": "Giap", "Tipo impianto": "Altro", "Indirizzo": "VIA SEVESO ANG. VIA LIBERTA' SNC 20095", "Nome impianto": "VIA SEVESO CUSAN", "Comune": "CUSANO MILANINO", "idImpianto": 12068, "points": [{"type": "Feature", "properties": {}, "geometry": {"type": "Point", "coordinates": [9.174054974204978, 45.5546165379325]}}], "price": 1.919, "ultima_rilevazione": "31/05/2022 18:14:19"}, {"Gestore": "FORTUNA SNC DI MOHAMMAD AFZAL E MIRZA SHAFEEQ SIDDIQUE", "Bandiera": "Api-Ip", "Tipo impianto": "Altro", "Indirizzo": "VIA CORREGGIO ANG VIA LIBERTA'  20900", "Nome impianto": "italiana petroli  IP", "Comune": "MONZA", "idImpianto": 44951, "points": [{"type": "Feature", "properties": {}, "geometry": {"type": "Point", "coordinates": [9.298765000123, 45.589907000123]}}], "price": 1.919, "ultima_rilevazione": "31/05/2022 19:08:12"}, {"Gestore": "MASTROGIOVANNI FABIO", "Bandiera": "Api-Ip", "Tipo impianto": "Altro", "Indirizzo": "VIA TOTI 17 20851", "Nome impianto": "IP", "Comune": "LISSONE", "idImpianto": 15439, "points": [{"type": "Feature", "properties": {}, "geometry": {"type": "Point", "coordinates": [9.244537680470216, 45.6291135635181]}}], "price": 1.929, "ultima_rilevazione": "31/05/2022 20:16:00"}, {"Gestore": "GM S.A.S. DI CALANDRA GIOVANNI & C.", "Bandiera": "Api-Ip", "Tipo impianto": "Strada Statale", "Indirizzo": "527 Bustese, Km. 6+829, Sud-Est 20814", "Nome impianto": "IP", "Comune": "VAREDO", "idImpianto": 48651, "points": [{"type": "Feature", "properties": {}, "geometry": {"type": "Point", "coordinates": [9.16818677389342, 45.59807912912228]}}], "price": 1.899, "ultima_rilevazione": "31/05/2022 21:26:56"}, {"Gestore": "ACEMA S.P.A.", "Bandiera": "OIL ONE", "Tipo impianto": "Altro", "Indirizzo": "Via Saint Denis 1 20092", "Nome impianto": "OILONE CINISELLO BALSAMO", "Comune": "CINISELLO BALSAMO", "idImpianto": 27082, "points": [{"type": "Feature", "properties": {}, "geometry": {"type": "Point", "coordinates": [9.22249250118864, 45.54084405659239]}}], "price": 1.899, "ultima_rilevazione": "01/06/2022 07:02:12"}, {"Gestore": "CASTELLUCCIO SERVICE S.A.S. DI NESCI ERNESTO & C.", "Bandiera": "Agip Eni", "Tipo impianto": "Altro", "Indirizzo": "Via Macalle' 184 20831", "Nome impianto": "Eni Seregno 12261", "Comune": "SEREGNO", "idImpianto": 49133, "points": [{"type": "Feature", "properties": {}, "geometry": {"type": "Point", "coordinates": [9.22021315078735, 45.637368850223645]}}], "price": 1.959, "ultima_rilevazione": "01/06/2022 00:49:22"}, {"Gestore": "SERVIZI & GESTIONI ITALIA S.R.L.", "Bandiera": "Q8", "Tipo impianto": "Altro", "Indirizzo": "VIA BORSA 50 20052", "Nome impianto": "MONZA-VIA BORSA 50", "Comune": "MONZA", "idImpianto": 11646, "points": [{"type": "Feature", "properties": {}, "geometry": {"type": "Point", "coordinates": [9.290283906745913, 45.57946895994504]}}], "price": 1.964, "ultima_rilevazione": "01/06/2022 01:39:34"}, {"Gestore": "SERVIZI & GESTIONI ITALIA srl", "Bandiera": "Q8", "Tipo impianto": "Altro", "Indirizzo": "VIA BUONARROTI -DISTR.Q8 117 20052", "Nome impianto": "MONZA VIA BUONARROTI 117 -DISTR.Q8", "Comune": "MONZA", "idImpianto": 6433, "points": [{"type": "Feature", "properties": {}, "geometry": {"type": "Point", "coordinates": [9.284428306745896, 45.569924786456205]}}], "price": 1.969, "ultima_rilevazione": "01/06/2022 01:39:40"}, {"Gestore": "SERVIZI & GESTIONI ITALIA S.R.L.", "Bandiera": "Q8", "Tipo impianto": "Altro", "Indirizzo": "VIALE F.TESTI 132 20092", "Nome impianto": "CINISELLO BALSAMO-VIALE F.TESTI 132", "Comune": "CINISELLO BALSAMO", "idImpianto": 11681, "points": [{"type": "Feature", "properties": {}, "geometry": {"type": "Point", "coordinates": [9.220952885913904, 45.54087659053977]}}], "price": 1.929, "ultima_rilevazione": "01/06/2022 01:39:50"}, {"Gestore": "SERVIZI & GESTIONI ITALIA srl", "Bandiera": "Q8", "Tipo impianto": "Altro", "Indirizzo": "VIA XX SETTEMBRE SNC 20091", "Nome impianto": "BRESSO VIA XX SETTEMBRE", "Comune": "BRESSO", "idImpianto": 6442, "points": [{"type": "Feature", "properties": {}, "geometry": {"type": "Point", "coordinates": [9.200026722090117, 45.52954012900832]}}], "price": 1.919, "ultima_rilevazione": "01/06/2022 01:39:59"}, {"Gestore": "SERVIZI & GESTIONI ITALIA S.R.L.", "Bandiera": "Q8", "Tipo impianto": "Altro", "Indirizzo": "VIA MILANO 20  20831", "Nome impianto": "SEREGNO VIA MILANO 20", "Comune": "SEREGNO", "idImpianto": 23494, "points": [{"type": "Feature", "properties": {}, "geometry": {"type": "Point", "coordinates": [9.204979240894318, 45.641553376210986]}}], "price": 1.949, "ultima_rilevazione": "01/06/2022 01:40:13"}, {"Gestore": "SERVIZI & GESTIONI ITALIA S.R.L.", "Bandiera": "Q8", "Tipo impianto": "Altro", "Indirizzo": "VIALE GRAMSCI 609 20099", "Nome impianto": "SESTO SAN GIOVANNI - VIALE GRAMSCI 609", "Comune": "SESTO SAN GIOVANNI", "idImpianto": 24145, "points": [{"type": "Feature", "properties": {}, "geometry": {"type": "Point", "coordinates": [9.24427519828646, 45.54835895706711]}}], "price": 1.989, "ultima_rilevazione": "01/06/2022 01:40:24"}, {"Gestore": "SERVIZI & GESTIONI ITALIA S.R.L.", "Bandiera": "Q8", "Tipo impianto": "Altro", "Indirizzo": "SS 36 VALASSINA KM 19+020 S/N 20035", "Nome impianto": "LISSONE-SS 36 VALASSINA KM 19+020", "Comune": "LISSONE", "idImpianto": 11649, "points": [{"type": "Feature", "properties": {}, "geometry": {"type": "Point", "coordinates": [9.224526822090183, 45.63615438760353]}}], "price": 1.969, "ultima_rilevazione": "01/06/2022 07:09:00"}, {"Gestore": "SERVIZI & GESTIONI ITALIA S.R.L.", "Bandiera": "Q8", "Tipo impianto": "Altro", "Indirizzo": "VIA AMATI CEDERNA 94 20052", "Nome impianto": "MONZA-VIA AMATI CEDERNA 94", "Comune": "MONZA", "idImpianto": 11641, "points": [{"type": "Feature", "properties": {}, "geometry": {"type": "Point", "coordinates": [9.297008629465154, 45.581912830381725]}}], "price": 1.974, "ultima_rilevazione": "01/06/2022 07:09:01"}, {"Gestore": "SERVIZI & GESTIONI ITALIA S.R.L.", "Bandiera": "Q8", "Tipo impianto": "Altro", "Indirizzo": "VIA ENRICO FERMI S/N 20052", "Nome impianto": "MONZA-VIA ENRICO FERMI", "Comune": "MONZA", "idImpianto": 11644, "points": [{"type": "Feature", "properties": {}, "geometry": {"type": "Point", "coordinates": [9.28129119510652, 45.565656333778335]}}], "price": 1.989, "ultima_rilevazione": "01/06/2022 07:09:01"}, {"Gestore": "SERVIZI & GESTIONI ITALIA S.R.L.", "Bandiera": "Q8", "Tipo impianto": "Altro", "Indirizzo": "VIA MATTEOTTI S/N 20091", "Nome impianto": "BRESSO-VIA MATTEOTTI", "Comune": "BRESSO", "idImpianto": 11687, "points": [{"type": "Feature", "properties": {}, "geometry": {"type": "Point", "coordinates": [9.198049620866756, 45.53619539306639]}}], "price": 1.949, "ultima_rilevazione": "01/06/2022 07:09:02"}, {"Gestore": "SERVIZI & GESTIONI ITALIA S.R.L.", "Bandiera": "Q8", "Tipo impianto": "Altro", "Indirizzo": "S.PROV. 44  MILANO-MEDA  20032", "Nome impianto": "CORMANO S.PROV. 44  MILANO-MEDA", "Comune": "CORMANO", "idImpianto": 51187, "points": [{"type": "Feature", "properties": {}, "geometry": {"type": "Point", "coordinates": [9.164995610692491, 45.55296297937115]}}], "price": 1.969, "ultima_rilevazione": "01/06/2022 07:09:03"}, {"Gestore": "SERVIZI & GESTIONI ITALIA S.R.L.", "Bandiera": "Q8", "Tipo impianto": "Altro", "Indirizzo": "VIA GRANDI 31 20099", "Nome impianto": "SESTO S.GIOVANNI VIA GRANDI 31", "Comune": "SESTO SAN GIOVANNI", "idImpianto": 36302, "points": [{"type": "Feature", "properties": {}, "geometry": {"type": "Point", "coordinates": [9.252056032419205, 45.53061668234774]}}], "price": 1.939, "ultima_rilevazione": "01/06/2022 07:09:05"}, {"Gestore": "SERVIZI & GESTIONI ITALIA S.R.L.", "Bandiera": "Q8", "Tipo impianto": "Altro", "Indirizzo": "VIA DON ANGHILERI S/N 20037", "Nome impianto": "PADERNO DUGNANO-VIA DON ANGHILERI", "Comune": "PADERNO DUGNANO", "idImpianto": 11705, "points": [{"type": "Feature", "properties": {}, "geometry": {"type": "Point", "coordinates": [9.164721865081788, 45.583733789381526]}}], "price": 1.969, "ultima_rilevazione": "01/06/2022 07:09:10"}, {"Gestore": "SERVIZI & GESTIONI ITALIA srl", "Bandiera": "Q8", "Tipo impianto": "Altro", "Indirizzo": "V MATTEOTTI 104 20099", "Nome impianto": "SESTO SAN GIOVANNI V MATTEOTTI 104", "Comune": "SESTO SAN GIOVANNI", "idImpianto": 6445, "points": [{"type": "Feature", "properties": {}, "geometry": {"type": "Point", "coordinates": [9.22621838836062, 45.53662892477784]}}], "price": 1.979, "ultima_rilevazione": "01/06/2022 07:09:12"}, {"Gestore": "F.LLI TIRINATO NICOLA & PIETRO S.N.C.", "Bandiera": "Tamoil", "Tipo impianto": "Altro", "Indirizzo": "VIA SORMANI 38 20095", "Nome impianto": "Tamoil", "Comune": "CUSANO MILANINO", "idImpianto": 15514, "points": [{"type": "Feature", "properties": {}, "geometry": {"type": "Point", "coordinates": [9.186291620135307, 45.55366889427864]}}], "price": 1.849, "ultima_rilevazione": "31/05/2022 11:34:07"}]}, "Gasolio": {"1": [{"Gestore": "EUROGAS NOVA S.R.L.", "Bandiera": "Pompe Bianche", "Tipo impianto": "Altro", "Indirizzo": "Via G. A. Diaz 31 20834", "Nome impianto": "EUROGAS", "Comune": "NOVA MILANESE", "idImpianto": 49274, "points": [{"type": "Feature", "properties": {}, "geometry": {"type": "Point", "coordinates": [9.200202285811043, 45.59990726284961]}}], "price": 1.539, "ultima_rilevazione": "06/10/2021 00:08:48"}, {"Gestore": "EGI-2GO S.R.L.", "Bandiera": "Esso", "Tipo impianto": "Altro", "Indirizzo": "VIA G. MAZZINI 13 20835", "Nome impianto": "Muggio", "Comune": "MUGGIO'", "idImpianto": 48001, "points": [{"type": "Feature", "properties": {}, "geometry": {"type": "Point", "coordinates": [9.236082046627049, 45.59281963065065]}}], "price": 1.789, "ultima_rilevazione": "25/05/2022 17:09:38"}, {"Gestore": "NOCE SAMUELE", "Bandiera": "Api-Ip", "Tipo impianto": "Altro", "Indirizzo": "VIA VITTORIO VENETO 25 20834", "Nome impianto": "Italiana Petroli", "Comune": "NOVA MILANESE", "idImpianto": 37257, "points": [{"type": "Feature", "properties": {}, "geometry": {"type": "Point", "coordinates": [9.201848411045034, 45.5914146691208]}}], "price": 1.919, "ultima_rilevazione": "26/05/2022 08:19:13"}, {"Gestore": "KEROPETROL S.P.A.", "Bandiera": "KEROPETROL", "Tipo impianto": "Altro", "Indirizzo": "VIA UGO FOSCOLO 2 20834", "Nome impianto": "KEROPETROL SPA NOVA MILANESE", "Comune": "NOVA MILANESE", "idImpianto": 49204, "points": [{"type": "Feature", "properties": {}, "geometry": {"type": "Point", "coordinates": [9.209046421212811, 45.59021508857542]}}], "price": 1.869, "ultima_rilevazione": "26/05/2022 16:59:00"}, {"Gestore": "SUPER CAR WASH DI MIRZA SHAFEEQ SIDDIQUE", "Bandiera": "Api-Ip", "Tipo impianto": "Altro", "Indirizzo": "VIA MASCAGNI 75 20832", "Nome impianto": "ITALIANA PETROLI", "Comune": "DESIO", "idImpianto": 48408, "points": [{"type": "Feature", "properties": {}, "geometry": {"type": "Point", "coordinates": [9.217777163194668, 45.60871324729638]}}], "price": 1.839, "ultima_rilevazione": "27/05/2022 18:59:00"}, {"Gestore": "F.LLI SCURATTI AUTORIPARAZIONI S.N.C. DI DANIELE E STEFANO SCURAT TI", "Bandiera": "KEROPETROL", "Tipo impianto": "Altro", "Indirizzo": "VIA PER CINISELLO 8 20834", "Nome impianto": "F.lli scuratti", "Comune": "NOVA MILANESE", "idImpianto": 25385, "points": [{"type": "Feature", "properties": {}, "geometry": {"type": "Point", "coordinates": [9.204874733839231, 45.58543539394178]}}], "price": 1.849, "ultima_rilevazione": "29/05/2022 22:41:38"}, {"Gestore": "FOLTRAN MARCO", "Bandiera": "Api-Ip", "Tipo impianto": "Altro", "Indirizzo": "Via Combattenti 4 20835", "Nome impianto": "IP", "Comune": "MUGGIO'", "idImpianto": 10320, "points": [{"type": "Feature", "properties": {}, "geometry": {"type": "Point", "coordinates": [9.230070086508247, 45.57588091184567]}}], "price": 1.849, "ultima_rilevazione": "30/05/2022 15:08:09"}, {"Gestore": "LOR GAS DI OLIVARES RODRIGUEZ JUAN CARLOS", "Bandiera": "Api-Ip", "Tipo impianto": "Altro", "Indirizzo": "via ugo foscolo  20900", "Nome impianto": "totalerg", "Comune": "MONZA", "idImpianto": 11211, "points": [{"type": "Feature", "properties": {}, "geometry": {"type": "Point", "coordinates": [9.22737032175064, 45.57082423144908]}}], "price": 1.834, "ultima_rilevazione": "31/05/2022 09:53:11"}, {"Gestore": "IP SERVICES S.R.L.", "Bandiera": "Api-Ip", "Tipo impianto": "Altro", "Indirizzo": "Via Generale Giardino 1 20851", "Nome impianto": "Lissone", "Comune": "LISSONE", "idImpianto": 22981, "points": [{"type": "Feature", "properties": {}, "geometry": {"type": "Point", "coordinates": [9.229980111122131, 45.60220426098312]}}], "price": 1.799, "ultima_rilevazione": "31/05/2022 12:07:53"}, {"Gestore": "SCARFONE COSIMO", "Bandiera": "Agip Eni", "Tipo impianto": "Altro", "Indirizzo": "mazzini  20835", "Nome impianto": "eni", "Comune": "MUGGIO'", "idImpianto": 41512, "points": [{"type": "Feature", "properties": {}, "geometry": {"type": "Point", "coordinates": [9.233100190758703, 45.59301366559917]}}], "price": 1.879, "ultima_rilevazione": "31/05/2022 14:48:06"}, {"Gestore": "MERONI SERVICE CAR S.A.S. DI G. MERONI & C.", "Bandiera": "Esso", "Tipo impianto": "Altro", "Indirizzo": "via carducci 65 20851", "Nome impianto": "ESSO MERONI SERVICE CAR SAS", "Comune": "LISSONE", "idImpianto": 22190, "points": [{"type": "Feature", "properties": {}, "geometry": {"type": "Point", "coordinates": [9.235237428465894, 45.60339971326928]}}], "price": 1.896, "ultima_rilevazione": "31/05/2022 18:58:51"}, {"Gestore": "DICOMI S.R.L.", "Bandiera": "Q8", "Tipo impianto": "Altro", "Indirizzo": "VIA ARMANDO DIAZ 31 20834", "Nome impianto": "Q8", "Comune": "NOVA MILANESE", "idImpianto": 51349, "points": [{"type": "Feature", "properties": {}, "geometry": {"type": "Point", "coordinates": [9.200262000000016, 45.59991908386896]}}], "price": 1.809, "ultima_rilevazione": "01/06/2022 00:08:12"}, {"Gestore": "SERVIZI & GESTIONI ITALIA S.R.L.", "Bandiera": "Q8", "Tipo impianto": "Altro", "Indirizzo": "VIA RISORGIMENTO 120 20092", "Nome impianto": "CINISELLO BALSAMO-VIA RISORGIMENTO 120", "Comune": "CINISELLO BALSAMO", "idImpianto": 11709, "points": [{"type": "Feature", "properties": {}, "geometry": {"type": "Point", "coordinates": [9.211318192625072, 45.5656530402386]}}], "price": 1.939, "ultima_rilevazione": "01/06/2022 07:09:04"}, {"Gestore": "SERVIZI & GESTIONI ITALIA S.R.L.", "Bandiera": "Q8", "Tipo impianto": "Altro", "Indirizzo": "S.P.192 VALASSINA  20851", "Nome impianto": "LISSONE S.P.192 VALASSINA", "Comune": "LISSONE", "idImpianto": 39112, "points": [{"type": "Feature", "properties": {}, "geometry": {"type": "Point", "coordinates": [9.231563955545424, 45.60228936339683]}}], "price": 1.899, "ultima_rilevazione": "01/06/2022 07:09:09"}], "3": [{"Gestore": "ALCA S.N.C. DI TROIANO E LUPOLI", "Bandiera": "Q8", "Tipo impianto": "Altro", "Indirizzo": "VIALE FULVIO TESTI 214 20092", "Nome impianto": "ALCA s.n.c.", "Comune": "CINISELLO BALSAMO", "idImpianto": 31194, "points": [{"type": "Feature", "properties": {}, "geometry": {"type": "Point", "coordinates": [9.233167916536331, 45.54780119027294]}}], "price": 1.599, "ultima_rilevazione": "15/11/2021 08:58:13"}, {"Gestore": "GALIFI DOMENICO", "Bandiera": "Api-Ip", "Tipo impianto": "Altro", "Indirizzo": "Via M.Buonarroti 148 20035", "Nome impianto": "total erg di Galifi ", "Comune": "LISSONE", "idImpianto": 43616, "points": [{"type": "Feature", "properties": {}, "geometry": {"type": "Point", "coordinates": [9.239804046627114, 45.62240218615924]}}], "price": 1.834, "ultima_rilevazione": "28/03/2022 10:16:18"}, {"Gestore": "BR.IT ENERGY SRL", "Bandiera": "Q8", "Tipo impianto": "Altro", "Indirizzo": "VIA VIGANO DE' VIZZI  36 20092", "Nome impianto": "Q8 PV 1061", "Comune": "CINISELLO BALSAMO", "idImpianto": 51243, "points": [{"type": "Feature", "properties": {}, "geometry": {"type": "Point", "coordinates": [9.23158615430675, 45.56033578108916]}}], "price": 1.759, "ultima_rilevazione": "26/04/2022 08:56:11"}, {"Gestore": "PROGETTI E SVILUPPO S.A.S. DI  MARAZZINA PAOLO E C.", "Bandiera": "KEROPETROL", "Tipo impianto": "Altro", "Indirizzo": "VIA MONFALCONE SNC 20092", "Nome impianto": "Keropetrol  Cinisello Balsamo MI", "Comune": "CINISELLO BALSAMO", "idImpianto": 46561, "points": [{"type": "Feature", "properties": {}, "geometry": {"type": "Point", "coordinates": [9.216780691950476, 45.5514147041983]}}], "price": 1.795, "ultima_rilevazione": "23/05/2022 11:45:48"}, {"Gestore": "EGI-2GO S.R.L.", "Bandiera": "Esso", "Tipo impianto": "Altro", "Indirizzo": "VIA A. LOCATELLI 10 20834", "Nome impianto": "Nova Milanese", "Comune": "NOVA MILANESE", "idImpianto": 48753, "points": [{"type": "Feature", "properties": {}, "geometry": {"type": "Point", "coordinates": [9.195352999999995, 45.59261673865961]}}], "price": 1.839, "ultima_rilevazione": "25/05/2022 17:08:35"}, {"Gestore": "CALOGERO LUCA", "Bandiera": "Api-Ip", "Tipo impianto": "Altro", "Indirizzo": "VIA DANTE ALIGHIERI 84 20092", "Nome impianto": "Stazione di servizio IP d", "Comune": "CINISELLO BALSAMO", "idImpianto": 8744, "points": [{"type": "Feature", "properties": {}, "geometry": {"type": "Point", "coordinates": [9.209659200663737, 45.55304702467864]}}], "price": 1.996, "ultima_rilevazione": "27/05/2022 08:35:09"}, {"Gestore": "CALOGERO LUCA", "Bandiera": "Api-Ip", "Tipo impianto": "Altro", "Indirizzo": "VIA TOGLIATTI 43 20092", "Nome impianto": "IP t", "Comune": "CINISELLO BALSAMO", "idImpianto": 46435, "points": [{"type": "Feature", "properties": {}, "geometry": {"type": "Point", "coordinates": [9.200220039963824, 45.55619380216169]}}], "price": 1.779, "ultima_rilevazione": "27/05/2022 08:35:26"}, {"Gestore": "ROSSI ALBERTO", "Bandiera": "Api-Ip", "Tipo impianto": "Altro", "Indirizzo": "VIA SABOTINO 53, 20832", "Nome impianto": "IP Rossi", "Comune": "DESIO", "idImpianto": 20022, "points": [{"type": "Feature", "properties": {}, "geometry": {"type": "Point", "coordinates": [9.194773435592651, 45.60774196976108]}}], "price": 1.839, "ultima_rilevazione": "27/05/2022 15:42:19"}, {"Gestore": "NUOVA SIDAP  S.R.L.", "Bandiera": "Api-Ip", "Tipo impianto": "Autostradale", "Indirizzo": "A52 TANG.LE NORD DI MILANO, Km. 10,9, Est 20092", "Nome impianto": "CINISELLO B. NORD", "Comune": "CINISELLO BALSAMO", "idImpianto": 43748, "points": [{"type": "Feature", "properties": {}, "geometry": {"type": "Point", "coordinates": [9.19825166463852, 45.57018517883253]}}], "price": 1.902, "ultima_rilevazione": "28/05/2022 14:53:03"}, {"Gestore": "Nuova Sidap SRL", "Bandiera": "Api-Ip", "Tipo impianto": "Autostradale", "Indirizzo": "A4 MILANO-BRESCIA, Km. 133+599, Est 20092", "Nome impianto": "LAMBRO SUD", "Comune": "CINISELLO BALSAMO", "idImpianto": 3548, "points": [{"type": "Feature", "properties": {}, "geometry": {"type": "Point", "coordinates": [9.208756966934176, 45.54819602199825]}}], "price": 1.932, "ultima_rilevazione": "29/05/2022 10:00:04"}, {"Gestore": "DALLAVALLE S.A.S. DI BONFANTI MASSIMO & C.", "Bandiera": "Q8", "Tipo impianto": "Altro", "Indirizzo": "VIA ROMAGNA  20900", "Nome impianto": "DALLAVALLE S.A.S. DI BONFANTI MASSIMO & C.", "Comune": "MONZA", "idImpianto": 38696, "points": [{"type": "Feature", "properties": {}, "geometry": {"type": "Point", "coordinates": [9.253979846835136, 45.573366739548135]}}], "price": 1.849, "ultima_rilevazione": "30/05/2022 06:56:23"}, {"Gestore": "S.M.C. SNC DI AGNANI MASSIMO E STEFANO", "Bandiera": "Beyfin", "Tipo impianto": "Strada Statale", "Indirizzo": "Statale 35 dei Giovi, Km. 134, dir. sud", "Nome impianto": "S.M.C. SNC DI AGNANI MASSIMO E STEFANO", "Comune": "PADERNO DUGNANO", "idImpianto": 24113, "points": [{"type": "Feature", "properties": {}, "geometry": {"type": "Point", "coordinates": [9.17557418346405, 45.57421087244983]}}], "price": 1.759, "ultima_rilevazione": "30/05/2022 10:02:34"}, {"Gestore": "KEROPETROL S.P.A.", "Bandiera": "KEROPETROL", "Tipo impianto": "Altro", "Indirizzo": "Viale Fulvio Testi SNC 20092", "Nome impianto": "KEROPETROL SPA CINISELLO BALSAMO", "Comune": "CINISELLO BALSAMO", "idImpianto": 40566, "points": [{"type": "Feature", "properties": {}, "geometry": {"type": "Point", "coordinates": [9.225009977817535, 45.54521808386223]}}], "price": 1.829, "ultima_rilevazione": "30/05/2022 16:52:49"}, {"Gestore": "STELLUTI LIBERO SNC", "Bandiera": "Esso", "Tipo impianto": "Altro", "Indirizzo": "corso milano 32 20900", "Nome impianto": "stazione di servizio esso di stelluti libero snc", "Comune": "MONZA", "idImpianto": 21145, "points": [{"type": "Feature", "properties": {}, "geometry": {"type": "Point", "coordinates": [9.271898106220988, 45.57866365616646]}}], "price": 1.809, "ultima_rilevazione": "31/05/2022 07:03:31"}, {"Gestore": "ESSEBI S.N.C. DI BORACCO LORENZO E SALA ANDREA", "Bandiera": "Esso", "Tipo impianto": "Altro", "Indirizzo": "viale vittorio veneto 19 20900", "Nome impianto": "esso", "Comune": "MONZA", "idImpianto": 37759, "points": [{"type": "Feature", "properties": {}, "geometry": {"type": "Point", "coordinates": [9.253012496958943, 45.57905863394036]}}], "price": 1.809, "ultima_rilevazione": "31/05/2022 07:13:36"}, {"Gestore": "STAZIONE SERVIZIO Q8 DI DI PADOVA FRANCESCO E MATTEO S.N.C.", "Bandiera": "Q8", "Tipo impianto": "Altro", "Indirizzo": "VIA GIUSEPPE GARIBALDI 130 20834", "Nome impianto": "stazione di servizio di padova francesco e matteo", "Comune": "NOVA MILANESE", "idImpianto": 7752, "points": [{"type": "Feature", "properties": {}, "geometry": {"type": "Point", "coordinates": [9.195328474204985, 45.585064792838175]}}], "price": 1.879, "ultima_rilevazione": "31/05/2022 07:25:23"}, {"Gestore": "STAZIONE DI SERVIZIO DI CORVINO CONCETTA", "Bandiera": "Agip Eni", "Tipo impianto": "Altro", "Indirizzo": "VIA MATTEOTTI 160 20851", "Nome impianto": "STAZ. SERV. ENI di Corvino Concetta", "Comune": "LISSONE", "idImpianto": 45886, "points": [{"type": "Feature", "properties": {}, "geometry": {"type": "Point", "coordinates": [9.234296000123, 45.618672000123]}}], "price": 1.879, "ultima_rilevazione": "31/05/2022 07:51:35"}, {"Gestore": "STAZIONE DI SERVIZIO SNC DI DE NARDI ROBERTO & C.", "Bandiera": "Esso", "Tipo impianto": "Altro", "Indirizzo": "Viale fulvio testi 141 20092", "Nome impianto": "Stazione di servizio snc", "Comune": "CINISELLO BALSAMO", "idImpianto": 20204, "points": [{"type": "Feature", "properties": {}, "geometry": {"type": "Point", "coordinates": [9.22626298954924, 45.546465100148346]}}], "price": 1.799, "ultima_rilevazione": "31/05/2022 08:03:08"}, {"Gestore": "ALMAS AUTOLAVAGGIO DI MAZHAR MOHAMMAD AYYAZ", "Bandiera": "Esso", "Tipo impianto": "Altro", "Indirizzo": "VIALE LOMBARDIA 16 20900", "Nome impianto": "ESSO - ALMAS AUTOLAVAGGIO", "Comune": "MONZA", "idImpianto": 51146, "points": [{"type": "Feature", "properties": {}, "geometry": {"type": "Point", "coordinates": [9.252574549598677, 45.58845789608662]}}], "price": 1.849, "ultima_rilevazione": "31/05/2022 08:12:35"}, {"Gestore": "LUCARELLI LEONARDO", "Bandiera": "Agip Eni", "Tipo impianto": "Altro", "Indirizzo": "VIALE CAMPANIA 64, 20900", "Nome impianto": "leonardo lucarelli", "Comune": "MONZA", "idImpianto": 24973, "points": [{"type": "Feature", "properties": {}, "geometry": {"type": "Point", "coordinates": [9.252105412372655, 45.56871310184942]}}], "price": 1.899, "ultima_rilevazione": "31/05/2022 08:22:38"}, {"Gestore": "RUSSO GIORGIO", "Bandiera": "Esso", "Tipo impianto": "Altro", "Indirizzo": "VIA GIUSEPPE GARIBALDI 306 20832", "Nome impianto": "ESSO ", "Comune": "DESIO", "idImpianto": 21100, "points": [{"type": "Feature", "properties": {}, "geometry": {"type": "Point", "coordinates": [9.202510938048365, 45.6069307654106]}}], "price": 1.839, "ultima_rilevazione": "31/05/2022 08:32:47"}, {"Gestore": "AWWAD SALEH IBRAHIM", "Bandiera": "Esso", "Tipo impianto": "Altro", "Indirizzo": "VIA F. CAVALLOTTI 24 20900", "Nome impianto": "ESSO via cavallotti", "Comune": "MONZA", "idImpianto": 48429, "points": [{"type": "Feature", "properties": {}, "geometry": {"type": "Point", "coordinates": [9.266201259507172, 45.581103198922094]}}], "price": 1.809, "ultima_rilevazione": "31/05/2022 08:35:02"}, {"Gestore": "D'ALOIA GIOVANNI", "Bandiera": "Agip Eni", "Tipo impianto": "Altro", "Indirizzo": "VIA DELLA REPUBBLICA 134 20851", "Nome impianto": "ENI 2281", "Comune": "LISSONE", "idImpianto": 15800, "points": [{"type": "Feature", "properties": {}, "geometry": {"type": "Point", "coordinates": [9.25201915204525, 45.603109323245846]}}], "price": 1.879, "ultima_rilevazione": "31/05/2022 08:54:27"}, {"Gestore": "TREMOLADA E FIGLI SAS DI TREMOLADA DARIO & C.", "Bandiera": "Agip Eni", "Tipo impianto": "Strada Statale", "Indirizzo": "36 del Lago di Como e dello Spluga, Km. snc, Milano 20832 ", "Nome impianto": "Tremolada Sas", "Comune": "DESIO", "idImpianto": 50331, "points": [{"type": "Feature", "properties": {}, "geometry": {"type": "Point", "coordinates": [9.223568613082731, 45.61646218811291]}}], "price": 1.879, "ultima_rilevazione": "31/05/2022 09:57:59"}, {"Gestore": "BRAMBILLA S.N.C. DI GABRIELE BRAMBILLA & C.", "Bandiera": "Agip Eni", "Tipo impianto": "Altro", "Indirizzo": "VIALE LOMBARDIA 224 20052", "Nome impianto": "AGIP di BRAMBILLA S.N.C.", "Comune": "MONZA", "idImpianto": 6254, "points": [{"type": "Feature", "properties": {}, "geometry": {"type": "Point", "coordinates": [9.244179725646973, 45.56768653673911]}}], "price": 1.899, "ultima_rilevazione": "31/05/2022 10:56:17"}, {"Gestore": "T.D.M. S.R.L.", "Bandiera": "Tamoil", "Tipo impianto": "Altro", "Indirizzo": "via Como 112 20851", "Nome impianto": "8049", "Comune": "LISSONE", "idImpianto": 32684, "points": [{"type": "Feature", "properties": {}, "geometry": {"type": "Point", "coordinates": [9.233988001942636, 45.61964253800573]}}], "price": 1.859, "ultima_rilevazione": "31/05/2022 11:50:12"}, {"Gestore": "IP SERVICES S.R.L.", "Bandiera": "Api-Ip", "Tipo impianto": "Altro", "Indirizzo": "VIALE FULVIO TESTI  51 20092", "Nome impianto": "CINISELLO BALSAMO - FULVIO TESTI 51", "Comune": "CINISELLO BALSAMO", "idImpianto": 28047, "points": [{"type": "Feature", "properties": {}, "geometry": {"type": "Point", "coordinates": [9.220614752149572, 45.54258215365598]}}], "price": 1.799, "ultima_rilevazione": "31/05/2022 12:04:11"}, {"Gestore": "IP SERVICES S.R.L.", "Bandiera": "Api-Ip", "Tipo impianto": "Altro", "Indirizzo": "VIA  TOGLIATTI 2 20092", "Nome impianto": "CINISELLO BALSAMO - TOGLIATTI", "Comune": "CINISELLO BALSAMO", "idImpianto": 29861, "points": [{"type": "Feature", "properties": {}, "geometry": {"type": "Point", "coordinates": [9.202316093254126, 45.55392629457841]}}], "price": 1.779, "ultima_rilevazione": "31/05/2022 16:03:27"}, {"Gestore": "IP SERVICES S.R.L.", "Bandiera": "Api-Ip", "Tipo impianto": "Altro", "Indirizzo": "VIA CAVALLOTTI 68 20052", "Nome impianto": "MONZA - CAVALLOTTI", "Comune": "MONZA", "idImpianto": 29921, "points": [{"type": "Feature", "properties": {}, "geometry": {"type": "Point", "coordinates": [9.260762449073807, 45.57971877321861]}}], "price": 1.789, "ultima_rilevazione": "31/05/2022 12:05:43"}, {"Gestore": "IP SERVICES S.R.L.", "Bandiera": "Api-Ip", "Tipo impianto": "Autostradale", "Indirizzo": "Autostrada A4 MILANO-BRESCIA, Km. 383, dir. Torino 15077", "Nome impianto": "LAMBRO NORD", "Comune": "CINISELLO BALSAMO", "idImpianto": 36458, "points": [{"type": "Feature", "properties": {}, "geometry": {"type": "Point", "coordinates": [9.207860525131196, 45.54869436492454]}}], "price": 1.938, "ultima_rilevazione": "31/05/2022 12:05:54"}, {"Gestore": "IP SERVICES S.R.L.", "Bandiera": "Api-Ip", "Tipo impianto": "Altro", "Indirizzo": "via CAVALLOTTI 110 20900", "Nome impianto": "Monza Cavallotti", "Comune": "MONZA", "idImpianto": 31387, "points": [{"type": "Feature", "properties": {}, "geometry": {"type": "Point", "coordinates": [9.254766404628754, 45.57817602447157]}}], "price": 1.799, "ultima_rilevazione": "31/05/2022 12:07:17"}, {"Gestore": "IP SERVICES S.R.L.", "Bandiera": "Api-Ip", "Tipo impianto": "Altro", "Indirizzo": "Via Fulvio Testi 196 20092", "Nome impianto": "CINISELLO BALSAMO", "Comune": "CINISELLO BALSAMO", "idImpianto": 5529, "points": [{"type": "Feature", "properties": {}, "geometry": {"type": "Point", "coordinates": [9.229324635581976, 45.54657702743668]}}], "price": 1.779, "ultima_rilevazione": "31/05/2022 12:07:17"}, {"Gestore": "IPERSTAROIL S.R.L.", "Bandiera": "Pompe Bianche", "Tipo impianto": "Altro", "Indirizzo": "viale Brianza 31 20092", "Nome impianto": "iperstaroil CINISELLO", "Comune": "CINISELLO BALSAMO", "idImpianto": 50704, "points": [{"type": "Feature", "properties": {}, "geometry": {"type": "Point", "coordinates": [9.23803592007732, 45.55229444729481]}}], "price": 1.789, "ultima_rilevazione": "31/05/2022 13:58:07"}, {"Gestore": "SCARFONE COSIMO", "Bandiera": "Agip Eni", "Tipo impianto": "Altro", "Indirizzo": "via milano 230 20832", "Nome impianto": "ENI DESIO", "Comune": "DESIO", "idImpianto": 32877, "points": [{"type": "Feature", "properties": {}, "geometry": {"type": "Point", "coordinates": [9.199714064598083, 45.62074583216158]}}], "price": 1.879, "ultima_rilevazione": "31/05/2022 14:43:55"}, {"Gestore": "STAZIONE DI SERVIZIO TAMOIL DI MORAMARCO GIACINTO E C. SNC", "Bandiera": "Tamoil", "Tipo impianto": "Altro", "Indirizzo": "VIA TAGLIABUE 22 20832", "Nome impianto": "STAZIONE DI SERVIZIO TAMOIL di MORAMARCO GIACINTO & C. snc", "Comune": "DESIO", "idImpianto": 14629, "points": [{"type": "Feature", "properties": {}, "geometry": {"type": "Point", "coordinates": [9.216838628053663, 45.619648203491856]}}], "price": 1.829, "ultima_rilevazione": "31/05/2022 15:06:09"}, {"Gestore": "DE NITTIS PASQUALE", "Bandiera": "Tamoil", "Tipo impianto": "Altro", "Indirizzo": "VIALE CAMPANIA 8 20900", "Nome impianto": "STAZIONE DI SERVIZIO TAMOIL", "Comune": "MONZA", "idImpianto": 9990, "points": [{"type": "Feature", "properties": {}, "geometry": {"type": "Point", "coordinates": [9.258126151520514, 45.5659023786019]}}], "price": 1.829, "ultima_rilevazione": "31/05/2022 15:10:12"}, {"Gestore": "GS SPA", "Bandiera": "Q8", "Tipo impianto": "Altro", "Indirizzo": "S.S. 35 dei Giovi  20037", "Nome impianto": "Carrefour Q8 Paderno", "Comune": "PADERNO DUGNANO", "idImpianto": 48742, "points": [{"type": "Feature", "properties": {}, "geometry": {"type": "Point", "coordinates": [9.17677844662704, 45.574291657480615]}}], "price": 1.769, "ultima_rilevazione": "31/05/2022 16:05:54"}, {"Gestore": "FERA MARCO", "Bandiera": "Agip Eni", "Tipo impianto": "Altro", "Indirizzo": "via robecco  27 20092", "Nome impianto": "eni", "Comune": "CINISELLO BALSAMO", "idImpianto": 40748, "points": [{"type": "Feature", "properties": {}, "geometry": {"type": "Point", "coordinates": [9.220705364417997, 45.55809624391139]}}], "price": 1.854, "ultima_rilevazione": "31/05/2022 16:38:58"}, {"Gestore": "ZACCONE FRATELLI S.N.C. DI FABIO E MAURIZIO ZACCONE", "Bandiera": "Tamoil", "Tipo impianto": "Altro", "Indirizzo": "VIALE MARTIRI DELLA LIBERTA' 114 20851", "Nome impianto": "TAMOIL", "Comune": "LISSONE", "idImpianto": 12233, "points": [{"type": "Feature", "properties": {}, "geometry": {"type": "Point", "coordinates": [9.243964514276286, 45.62425321888188]}}], "price": 1.889, "ultima_rilevazione": "01/06/2022 06:42:11"}, {"Gestore": "PROVVIDO SALVATORE", "Bandiera": "Retitalia", "Tipo impianto": "Altro", "Indirizzo": "VIA ABRAMO LINCOLN 7 20092", "Nome impianto": "Retitalia", "Comune": "CINISELLO BALSAMO", "idImpianto": 12462, "points": [{"type": "Feature", "properties": {}, "geometry": {"type": "Point", "coordinates": [9.227097333712209, 45.55886811119226]}}], "price": 1.799, "ultima_rilevazione": "31/05/2022 22:57:20"}, {"Gestore": "COMMERCIALE PAGANONI S.P.A.", "Bandiera": "Pompe Bianche", "Tipo impianto": "Altro", "Indirizzo": "VIA XXV APRILE 245 20092", "Nome impianto": "COMMERCIALE PAGANONI PC18", "Comune": "CINISELLO BALSAMO", "idImpianto": 48139, "points": [{"type": "Feature", "properties": {}, "geometry": {"type": "Point", "coordinates": [9.196240983221193, 45.55346798912397]}}], "price": 1.799, "ultima_rilevazione": "01/06/2022 00:08:11"}, {"Gestore": "ENI FUEL S.P.A.", "Bandiera": "Agip Eni", "Tipo impianto": "Altro", "Indirizzo": "Viale Lombardia 166 20052", "Nome impianto": "PV 2172 Monza V. Lombardia", "Comune": "MONZA", "idImpianto": 38524, "points": [{"type": "Feature", "properties": {}, "geometry": {"type": "Point", "coordinates": [9.24692600852893, 45.5745145949299]}}], "price": 1.859, "ultima_rilevazione": "01/06/2022 00:18:02"}, {"Gestore": "SERVIZI & GESTIONI ITALIA S.R.L.", "Bandiera": "Q8", "Tipo impianto": "Altro", "Indirizzo": "VIA MARTIRI LIBERTA'  / PANZINI 12 20035", "Nome impianto": "LISSONE-VIA MARTIRI LIBERTA' 12 / PANZINI", "Comune": "LISSONE", "idImpianto": 11645, "points": [{"type": "Feature", "properties": {}, "geometry": {"type": "Point", "coordinates": [9.248222974204964, 45.61524052887886]}}], "price": 1.879, "ultima_rilevazione": "01/06/2022 01:39:15"}, {"Gestore": "SERVIZI & GESTIONI ITALIA srl", "Bandiera": "Q8", "Tipo impianto": "Altro", "Indirizzo": "VIA MONTE ORTIGARA 19 20092", "Nome impianto": "CINISELLO BALSAMO VIA MONTE ORTIGARA  19", "Comune": "CINISELLO BALSAMO", "idImpianto": 6434, "points": [{"type": "Feature", "properties": {}, "geometry": {"type": "Point", "coordinates": [9.211831747221368, 45.559275424392986]}}], "price": 1.779, "ultima_rilevazione": "01/06/2022 01:39:43"}, {"Gestore": "SERVIZI & GESTIONI ITALIA S.R.L.", "Bandiera": "Q8", "Tipo impianto": "Altro", "Indirizzo": "VIA U.GIORDANO S/N 20092", "Nome impianto": "CINISELLO BALSAMO-VIA U.GIORDANO", "Comune": "CINISELLO BALSAMO", "idImpianto": 11676, "points": [{"type": "Feature", "properties": {}, "geometry": {"type": "Point", "coordinates": [9.219528746032664, 45.55855024253631]}}], "price": 1.849, "ultima_rilevazione": "01/06/2022 01:39:46"}, {"Gestore": "SERVIZI & GESTIONI ITALIA S.R.L.", "Bandiera": "Q8", "Tipo impianto": "Altro", "Indirizzo": "VIA LINCOLN ANG.VIA ROBECCO S/N 20092", "Nome impianto": "CINISELLO BALSAMO-VIA LINCOLN ANG.VIA ROBECCO", "Comune": "CINISELLO BALSAMO", "idImpianto": 11680, "points": [{"type": "Feature", "properties": {}, "geometry": {"type": "Point", "coordinates": [9.227057084655826, 45.55971971323913]}}], "price": 1.849, "ultima_rilevazione": "01/06/2022 01:39:49"}, {"Gestore": "SERVIZI & GESTIONI ITALIA S.R.L.", "Bandiera": "Q8", "Tipo impianto": "Altro", "Indirizzo": "VIA BETTOLA - ANGOLO VIA CASTALDI 32 20092", "Nome impianto": "CINISELLO BALSAMO-VIA BETTOLA 32 - ANGOLO VIA CASTALDI", "Comune": "CINISELLO BALSAMO", "idImpianto": 11710, "points": [{"type": "Feature", "properties": {}, "geometry": {"type": "Point", "coordinates": [9.243809580802916, 45.556688014194734]}}], "price": 1.849, "ultima_rilevazione": "01/06/2022 01:39:54"}, {"Gestore": "SERVIZI & GESTIONI ITALIA S.R.L.", "Bandiera": "Q8", "Tipo impianto": "Altro", "Indirizzo": "V.LE ROMAGNA 42 20052", "Nome impianto": "MONZA V.LE ROMAGNA 42", "Comune": "MONZA", "idImpianto": 6439, "points": [{"type": "Feature", "properties": {}, "geometry": {"type": "Point", "coordinates": [9.248283505439758, 45.572231571073054]}}], "price": 1.899, "ultima_rilevazione": "01/06/2022 01:39:56"}, {"Gestore": "SERVIZI & GESTIONI ITALIA srl", "Bandiera": "Q8", "Tipo impianto": "Altro", "Indirizzo": "VIA ROBECCO 69 20092", "Nome impianto": "CINISELLO BALSAMO ROBECCO 69", "Comune": "CINISELLO BALSAMO", "idImpianto": 6449, "points": [{"type": "Feature", "properties": {}, "geometry": {"type": "Point", "coordinates": [9.22493409451215, 45.5589375284437]}}], "price": 1.849, "ultima_rilevazione": "01/06/2022 01:40:37"}, {"Gestore": "SERVIZI & GESTIONI ITALIA S.R.L.", "Bandiera": "Q8", "Tipo impianto": "Altro", "Indirizzo": "VIA MILANO 165 20033", "Nome impianto": "DESIO-VIA MILANO 165", "Comune": "DESIO", "idImpianto": 11642, "points": [{"type": "Feature", "properties": {}, "geometry": {"type": "Point", "coordinates": [9.20041492757798, 45.61516903593563]}}], "price": 1.849, "ultima_rilevazione": "01/06/2022 07:08:59"}, {"Gestore": "SERVIZI & GESTIONI ITALIA S.R.L.", "Bandiera": "Q8", "Tipo impianto": "Altro", "Indirizzo": "VIA VALASSINA 144 EST 20033", "Nome impianto": "DESIO-VIA VALASSINA 144 EST", "Comune": "DESIO", "idImpianto": 11643, "points": [{"type": "Feature", "properties": {}, "geometry": {"type": "Point", "coordinates": [9.224793526458711, 45.62338022251562]}}], "price": 1.899, "ultima_rilevazione": "01/06/2022 07:09:00"}, {"Gestore": "SERVIZI & GESTIONI ITALIA S.R.L.", "Bandiera": "Q8", "Tipo impianto": "Altro", "Indirizzo": "VIA BORGAZZI 96 20052", "Nome impianto": "MONZA-VIA BORGAZZI 96", "Comune": "MONZA", "idImpianto": 11651, "points": [{"type": "Feature", "properties": {}, "geometry": {"type": "Point", "coordinates": [9.261414576721222, 45.566349778721616]}}], "price": 1.919, "ultima_rilevazione": "01/06/2022 07:09:02"}, {"Gestore": "SERVIZI & GESTIONI ITALIA S.R.L.", "Bandiera": "Q8", "Tipo impianto": "Altro", "Indirizzo": "FZ.PALAZZOLO SS/SP 35 KM.6+550 OVEST S/N 20037", "Nome impianto": "PADERNO DUGNANO-FZ.PALAZZOLO SS/SP35KM.6+550 OVEST", "Comune": "PADERNO DUGNANO", "idImpianto": 11678, "points": [{"type": "Feature", "properties": {}, "geometry": {"type": "Point", "coordinates": [9.173264373016307, 45.588769325187954]}}], "price": 1.839, "ultima_rilevazione": "01/06/2022 07:09:10"}, {"Gestore": "SERVIZI & GESTIONI ITALIA S.R.L.", "Bandiera": "Q8", "Tipo impianto": "Altro", "Indirizzo": "VIALE CASIRAGHI F.TESTI 493 20099", "Nome impianto": "SESTO SAN GIOVANNI-VIALE CASIRAGHI F.TESTI 493", "Comune": "SESTO SAN GIOVANNI", "idImpianto": 11656, "points": [{"type": "Feature", "properties": {}, "geometry": {"type": "Point", "coordinates": [9.23625172023776, 45.54886994636463]}}], "price": 1.869, "ultima_rilevazione": "01/06/2022 07:09:11"}, {"Gestore": "SERVIZI & GESTIONI ITALIA S.R.L.", "Bandiera": "Q8", "Tipo impianto": "Altro", "Indirizzo": "VIA PELIZZA DA VOLPEDO  20092", "Nome impianto": "CINISELLO BALSAMO VIA PELIZZA DA VOLPEDO", "Comune": "CINISELLO BALSAMO", "idImpianto": 42916, "points": [{"type": "Feature", "properties": {}, "geometry": {"type": "Point", "coordinates": [9.23242891226846, 45.555156760928725]}}], "price": 1.919, "ultima_rilevazione": "01/06/2022 07:09:13"}, {"Gestore": "F.LLI CERUTI S.N.C. DI ANGELO E ATTILIO CERUTI", "Bandiera": "Tamoil", "Tipo impianto": "Altro", "Indirizzo": "STRADA PROVINCIALE 35 MILANO MEDA  20037", "Nome impianto": "TAMOIL", "Comune": "PADERNO DUGNANO", "idImpianto": 16979, "points": [{"type": "Feature", "properties": {}, "geometry": {"type": "Point", "coordinates": [9.17536363005638, 45.583678765520126]}}], "price": 1.799, "ultima_rilevazione": "01/06/2022 07:20:14"}], "5": [{"Gestore": "STRIPPOLI ALFIO", "Bandiera": "Agip Eni", "Tipo impianto": "Altro", "Indirizzo": "VIALE LIBERTA' 88 20900", "Nome impianto": "Strippoli Alfio", "Comune": "MONZA", "idImpianto": 14409, "points": [{"type": "Feature", "properties": {}, "geometry": {"type": "Point", "coordinates": [9.295753240585327, 45.58941435702956]}}], "price": 1.659, "ultima_rilevazione": "04/11/2021 22:15:50"}, {"Gestore": "RHN ENTERPRISE DI AHMED NAVEED", "Bandiera": "Retitalia", "Tipo impianto": "Altro", "Indirizzo": "via monte santo 36 20900", "Nome impianto": "reteitalia", "Comune": "MONZA", "idImpianto": 49483, "points": [{"type": "Feature", "properties": {}, "geometry": {"type": "Point", "coordinates": [9.26951166601285, 45.56208227724076]}}], "price": 1.914, "ultima_rilevazione": "02/05/2022 14:56:58"}, {"Gestore": "NUOVA SIDAP  S.R.L.", "Bandiera": "Esso", "Tipo impianto": "Altro", "Indirizzo": "VIALE DELLE INDUSTRIE 43 20900", "Nome impianto": "Monza 2", "Comune": "MONZA", "idImpianto": 4657, "points": [{"type": "Feature", "properties": {}, "geometry": {"type": "Point", "coordinates": [9.292220771312714, 45.56863365263018]}}], "price": 1.902, "ultima_rilevazione": "20/05/2022 18:18:36"}, {"Gestore": "G.T. CARBURANTI  DI  GIULIANI TOMMASO MARCO", "Bandiera": "Esso", "Tipo impianto": "Altro", "Indirizzo": "VIALE MARELLI 266 20099", "Nome impianto": "ESSO GTcarburanti", "Comune": "SESTO SAN GIOVANNI", "idImpianto": 31812, "points": [{"type": "Feature", "properties": {}, "geometry": {"type": "Point", "coordinates": [9.22847156745911, 45.52596815708628]}}], "price": 1.989, "ultima_rilevazione": "24/05/2022 21:00:49"}, {"Gestore": "F.LLI SARTORATO S.N.C. DI GABRIELE MARCO & C.", "Bandiera": "Agip Eni", "Tipo impianto": "Altro", "Indirizzo": "PIAZZA ITALIA  20091", "Nome impianto": "eni spa", "Comune": "BRESSO", "idImpianto": 13164, "points": [{"type": "Feature", "properties": {}, "geometry": {"type": "Point", "coordinates": [9.19575110077858, 45.53213298472479]}}], "price": 1.839, "ultima_rilevazione": "25/05/2022 10:30:04"}, {"Gestore": "NASSER PETROL SOCIETA' A RESPONSABILITA' LIMITATA SEMPLIFICATA", "Bandiera": "KEROPETROL", "Tipo impianto": "Altro", "Indirizzo": "VIALE Fratello Casiraghi 270 20099", "Nome impianto": "keropetrol", "Comune": "SESTO SAN GIOVANNI", "idImpianto": 50167, "points": [{"type": "Feature", "properties": {}, "geometry": {"type": "Point", "coordinates": [9.23442288458464, 45.54196656139872]}}], "price": 1.779, "ultima_rilevazione": "25/05/2022 19:44:50"}, {"Gestore": "MANDIA ANTONIO", "Bandiera": "Pompe Bianche", "Tipo impianto": "Altro", "Indirizzo": "VIA PER CESANO 44 20832", "Nome impianto": "NUOVA COMA SRL", "Comune": "DESIO", "idImpianto": 14095, "points": [{"type": "Feature", "properties": {}, "geometry": {"type": "Point", "coordinates": [9.195360888360597, 45.62368386848299]}}], "price": 1.799, "ultima_rilevazione": "26/05/2022 06:49:22"}, {"Gestore": "STAZIONE DI SERVIZIO KUWAIT DI MUNARI MAURO", "Bandiera": "Q8", "Tipo impianto": "Altro", "Indirizzo": "via seveso s.n.c. snc 20095", "Nome impianto": "stazione di servizio Q8 di mauro Munari", "Comune": "CUSANO MILANINO", "idImpianto": 50046, "points": [{"type": "Feature", "properties": {}, "geometry": {"type": "Point", "coordinates": [9.172633886337277, 45.555949923215685]}}], "price": 1.849, "ultima_rilevazione": "28/05/2022 08:15:22"}, {"Gestore": "BASELICE FRANCESCO", "Bandiera": "Q8", "Tipo impianto": "Altro", "Indirizzo": "via tiepolo  20900", "Nome impianto": "Q8", "Comune": "MONZA", "idImpianto": 13606, "points": [{"type": "Feature", "properties": {}, "geometry": {"type": "Point", "coordinates": [9.300115182995796, 45.58058447639117]}}], "price": 1.859, "ultima_rilevazione": "28/05/2022 08:26:57"}, {"Gestore": "STAZIONE AGIP DI VETRI PAOLO E C. S.A.S.", "Bandiera": "Agip Eni", "Tipo impianto": "Altro", "Indirizzo": "VIA ANTONIO GRAMSCI 109 20037", "Nome impianto": "staz.agip di vetri paolo ", "Comune": "PADERNO DUGNANO", "idImpianto": 13647, "points": [{"type": "Feature", "properties": {}, "geometry": {"type": "Point", "coordinates": [9.17061626441796, 45.558841461515954]}}], "price": 1.859, "ultima_rilevazione": "28/05/2022 08:30:14"}, {"Gestore": "FERRARI & MARIANI S.N.C. DI FERRARI STEFANO & C.", "Bandiera": "Agip Eni", "Tipo impianto": "Altro", "Indirizzo": "VIALE SICILIA 40 20900", "Nome impianto": "ferrari & mariani snc", "Comune": "MONZA", "idImpianto": 11978, "points": [{"type": "Feature", "properties": {}, "geometry": {"type": "Point", "coordinates": [9.302946925163267, 45.58137197335687]}}], "price": 1.874, "ultima_rilevazione": "30/05/2022 07:47:34"}, {"Gestore": "SOLDINI GIUSEPPE", "Bandiera": "Q8", "Tipo impianto": "Altro", "Indirizzo": "via monte santo  9 20900", "Nome impianto": "stazione di servizio q8", "Comune": "MONZA", "idImpianto": 48949, "points": [{"type": "Feature", "properties": {}, "geometry": {"type": "Point", "coordinates": [9.266720082221722, 45.56293401042127]}}], "price": 1.819, "ultima_rilevazione": "30/05/2022 15:09:22"}, {"Gestore": "NIGRO SNC DI NIGRO ANTONINO E MAURO", "Bandiera": "Agip Eni", "Tipo impianto": "Altro", "Indirizzo": "VIA F. FILZI 9 20032", "Nome impianto": "NIGRO SNC Cormano", "Comune": "CORMANO", "idImpianto": 12665, "points": [{"type": "Feature", "properties": {}, "geometry": {"type": "Point", "coordinates": [9.166926741600037, 45.54489498527752]}}], "price": 1.879, "ultima_rilevazione": "31/05/2022 04:35:56"}, {"Gestore": "NIGRO SNC DI NIGRO ANTONINO E MAURO", "Bandiera": "Agip Eni", "Tipo impianto": "Strada Statale", "Indirizzo": "35 dei Giovi, Km. 132+300, Nord 20037", "Nome impianto": "enimilanomeda", "Comune": "PADERNO DUGNANO", "idImpianto": 50212, "points": [{"type": "Feature", "properties": {}, "geometry": {"type": "Point", "coordinates": [9.173606993586697, 45.559938200567736]}}], "price": 1.839, "ultima_rilevazione": "31/05/2022 04:37:15"}, {"Gestore": "TOREGAS S.A.S. DI PAROZZI RINALDO & C.", "Bandiera": "Api-Ip", "Tipo impianto": "Altro", "Indirizzo": "VIA CARDUCCI SNC 20091", "Nome impianto": "TOREGAS", "Comune": "BRESSO", "idImpianto": 29239, "points": [{"type": "Feature", "properties": {}, "geometry": {"type": "Point", "coordinates": [9.20464069428715, 45.5327732952849]}}], "price": 1.839, "ultima_rilevazione": "31/05/2022 06:23:03"}, {"Gestore": "STAZIONE DI SERVIZIO DI DI BERNARDO IVANO", "Bandiera": "Agip Eni", "Tipo impianto": "Altro", "Indirizzo": "VIA SORMANI 29 20095", "Nome impianto": "Stazione di servizio di Di Bernardo Ivano", "Comune": "CUSANO MILANINO", "idImpianto": 51338, "points": [{"type": "Feature", "properties": {},