{"area_comune": "[{\"type\": \"Feature\", \"properties\": {}, \"geometry\": {\"type\": \"Polygon\", \"coordinates\": [[[11.946408462833885, 45.422634355452146], [11.954129863785152, 45.42288930244562], [11.953668695340532, 45.420425853701104], [11.956262596340045, 45.415515954767365], [11.956912849770935, 45.414751995067036], [11.958090051650075, 45.41428942155579], [11.958990128840966, 45.414149070826184], [11.960015174003862, 45.41419899984528], [11.96113849687948, 45.41441739419877], [11.963738188234714, 45.41525004523934], [11.965278584765505, 45.41611016687825], [11.96857309928675, 45.418490890517646], [11.970893793954591, 45.42063808170492], [11.984588734184882, 45.4168039613363], [11.98835083914583, 45.415436313060425], [11.994723793586555, 45.4151072267478], [12.002817221897615, 45.408422558580575], [11.99967687738953, 45.408244110117096], [11.992391004568242, 45.408210357723824], [11.980020835704934, 45.40845304385481], [11.975998079172124, 45.40343072930392], [11.973020838238725, 45.405107041978226], [11.969882474771815, 45.40617891431683], [11.96318252533214, 45.40561496663777], [11.940131654459336, 45.40453764862076], [11.935310857793807, 45.40687311470438], [11.93393070837174, 45.41559408383444], [11.9341626955524, 45.416785972989054], [11.94534795404657, 45.423134308658256], [11.946408462833885, 45.422634355452146]]]}}]", "comune": "noventa-padovana", "buffer_1": "[{\"type\": \"Feature\", \"properties\": {}, \"geometry\": {\"type\": \"Polygon\", \"coordinates\": [[[11.939238820293493, 45.43007943690036], [11.940320844350218, 45.430542701104535], [11.941462706123675, 45.43092825279547], [11.942653182501262, 45.43123230225731], [11.943880571905536, 45.43145186087322], [11.94513280945012, 45.43158477053719], [11.94639758568975, 45.43162972489187], [11.947662467789566, 45.43158628218236], [11.948915021914278, 45.431454869598944], [11.950142935625623, 45.431236779066275], [11.951334139076426, 45.43093415452034], [11.95247692380193, 45.430549970799994], [11.953560057933313, 45.43008800436181], [11.954572896694573, 45.4295527961082], [11.9555054870917, 45.428949606696754], [11.959587422975611, 45.42603366068279], [11.963540301000887, 45.42799346482593], [11.964630863501828, 45.42847805906833], [11.965785269053013, 45.42888275659995], [11.96699175070637, 45.429203432044076], [11.968238009983315, 45.42943681650319], [11.969511342388735, 45.42958053092176], [11.970798767090416, 45.42963311036643], [11.972087159433501, 45.429594018974974], [11.973363384929637, 45.42946365542027], [11.97461443334528, 45.42924334883406], [11.975827551512518, 45.42893534523218], [11.976990373499342, 45.428542784580884], [12.00891676949114, 45.416325489423706], [12.009988781593226, 45.415865570217356], [12.010991494264212, 45.415333750641466], [12.01191522067747, 45.41473516963976], [12.012751038072821, 45.414075611062955], [12.013490873953852, 45.41336144772351], [12.014127584028722, 45.412599579762734], [12.014655021142957, 45.411797367928614], [12.015068094541299, 45.41096256241169], [12.015362818890642, 45.41010322792867], [12.015536352596303, 45.40922766577989], [12.015587025048445, 45.4083443336347], [12.015514352543263, 45.407461763821345], [12.015319042733415, 45.40658848091051], [12.015002987573276, 45.405732919389294], [12.014569244835648, 45.40490334221972], [12.014022008386439, 45.404107761067635], [12.013366567511742, 45.40335385897071], [12.0126092556965, 45.4026489161905], [12.011757389354495, 45.40199973996222], [12.010819197105112, 45.401412598818105], [12.009803740281992, 45.40089316211575], [12.008720825441724, 45.40044644535263], [12.007580909716395, 45.400076761791986], [12.00639499992121, 45.39978768086472], [12.005174546387336, 45.39958199374639], [12.003931332539617, 45.39946168644], [11.941255672835366, 45.39557713665386], [11.940045716734604, 45.395542417287494], [11.938836532352886, 45.395588602240686], [11.937638991853156, 45.39571527637824], [11.936463862886882, 45.395921300850134], [11.935321711908397, 45.39620482331267], [11.934222809284577, 45.39656329455692], [11.933177037047583, 45.396993491395996], [11.932193800115568, 45.39749154560709], [11.931281941775715, 45.39805297866951], [11.930449664186897, 45.398672741988754], [11.92970445461518, 45.399345262246435], [11.92905301806497, 45.40006449147099], [11.928501216912537, 45.40082396138085], [11.928054018086655, 45.4016168415133], [11.922082689711711, 45.41386459679493], [11.921727612856358, 45.41473224037342], [11.921497820655919, 45.415620583860694], [11.921395634336816, 45.416520676820355], [11.921422089628994, 45.417423450004456], [11.921576926084983, 45.418319806728405], [11.921858589458218, 45.41920071453995], [11.922264247126398, 45.420057296257575], [11.922789816414102, 45.42088091946047], [11.92343000553809, 45.421663283526286], [11.924178366770454, 45.422396503337495], [11.92502736129029, 45.42307318881045], [11.925968435075141, 45.4236865194421], [11.92699210507036, 45.424230313120546], [11.939238820293493, 45.43007943690036]]]}}]", "buffer_3": "[{\"type\": \"Feature\", \"properties\": {}, \"geometry\": {\"type\": \"Polygon\", \"coordinates\": [[[11.924893950816571, 45.44496836351127], [11.9281406164217, 45.44635851642917], [11.931566991033698, 45.44751548126486], [11.935139374356687, 45.44842787670626], [11.938822624220302, 45.44908672719925], [11.942580503517679, 45.449485551565076], [11.946376038123468, 45.449620426983905], [11.950171882201287, 45.44949002770387], [11.953930687231724, 45.449095638088856], [11.957615471052632, 45.44844113987571], [11.961189983203967, 45.44753297377122], [11.962763332295278, 45.44700401320552], [11.962924161806338, 45.44703412775772], [11.966745340860829, 45.447465375686285], [11.970608841516695, 45.44762313279666], [11.974475239886331, 45.4475057907353], [11.978305082793517, 45.44711454828408], [11.982059292064582, 45.44645339901857], [11.985699564895686, 45.445529090331725], [11.989188766127814, 45.44435105425192], [12.021121098652122, 45.43213021266978], [12.024337644811268, 45.430750069822544], [12.027346071111046, 45.429154201210096], [12.030117305980475, 45.42735803948186], [12.032624579029008, 45.42537895234649], [12.034843679716793, 45.423236074112005], [12.036753190905433, 45.42095012017443], [12.038334695045302, 45.41854318627376], [12.039572951034737, 45.416038534481174], [12.04045604008318, 45.41346036800732], [12.040975479221993, 45.410833597026055], [12.041126301429074, 45.40818359779033], [12.040907101663564, 45.40553596737782], [12.040320048440984, 45.402916276440024], [12.039370860914023, 45.40034982234328], [12.038068751756276, 45.397861385080894], [12.036426336472697, 45.39547498830356], [12.034459510078088, 45.393213667761614], [12.032187292390889, 45.391099249376374], [12.02963164348145, 45.38915213906229], [12.02681725108922, 45.387391126305026], [12.02377129207973, 45.38583320336643], [12.020523170248293, 45.384493401836004], [12.017104232990786, 45.383384648081666], [12.013547469551591, 45.38251763897081], [12.0098871937233, 45.3819007390404], [12.006158714011153, 45.38153990009023], [11.943502856029315, 45.37765606950669], [11.939874139674075, 45.37755191530766], [11.936247727770912, 45.37769039792765], [11.932656195884144, 45.37807027455131], [11.929131807892768, 45.37868813385451], [11.925706227332947, 45.37953842648072], [11.92241023401038, 45.38061351465173], [11.919273448380155, 45.38190374047709], [11.916324066128384, 45.38339751236257], [11.913588605306122, 45.38508140875642], [11.911091668262575, 45.38694029831947], [11.908855720501947, 45.388957475457964], [11.906900888446954, 45.3911148100208], [11.90524477793327, 45.393392909835356], [11.903902315083792, 45.395771294639495], [11.897926251182636, 45.40801791048495], [11.896859964135501, 45.41062063982697], [11.896169429725514, 45.41328554812586], [11.895861658150851, 45.41598578899712], [11.895939805339728, 45.41869415624023], [11.89640313894943, 45.42138335790012], [11.897247043530763, 45.42402629134834], [11.89846306489506, 45.426596316608986], [11.900038993322728, 45.429067525165834], [11.901958984854794, 45.43141500152723], [11.904203719515403, 45.4336150748926], [11.90675059492862, 45.43564555836031], [11.909573953421525, 45.43748597323828], [11.912645340351405, 45.43911775616716], [11.924893950816571, 45.44496836351127]]]}}]", "buffer_5": "[{\"type\": \"Feature\", \"properties\": {}, \"geometry\": {\"type\": \"Polygon\", \"coordinates\": [[[11.910541629198582, 45.459855639393254], [11.915953727513356, 45.46217316198357], [11.921665667827051, 45.46410195353456], [11.927621231341465, 45.46562302486287], [11.933761785288667, 45.46672140048979], [11.940026863619206, 45.4673862669776], [11.946354766322814, 45.46761108002266], [11.952683171286937, 45.467393629218584], [11.958949752458752, 45.46673605983554], [11.965092798006799, 45.46564485139859], [11.965937704809928, 45.46543019695304], [11.970419086826894, 45.46561310869917], [11.976865121586455, 45.465417425375534], [11.983250138864088, 45.46476510139663], [11.989508929090453, 45.46366280304826], [11.995577581964548, 45.46212179160232], [12.001394143197427, 45.46015780737429], [12.033332412829466, 45.44793341622022], [12.038694172670153, 45.44563253556324], [12.043708696265465, 45.44297207093125], [12.04832751257396, 45.439977769821695], [12.052506000864321, 45.436678605385914], [12.056203821954226, 45.433106494618684], [12.05938530699695, 45.42929598814892], [12.062019800095156, 45.42528393470204], [12.064081951508129, 45.42110912354497], [12.065551958734257, 45.41681190843001], [12.066415753287355, 45.412433816722974], [12.066665131537782, 45.408017147532725], [12.066297828550299, 45.403604562752186], [12.065317534414415, 45.39923867497511], [12.063733853123457, 45.394961636268484], [12.061562204610278, 45.390814731757516], [12.058823671085339, 45.38683798191978], [12.055544789341862, 45.38306975738792], [12.051757291188984, 45.37954640992871], [12.047497794643217, 45.37630192310054], [12.042807448948077, 45.373367585895096], [12.037731536898216, 45.370771692442496], [12.032319038315862, 45.3685392706066], [12.026622158861356, 45.36669184201947], [12.020695828654635, 45.36524721580464], [12.014597175439336, 45.36421931792056], [12.008384977234419, 45.36361805772047], [11.945748902664835, 45.35973494481417], [11.939702960185171, 45.359561360913844], [11.933660840639746, 45.359792044971186], [11.927676768570993, 45.36042492993577], [11.92180445211447, 45.36145433895519], [11.916096604224892, 45.36287103585911], [11.910604472493898, 45.36466230738867], [11.90537738164651, 45.366812076462125], [11.900462292706983, 45.36930104549634], [11.89590338269696, 45.372106868541586], [11.891741648569907, 45.37520435073266], [11.888014538896488, 45.37856567331792], [11.884755616596111, 45.3821606422995], [11.88199425576175, 45.38595695850532], [11.879755375349124, 45.389920506718326], [11.873774580469664, 45.40216598144551], [11.87199567598998, 45.40650352735896], [11.870842856575045, 45.410944836787536], [11.870327883334266, 45.41544517401875], [11.870456097341323, 45.41995919801834], [11.871226359705446, 45.42444141908789], [11.872631056893654, 45.42884665745228], [11.874656171498005, 45.4331304991485], [11.877281417974578, 45.43724974459586], [11.880480442209135, 45.441162845286804], [11.884221083094669, 45.44483032414171], [11.888465693646841, 45.44821517522365], [11.893171518542209, 45.45128323870796], [11.898291124349415, 45.454003547243424], [11.910541629198582, 45.459855639393254]]]}}]", "centroid": "[{\"type\": \"Feature\", \"properties\": {}, \"geometry\": {\"type\": \"Point\", \"coordinates\": [11.966360686172656, 45.41205077024118]}}]", "Benzina": {"1": [{"Gestore": "R8 S.R.L.", "Bandiera": "Pompe Bianche", "Tipo impianto": "Altro", "Indirizzo": "via dante  81 30030", "Nome impianto": "R8", "Comune": "VIGONOVO", "idImpianto": 38543, "points": [{"type": "Feature", "properties": {}, "geometry": {"type": "Point", "coordinates": [12.001975402235985, 45.40054876814513]}}], "price": 1.788, "ultima_rilevazione": "09/05/2022 09:18:13"}, {"Gestore": "S.I.A. ENGINEERING CONSTRUCTION S.R.L.", "Bandiera": "Sia fuel", "Tipo impianto": "Altro", "Indirizzo": "Via Vigonovese  297 35127", "Nome impianto": "Sia Fuel Padova Camin", "Comune": "PADOVA", "idImpianto": 31599, "points": [{"type": "Feature", "properties": {}, "geometry": {"type": "Point", "coordinates": [11.955500818754558, 45.39959688788432]}}], "price": 1.825, "ultima_rilevazione": "10/05/2022 15:11:18"}, {"Gestore": "COSTANTIN DISTRIBUZIONE E SERVIZI SRL", "Bandiera": "Costantin", "Tipo impianto": "Altro", "Indirizzo": "VIA VENEZIA 32 35100", "Nome impianto": "COSTANTIN VIGONZA", "Comune": "VIGONZA", "idImpianto": 31038, "points": [{"type": "Feature", "properties": {}, "geometry": {"type": "Point", "coordinates": [11.980767846107485, 45.42107567683402]}}], "price": 1.817, "ultima_rilevazione": "12/05/2022 11:08:50"}, {"Gestore": "F.LLI BETTELLA DI BETTELLA MIRCO", "Bandiera": "Q8", "Tipo impianto": "Altro", "Indirizzo": "VIA VIGONOVESE  234 35127", "Nome impianto": "STAZ. DI SERV. Q8 F.LLI BETTELLA", "Comune": "PADOVA", "idImpianto": 13309, "points": [{"type": "Feature", "properties": {}, "geometry": {"type": "Point", "coordinates": [11.955485343933104, 45.39917318687467]}}], "price": 1.845, "ultima_rilevazione": "13/05/2022 07:28:27"}, {"Gestore": "GASOLINERA SOCIETA' A RESPONSABILITA' LIMITATA SEMPLIFICATA", "Bandiera": "Agip Eni", "Tipo impianto": "Altro", "Indirizzo": "VIA VENEZIA 48 35010", "Nome impianto": "eni", "Comune": "VIGONZA", "idImpianto": 43718, "points": [{"type": "Feature", "properties": {}, "geometry": {"type": "Point", "coordinates": [11.985655693865738, 45.41910417738222]}}], "price": 1.859, "ultima_rilevazione": "13/05/2022 17:32:55"}, {"Gestore": "SERVIZI & GESTIONI ITALIA srl", "Bandiera": "Q8", "Tipo impianto": "Altro", "Indirizzo": "STRADA GRANZE - LOC CAMIN 14 35020", "Nome impianto": "PADOVA STRADA GRANZE 14 LOC CAMIN", "Comune": "PADOVA", "idImpianto": 6496, "points": [{"type": "Feature", "properties": {}, "geometry": {"type": "Point", "coordinates": [11.944743406151588, 45.39676353545592]}}], "price": 1.839, "ultima_rilevazione": "14/05/2022 01:39:02"}, {"Gestore": "SERVIZI & GESTIONI ITALIA srl", "Bandiera": "Q8", "Tipo impianto": "Altro", "Indirizzo": "VIA VENEZIA-S.S.11 SNC 35027", "Nome impianto": "NOVENTA PADOVANA VENEZIA-S.S.11", "Comune": "NOVENTA PADOVANA", "idImpianto": 6497, "points": [{"type": "Feature", "properties": {}, "geometry": {"type": "Point", "coordinates": [12.004044619643423, 45.41081620070727]}}], "price": 1.819, "ultima_rilevazione": "14/05/2022 01:39:03"}, {"Gestore": "GESTIONI INNOVATIVE ITALIA S.R.L.", "Bandiera": "Agip Eni", "Tipo impianto": "Altro", "Indirizzo": "via boves 23 35129", "Nome impianto": "13245", "Comune": "PADOVA", "idImpianto": 47421, "points": [{"type": "Feature", "properties": {}, "geometry": {"type": "Point", "coordinates": [11.937731487102514, 45.42806635078733]}}], "price": 1.859, "ultima_rilevazione": "14/05/2022 07:26:04"}, {"Gestore": "GREGHI SAS DI GREGHI MONICA E C.", "Bandiera": "Som/Omv", "Tipo impianto": "Altro", "Indirizzo": "VIA RISORGIMENTO 31 35027", "Nome impianto": "SAN MARCO PETROLI", "Comune": "NOVENTA PADOVANA", "idImpianto": 21991, "points": [{"type": "Feature", "properties": {}, "geometry": {"type": "Point", "coordinates": [11.945172376651726, 45.42123666120712]}}], "price": 1.879, "ultima_rilevazione": "14/05/2022 06:59:42"}, {"Gestore": "FOOD & SERVICE OIL SAS DI BUSINARO LUCA", "Bandiera": "Agip Eni", "Tipo impianto": "Altro", "Indirizzo": "VIA DON GIUSEPPE LAGO 2 35129", "Nome impianto": "ENI", "Comune": "PADOVA", "idImpianto": 49957, "points": [{"type": "Feature", "properties": {}, "geometry": {"type": "Point", "coordinates": [11.941623491512718, 45.42354719894195]}}], "price": 1.854, "ultima_rilevazione": "14/05/2022 11:23:21"}, {"Gestore": "T.D.M. S.R.L.", "Bandiera": "Tamoil", "Tipo impianto": "Altro", "Indirizzo": "VIA VIGONOVESE - FR: CAMIN 120 35127", "Nome impianto": "8067", "Comune": "PADOVA", "idImpianto": 45545, "points": [{"type": "Feature", "properties": {}, "geometry": {"type": "Point", "coordinates": [11.94397389325411, 45.40096888382535]}}], "price": 1.819, "ultima_rilevazione": "14/05/2022 12:08:03"}, {"Gestore": "RISTOSYSTEM S.A.S. DI PAOLO BORDIN", "Bandiera": "Agip Eni", "Tipo impianto": "Altro", "Indirizzo": "via Canaletta 3 35129", "Nome impianto": "eni", "Comune": "PADOVA", "idImpianto": 25706, "points": [{"type": "Feature", "properties": {}, "geometry": {"type": "Point", "coordinates": [11.935764402151108, 45.4169565452905]}}], "price": 1.834, "ultima_rilevazione": "15/05/2022 00:20:08"}], "3": [{"Gestore": "MEDIOLANUM OIL S.R.L.", "Bandiera": "Pompe Bianche", "Tipo impianto": "Altro", "Indirizzo": "VIA RIVIERA DEL BRENTA 13 30032", "Nome impianto": "Vioil", "Comune": "FIESSO D'ARTICO", "idImpianto": 50400, "points": [{"type": "Feature", "properties": {}, "geometry": {"type": "Point", "coordinates": [12.025278964800853, 45.41637819069087]}}], "price": 1.719, "ultima_rilevazione": "02/11/2021 11:36:51"}, {"Gestore": "TRABUIO SEVERINO", "Bandiera": "Agip Eni", "Tipo impianto": "Altro", "Indirizzo": "CORSO SPAGNA 11 35127", "Nome impianto": "impianti agip di trabuio severino", "Comune": "PADOVA", "idImpianto": 16936, "points": [{"type": "Feature", "properties": {}, "geometry": {"type": "Point", "coordinates": [11.929899752140043, 45.38838524427938]}}], "price": 1.639, "ultima_rilevazione": "03/05/2022 18:33:22"}, {"Gestore": "CAPPELLARO DIEGO", "Bandiera": "Agip Eni", "Tipo impianto": "Altro", "Indirizzo": "VIA VENEZIA 66 35129", "Nome impianto": "ENI", "Comune": "PADOVA", "idImpianto": 16272, "points": [{"type": "Feature", "properties": {}, "geometry": {"type": "Point", "coordinates": [11.904559582471848, 45.409330680486974]}}], "price": 1.779, "ultima_rilevazione": "14/05/2022 07:45:59"}, {"Gestore": "EGI-2GO S.R.L.", "Bandiera": "Esso", "Tipo impianto": "Altro", "Indirizzo": "VIA VENEZIA 94 35131", "Nome impianto": "PD - v. Venezia", "Comune": "PADOVA", "idImpianto": 48151, "points": [{"type": "Feature", "properties": {}, "geometry": {"type": "Point", "coordinates": [11.907218224536908, 45.410270409574295]}}], "price": 1.779, "ultima_rilevazione": "06/05/2022 11:49:45"}, {"Gestore": "GRUPPO NORD PETROLI S.R.L.", "Bandiera": "GNP", "Tipo impianto": "Altro", "Indirizzo": "VIA INGHILTERRA 18 35127", "Nome impianto": "GNP PADOVA Z.I.", "Comune": "PADOVA", "idImpianto": 40079, "points": [{"type": "Feature", "properties": {}, "geometry": {"type": "Point", "coordinates": [11.926017925143242, 45.38253210365714]}}], "price": 1.779, "ultima_rilevazione": "13/05/2022 10:57:40"}, {"Gestore": "GABOGAS 2 DI GALVAGNI GUALTIERO & C. S.A.S.", "Bandiera": "Europetrol", "Tipo impianto": "Altro", "Indirizzo": "VIA LUCIANO MANARA 20 35010", "Nome impianto": "Euro Petrol", "Comune": "VIGONZA", "idImpianto": 44906, "points": [{"type": "Feature", "properties": {}, "geometry": {"type": "Point", "coordinates": [11.93772651349184, 45.44031505406932]}}], "price": 1.828, "ultima_rilevazione": "11/05/2022 07:24:27"}, {"Gestore": "AGIP STAZIONE DI RIFORNIMENTO DI ALIBARDI ENRICO", "Bandiera": "San Marco Petroli", "Tipo impianto": "Altro", "Indirizzo": "VIALE DELL' INDUSTRIA 41 35129", "Nome impianto": "ALIBARDI ENRICO", "Comune": "PADOVA", "idImpianto": 30341, "points": [{"type": "Feature", "properties": {}, "geometry": {"type": "Point", "coordinates": [11.921622973352328, 45.41109776016693]}}], "price": 1.869, "ultima_rilevazione": "12/05/2022 08:55:32"}, {"Gestore": "ZANIN RITA", "Bandiera": "Costantin", "Tipo impianto": "Altro", "Indirizzo": "VIA PADOVA 104, 30030  ", "Nome impianto": "Costantin Vigonovo", "Comune": "VIGONOVO", "idImpianto": 25561, "points": [{"type": "Feature", "properties": {}, "geometry": {"type": "Point", "coordinates": [11.986684799194336, 45.39619817082673]}}], "price": 1.807, "ultima_rilevazione": "12/05/2022 10:40:15"}, {"Gestore": "SERVIZI & GESTIONI ITALIA srl", "Bandiera": "Q8", "Tipo impianto": "Altro", "Indirizzo": "VIA JACOPO AVANZO 12 35100", "Nome impianto": "PADOVA VIA JACOPO AVANZO 12", "Comune": "PADOVA", "idImpianto": 6500, "points": [{"type": "Feature", "properties": {}, "geometry": {"type": "Point", "coordinates": [11.89846490541845, 45.41998483304013]}}], "price": 1.819, "ultima_rilevazione": "13/05/2022 01:36:18"}, {"Gestore": "F.M. DI MASIN FRANCO & C. SNC", "Bandiera": "Api-Ip", "Tipo impianto": "Altro", "Indirizzo": "via madonna della salute 67 35129", "Nome impianto": "IP di Masin Franco mortise", "Comune": "PADOVA", "idImpianto": 47811, "points": [{"type": "Feature", "properties": {}, "geometry": {"type": "Point", "coordinates": [11.913689626825752, 45.42706201367146]}}], "price": 1.799, "ultima_rilevazione": "13/05/2022 08:53:01"}, {"Gestore": "SERVIZI & GESTIONI ITALIA S.R.L.", "Bandiera": "Q8", "Tipo impianto": "Altro", "Indirizzo": "VIA VENEZIA  35129", "Nome impianto": "LOC. STANGA/PADOVA VIA VENEZIA", "Comune": "PADOVA", "idImpianto": 20039, "points": [{"type": "Feature", "properties": {}, "geometry": {"type": "Point", "coordinates": [11.903069615364076, 45.40885804297549]}}], "price": 1.829, "ultima_rilevazione": "14/05/2022 01:39:02"}, {"Gestore": "SERVIZI & GESTIONI ITALIA S.R.L.", "Bandiera": "Q8", "Tipo impianto": "Altro", "Indirizzo": "VIA DEI VIVAI 25 ", "Nome impianto": "SAONARA DEI VIVAI 25", "Comune": "SAONARA", "idImpianto": 9622, "points": [{"type": "Feature", "properties": {}, "geometry": {"type": "Point", "coordinates": [11.969382154631036, 45.382454177513104]}}], "price": 1.839, "ultima_rilevazione": "14/05/2022 01:39:03"}, {"Gestore": "SERVIZI & GESTIONI ITALIA S.R.L.", "Bandiera": "Q8", "Tipo impianto": "Altro", "Indirizzo": "VIA ANNA MARIA MOZZONI SNC 35100", "Nome impianto": "PADOVA-VIA MOZZONI", "Comune": "PADOVA", "idImpianto": 24131, "points": [{"type": "Feature", "properties": {}, "geometry": {"type": "Point", "coordinates": [11.921504437923431, 45.4234646692883]}}], "price": 1.829, "ultima_rilevazione": "14/05/2022 01:39:04"}, {"Gestore": "IMPIANTI AGIP DI TRABUIO MELINDA", "Bandiera": "Agip Eni", "Tipo impianto": "Altro", "Indirizzo": "VIA CORSO STATI UNITI 27 35127", "Nome impianto": "Impianti Agip di Trabuio Melinda", "Comune": "PADOVA", "idImpianto": 17017, "points": [{"type": "Feature", "properties": {}, "geometry": {"type": "Point", "coordinates": [11.94775253534317, 45.39092555128513]}}], "price": 1.854, "ultima_rilevazione": "14/05/2022 08:54:34"}, {"Gestore": "BRIXIA FINANZIARIA S.R.L.", "Bandiera": "Agip Eni", "Tipo impianto": "Altro", "Indirizzo": "Via Cavour - 35010", "Nome impianto": "BRIXIA FINANZIARIA SRL - Vigonza (PD)", "Comune": "VIGONZA", "idImpianto": 47848, "points": [{"type": "Feature", "properties": {}, "geometry": {"type": "Point", "coordinates": [11.976694850136068, 45.44033931205113]}}], "price": 1.854, "ultima_rilevazione": "14/05/2022 09:00:31"}, {"Gestore": "T.D.M. S.R.L.", "Bandiera": "Tamoil", "Tipo impianto": "Altro", "Indirizzo": "EX SS. 11 KM. 398+950 SNC 30032", "Nome impianto": "2341", "Comune": "FIESSO D'ARTICO", "idImpianto": 44613, "points": [{"type": "Feature", "properties": {}, "geometry": {"type": "Point", "coordinates": [12.036791128836056, 45.41711443100328]}}], "price": 1.819, "ultima_rilevazione": "14/05/2022 11:54:09"}, {"Gestore": "SAN MARCO PETROLI DISTRIBUZIONE S.R.L.", "Bandiera": "San Marco Petroli", "Tipo impianto": "Altro", "Indirizzo": "VIA URUGUAY 23  ", "Nome impianto": "SMP PADOVA URUGUAY", "Comune": "PADOVA", "idImpianto": 25042, "points": [{"type": "Feature", "properties": {}, "geometry": {"type": "Point", "coordinates": [11.92881566455685, 45.39968644336678]}}], "price": 1.839, "ultima_rilevazione": "14/05/2022 19:06:06"}, {"Gestore": "VEGA CARBURANTI S.P.A.", "Bandiera": "Vega", "Tipo impianto": "Altro", "Indirizzo": "VIA DELL'ELETTRONICA 2 35129", "Nome impianto": "VEGA PD ELETTRONICA", "Comune": "PADOVA", "idImpianto": 31443, "points": [{"type": "Feature", "properties": {}, "geometry": {"type": "Point", "coordinates": [11.91853791475296, 45.40917476704935]}}], "price": 1.829, "ultima_rilevazione": "15/05/2022 00:02:58"}, {"Gestore": "VEGA CARBURANTI S.P.A.", "Bandiera": "Vega", "Tipo impianto": "Altro", "Indirizzo": "VIA DELL'IPPODROMO 14 35129", "Nome impianto": "VEGA PD IPPODROMO", "Comune": "PADOVA", "idImpianto": 31444, "points": [{"type": "Feature", "properties": {}, "geometry": {"type": "Point", "coordinates": [11.926771489410385, 45.424204144142]}}], "price": 1.849, "ultima_rilevazione": "15/05/2022 00:02:58"}, {"Gestore": "VEGA CARBURANTI S.P.A.", "Bandiera": "Vega", "Tipo impianto": "Altro", "Indirizzo": "VIA VIGONOVESE 453 35127", "Nome impianto": "VEGA PD VIGONOVESE", "Comune": "PADOVA", "idImpianto": 31800, "points": [{"type": "Feature", "properties": {}, "geometry": {"type": "Point", "coordinates": [11.969973295927048, 45.39726117882133]}}], "price": 1.849, "ultima_rilevazione": "15/05/2022 00:02:59"}], "5": [{"Gestore": "SERVIZI INNOVATIVI NORD EST S.R.L.", "Bandiera": "Agip Eni", "Tipo impianto": "Altro", "Indirizzo": "VIA RIVIERA DEL BRENTA  312 30032", "Nome impianto": "SE.I.NE 13672", "Comune": "FIESSO D'ARTICO", "idImpianto": 39157, "points": [{"type": "Feature", "properties": {}, "geometry": {"type": "Point", "coordinates": [12.059578496295217, 45.41885470807205]}}], "price": 1.739, "ultima_rilevazione": "17/01/2022 10:54:23"}, {"Gestore": "BASSANELLO TIZIANO", "Bandiera": "Api-Ip", "Tipo impianto": "Altro", "Indirizzo": "VIA PROSDOCIMI ALESSANDRO 1 35128", "Nome impianto": "TOTAL ERG", "Comune": "PADOVA", "idImpianto": 16112, "points": [{"type": "Feature", "properties": {}, "geometry": {"type": "Point", "coordinates": [11.899303123354912, 45.3971681381481]}}], "price": 1.824, "ultima_rilevazione": "09/05/2022 15:21:12"}, {"Gestore": "NOALOIL S.P.A.", "Bandiera": "Noaloil", "Tipo impianto": "Altro", "Indirizzo": "VIA BORSELLINO, ARINO DI DOLO 3 30031", "Nome impianto": "NOALOIL PV2", "Comune": "DOLO", "idImpianto": 4484, "points": [{"type": "Feature", "properties": {}, "geometry": {"type": "Point", "coordinates": [12.047613859176636, 45.43214853006007]}}], "price": 1.819, "ultima_rilevazione": "10/05/2022 17:44:17"}, {"Gestore": "A.F. PETROLI S.P.A.", "Bandiera": "AF Petroli", "Tipo impianto": "Altro", "Indirizzo": "VIA VITTORIO EMANUELE II S.N.C. 35020", "Nome impianto": "A.F. PETROLI", "Comune": "SAONARA", "idImpianto": 12368, "points": [{"type": "Feature", "properties": {}, "geometry": {"type": "Point", "coordinates": [11.98758443435861, 45.3739170422884]}}], "price": 1.819, "ultima_rilevazione": "13/05/2022 19:51:59"}, {"Gestore": "SERVIZI & GESTIONI ITALIA S.R.L.", "Bandiera": "Q8", "Tipo impianto": "Altro", "Indirizzo": "VIA PONTEVIGODARZERE 94 35133", "Nome impianto": "PADOVA VIA PONTEVIGODARZERE, 94", "Comune": "PADOVA", "idImpianto": 19936, "points": [{"type": "Feature", "properties": {}, "geometry": {"type": "Point", "coordinates": [11.893743657672076, 45.44347150241554]}}], "price": 1.799, "ultima_rilevazione": "11/05/2022 07:09:09"}, {"Gestore": "PAVAN DANILO", "Bandiera": "Api-Ip", "Tipo impianto": "Altro", "Indirizzo": "VIA CARDINAL CALLEGARI  35133", "Nome impianto": "STAZ.SERV.IP DI PAVAN DANILO", "Comune": "PADOVA", "idImpianto": 21534, "points": [{"type": "Feature", "properties": {}, "geometry": {"type": "Point", "coordinates": [11.89646601676941, 45.430519231494166]}}], "price": 1.779, "ultima_rilevazione": "11/05/2022 07:25:33"}, {"Gestore": "BOGONI ALFONSO & C. - S.A.S. DI BOGONI CARLO & C.", "Bandiera": "Bogoni", "Tipo impianto": "Altro", "Indirizzo": "VIA ROMA 88 35020", "Nome impianto": "BOGONI ALFONSO & C. - S.A.S. DI BOGONI CARLO & C.", "Comune": "SAONARA", "idImpianto": 43810, "points": [{"type": "Feature", "properties": {}, "geometry": {"type": "Point", "coordinates": [11.985099613666534, 45.36790942716353]}}], "price": 1.815, "ultima_rilevazione": "11/05/2022 19:09:56"}, {"Gestore": "CAPUZZO MORENO", "Bandiera": "Api-Ip", "Tipo impianto": "Altro", "Indirizzo": "VIA PIOVESE 332 35127", "Nome impianto": "TOTALERG di Capuzzo Moreno", "Comune": "PADOVA", "idImpianto": 15737, "points": [{"type": "Feature", "properties": {}, "geometry": {"type": "Point", "coordinates": [11.911370381712914, 45.37424420517317]}}], "price": 1.954, "ultima_rilevazione": "12/05/2022 09:53:16"}, {"Gestore": "TIOZZO ANDREA", "Bandiera": "Agip Eni", "Tipo impianto": "Altro", "Indirizzo": "VIA PAVA 15/1BIS 30030", "Nome impianto": "AREA SERVIZIO CACCO", "Comune": "FOSSO'", "idImpianto": 37311, "points": [{"type": "Feature", "properties": {}, "geometry": {"type": "Point", "coordinates": [12.037996798753738, 45.38364623317119]}}], "price": 1.837, "ultima_rilevazione": "12/05/2022 15:15:39"}, {"Gestore": "P. E G. S.N.C. DI PELUSI MARISTELLA & C.", "Bandiera": "Api-Ip", "Tipo impianto": "Altro", "Indirizzo": "VIA ANNIBALE DA BASSANO 70/B 35135", "Nome impianto": "P. E G. S.N.C. (TotalErg)", "Comune": "PADOVA", "idImpianto": 16151, "points": [{"type": "Feature", "properties": {}, "geometry": {"type": "Point", "coordinates": [11.87311738729477, 45.42465216235085]}}], "price": 1.839, "ultima_rilevazione": "12/05/2022 21:23:45"}, {"Gestore": "SERVIZI & GESTIONI ITALIA S.R.L.", "Bandiera": "Q8", "Tipo impianto": "Altro", "Indirizzo": "VIA BUONARROTI 148 35100", "Nome impianto": "PADOVA VIA BUONARROTI N. 148", "Comune": "PADOVA", "idImpianto": 32486, "points": [{"type": "Feature", "properties": {}, "geometry": {"type": "Point", "coordinates": [11.879627707969348, 45.42817500102028]}}], "price": 1.839, "ultima_rilevazione": "13/05/2022 02:07:37"}, {"Gestore": "MIX S.N.C. DI BUSINARO LUCA & C.", "Bandiera": "Major", "Tipo impianto": "Altro", "Indirizzo": "VIA PIOVESE 260 35126", "Nome impianto": "major", "Comune": "PADOVA", "idImpianto": 13619, "points": [{"type": "Feature", "properties": {}, "geometry": {"type": "Point", "coordinates": [11.90609246492386, 45.37649368239696]}}], "price": 1.809, "ultima_rilevazione": "13/05/2022 12:10:45"}, {"Gestore": "SERVIZI & GESTIONI ITALIA srl", "Bandiera": "Q8", "Tipo impianto": "Altro", "Indirizzo": "VIA DEL PLEBISCITO 1866 SNC 35100", "Nome impianto": "PADOVA DEL PLEBISCITO 1866", "Comune": "PADOVA", "idImpianto": 6499, "points": [{"type": "Feature", "properties": {}, "geometry": {"type": "Point", "coordinates": [11.898106613491793, 45.43162035767453]}}], "price": 1.789, "ultima_rilevazione": "14/05/2022 01:39:03"}, {"Gestore": "FONTANA MAURIZIO", "Bandiera": "Esso", "Tipo impianto": "Altro", "Indirizzo": "Via Pontevigodarzere 109 35133", "Nome impianto": "Stazione di servizio ESSO di Fontana Maurizio", "Comune": "PADOVA", "idImpianto": 34068, "points": [{"type": "Feature", "properties": {}, "geometry": {"type": "Point", "coordinates": [11.89327542842898, 45.44369497231989]}}], "price": 1.799, "ultima_rilevazione": "14/05/2022 06:35:40"}, {"Gestore": "T.D.M. S.R.L.", "Bandiera": "Tamoil", "Tipo impianto": "Altro", "Indirizzo": "VIA A. DA BASSANO 48 35135", "Nome impianto": "8066", "Comune": "PADOVA", "idImpianto": 48281, "points": [{"type": "Feature", "properties": {}, "geometry": {"type": "Point", "coordinates": [11.874765506745923, 45.422116808997686]}}], "price": 1.809, "ultima_rilevazione": "14/05/2022 07:04:04"}, {"Gestore": "SERVIZI & GESTIONI ITALIA S.R.L.", "Bandiera": "Q8", "Tipo impianto": "Altro", "Indirizzo": "NUOVA SR 308 KM. 4+300  35010", "Nome impianto": "CADONEGHE NUOVA SR 308 KM. 4+300", "Comune": "CADONEGHE", "idImpianto": 48843, "points": [{"type": "Feature", "properties": {}, "geometry": {"type": "Point", "coordinates": [11.922992366864769, 45.45405211419074]}}], "price": 1.839, "ultima_rilevazione": "14/05/2022 07:10:45"}, {"Gestore": "GIRARDELLO STEFANO", "Bandiera": "Agip Eni", "Tipo impianto": "Altro", "Indirizzo": "VIA NOALESE SUD 55 30030", "Nome impianto": "Girardello Stefano", "Comune": "PIANIGA", "idImpianto": 15474, "points": [{"type": "Feature", "properties": {}, "geometry": {"type": "Point", "coordinates": [11.993375626983608, 45.457278770231206]}}], "price": 1.859, "ultima_rilevazione": "14/05/2022 07:31:23"}, {"Gestore": "GRIGOLON ANTONIO", "Bandiera": "Agip Eni", "Tipo impianto": "Altro", "Indirizzo": "VIA PLEBISCITO  35133", "Nome impianto": "agip antonio grigolon", "Comune": "PADOVA", "idImpianto": 21272, "points": [{"type": "Feature", "properties": {}, "geometry": {"type": "Point", "coordinates": [11.896578669548036, 45.43522328881738]}}], "price": 1.854, "ultima_rilevazione": "14/05/2022 07:53:35"}, {"Gestore": "IP SERVICES S.R.L.", "Bandiera": "Api-Ip", "Tipo impianto": "Altro", "Indirizzo": "Via del Plebiscito   35011", "Nome impianto": "PADOVA - PLEBISCITO", "Comune": "PADOVA", "idImpianto": 30887, "points": [{"type": "Feature", "properties": {}, "geometry": {"type": "Point", "coordinates": [11.89877137541771, 45.43177000843168]}}], "price": 1.779, "ultima_rilevazione": "14/05/2022 12:01:39"}, {"Gestore": "IP SERVICES S.R.L.", "Bandiera": "Api-Ip", "Tipo impianto": "Altro", "Indirizzo": "via Esperanto OVEST 1 35020", "Nome impianto": "Ponte San Nicol\u00f2", "Comune": "PONTE SAN NICOLO'", "idImpianto": 34391, "points": [{"type": "Feature", "properties": {}, "geometry": {"type": "Point", "coordinates": [11.912743002176285, 45.37860478220491]}}], "price": 1.799, "ultima_rilevazione": "14/05/2022 12:03:19"}, {"Gestore": "IP SERVICES S.R.L.", "Bandiera": "Api-Ip", "Tipo impianto": "Altro", "Indirizzo": "Corso Pertini 10 35020", "Nome impianto": "Ponte San Nicol\u00f2", "Comune": "PONTE SAN NICOLO'", "idImpianto": 20107, "points": [{"type": "Feature", "properties": {}, "geometry": {"type": "Point", "coordinates": [11.946816444396973, 45.36654002393913]}}], "price": 1.779, "ultima_rilevazione": "14/05/2022 12:04:03"}, {"Gestore": "IP SERVICES S.R.L.", "Bandiera": "Api-Ip", "Tipo impianto": "Altro", "Indirizzo": "Via Jacopo Facciolati 52 35126", "Nome impianto": "FACCIOLATI", "Comune": "PADOVA", "idImpianto": 5534, "points": [{"type": "Feature", "properties": {}, "geometry": {"type": "Point", "coordinates": [11.888137644180231, 45.39634323311386]}}], "price": 1.789, "ultima_rilevazione": "14/05/2022 12:05:10"}, {"Gestore": "T.D.M. S.R.L.", "Bandiera": "Tamoil", "Tipo impianto": "Altro", "Indirizzo": "VIA P. SARPI 44 35138", "Nome impianto": "1387", "Comune": "PADOVA", "idImpianto": 42016, "points": [{"type": "Feature", "properties": {}, "geometry": {"type": "Point", "coordinates": [11.872635616602338, 45.41921370898336]}}], "price": 1.829, "ultima_rilevazione": "14/05/2022 12:36:05"}, {"Gestore": "ENI FUEL S.P.A.", "Bandiera": "Agip Eni", "Tipo impianto": "Altro", "Indirizzo": "Ranare  35020", "Nome impianto": "3258 \u2013 Ponte San Nicol\u00f2", "Comune": "PONTE SAN NICOLO'", "idImpianto": 49550, "points": [{"type": "Feature", "properties": {}, "geometry": {"type": "Point", "coordinates": [11.913211940194843, 45.377932365049936]}}], "price": 1.759, "ultima_rilevazione": "14/05/2022 15:10:12"}, {"Gestore": "OIL ITALIA SRL", "Bandiera": "Oil Italia", "Tipo impianto": "Altro", "Indirizzo": "VIA FACCIOLATI 143 35122", "Nome impianto": "OIL ITALIA PADOVA V. Facciolati", "Comune": "PADOVA", "idImpianto": 22186, "points": [{"type": "Feature", "properties": {}, "geometry": {"type": "Point", "coordinates": [11.897079572081566, 45.38634292343277]}}], "price": 1.769, "ultima_rilevazione": "14/05/2022 16:01:07"}, {"Gestore": "GIERRESSE S.N.C. DI RAVAZZOLO STEFANO, RAVAZZOLO GASTONE CON SIGL A GIERRESSE S.N.C.", "Bandiera": "Esso", "Tipo impianto": "Altro", "Indirizzo": "VIA GUIDO RENI 114 35133", "Nome impianto": "ESSO VIA GUIDO RENI", "Comune": "PADOVA", "idImpianto": 40825, "points": [{"type": "Feature", "properties": {}, "geometry": {"type": "Point", "coordinates": [11.89121754358598, 45.43495064943243]}}], "price": 1.819, "ultima_rilevazione": "14/05/2022 16:22:47"}, {"Gestore": "ZENA S.A.S. DI BENVENUTI PAOLO E SPADARO LILIANA", "Bandiera": "Esso", "Tipo impianto": "Altro", "Indirizzo": "via del Plebiscito 1866 999 35100", "Nome impianto": "ZENA", "Comune": "PADOVA", "idImpianto": 40424, "points": [{"type": "Feature", "properties": {}, "geometry": {"type": "Point", "coordinates": [11.8982295691967, 45.4330198165547]}}], "price": 1.819, "ultima_rilevazione": "14/05/2022 19:03:27"}, {"Gestore": "VEGA CARBURANTI S.P.A.", "Bandiera": "Vega", "Tipo impianto": "Altro", "Indirizzo": "VIA RIVIERA DEL BRENTA  256/A 30032", "Nome impianto": "VEGA FIESSO D'ARTICO", "Comune": "FIESSO D'ARTICO", "idImpianto": 31541, "points": [{"type": "Feature", "properties": {}, "geometry": {"type": "Point", "coordinates": [12.04828441143036, 45.4178265601309]}}], "price": 1.839, "ultima_rilevazione": "15/05/2022 00:02:42"}, {"Gestore": "BRAGAGNOLO S.R.L.", "Bandiera": "Vega", "Tipo impianto": "Altro", "Indirizzo": "via Noalese snc", "Nome impianto": "VEGA VIGONZA", "Comune": "VIGONZA", "idImpianto": 25365, "points": [{"type": "Feature", "properties": {}, "geometry": {"type": "Point", "coordinates": [11.988106369972227, 45.44929472222044]}}], "price": 1.849, "ultima_rilevazione": "15/05/2022 00:03:00"}, {"Gestore": "FALK PETROLI SOCIETA' A RESPONSABILITA' LIMITATA", "Bandiera": "Pompe Bianche", "Tipo impianto": "Altro", "Indirizzo": "STRADA DEI VIVAI 48 35020", "Nome impianto": "TAP Saonara", "Comune": "SAONARA", "idImpianto": 47562, "points": [{"type": "Feature", "properties": {}, "geometry": {"type": "Point", "coordinates": [11.98093656770146, 45.37602086288885]}}], "price": 1.839, "ultima_rilevazione": "15/05/2022 00:12:13"}, {"Gestore": "SAN MARCO PETROLI DISTRIBUZIONE S.R.L.", "Bandiera": "San Marco Petroli", "Tipo impianto": "Altro", "Indirizzo": "VIA DEL PLEBISCITO 1866 SNC 35133", "Nome impianto": "SMP PADOVA, Via del Plebiscito", "Comune": "PADOVA", "idImpianto": 5190, "points": [{"type": "Feature", "properties": {}, "geometry": {"type": "Point", "coordinates": [11.89520537853241, 45.43641655734114]}}], "price": 1.789, "ultima_rilevazione": "15/05/2022 00:14:11"}, {"Gestore": "CAPPELLON GIANLUCA", "Bandiera": "Agip Eni", "Tipo impianto": "Altro", "Indirizzo": "VIA GATTAMELATA 24 35128", "Nome impianto": "ENI ", "Comune": "PADOVA", "idImpianto": 27505, "points": [{"type": "Feature", "properties": {}, "geometry": {"type": "Point", "coordinates": [11.888564229011536, 45.400754273665896]}}], "price": 1.839, "ultima_rilevazione": "15/05/2022 00:16:02"}, {"Gestore": "GESTIONI INNOVATIVE ITALIA S.R.L.", "Bandiera": "Agip Eni", "Tipo impianto": "Altro", "Indirizzo": "VIA A. BASSANO 42 35135", "Nome impianto": "PV 52710", "Comune": "PADOVA", "idImpianto": 24927, "points": [{"type": "Feature", "properties": {}, "geometry": {"type": "Point", "coordinates": [11.875043210450713, 45.421799568461495]}}], "price": 1.859, "ultima_rilevazione": "15/05/2022 06:04:04"}, {"Gestore": "GESTIONI INNOVATIVE ITALIA S.R.L.", "Bandiera": "Agip Eni", "Tipo impianto": "Altro", "Indirizzo": "VIA FACCIOLATI 68, 35126", "Nome impianto": "PV 3322", "Comune": "PADOVA", "idImpianto": 24930, "points": [{"type": "Feature", "properties": {}, "geometry": {"type": "Point", "coordinates": [11.889205276966097, 45.39505451276064]}}], "price": 1.859, "ultima_rilevazione": "15/05/2022 06:04:05"}, {"Gestore": "GESTIONI INNOVATIVE ITALIA S.R.L.", "Bandiera": "Agip Eni", "Tipo impianto": "Altro", "Indirizzo": "VIA T. ASPETTI 210, 35133", "Nome impianto": "PV 55320", "Comune": "PADOVA", "idImpianto": 24932, "points": [{"type": "Feature", "properties": {}, "geometry": {"type": "Point", "coordinates": [11.88697099685669, 45.42698001310263]}}], "price": 1.859, "ultima_rilevazione": "15/05/2022 06:06:05"}]}, "Gasolio": {"1": [{"Gestore": "R8 S.R.L.", "Bandiera": "Pompe Bianche", "Tipo impianto": "Altro", "Indirizzo": "via dante  81 30030", "Nome impianto": "R8", "Comune": "VIGONOVO", "idImpianto": 38543, "points": [{"type": "Feature", "properties": {}, "geometry": {"type": "Point", "coordinates": [12.001975402235985, 45.40054876814513]}}], "price": 1.795, "ultima_rilevazione": "09/05/2022 09:18:13"}, {"Gestore": "S.I.A. ENGINEERING CONSTRUCTION S.R.L.", "Bandiera": "Sia fuel", "Tipo impianto": "Altro", "Indirizzo": "Via Vigonovese  297 35127", "Nome impianto": "Sia Fuel Padova Camin", "Comune": "PADOVA", "idImpianto": 31599, "points": [{"type": "Feature", "properties": {}, "geometry": {"type": "Point", "coordinates": [11.955500818754558, 45.39959688788432]}}], "price": 1.835, "ultima_rilevazione": "10/05/2022 15:11:18"}, {"Gestore": "COSTANTIN DISTRIBUZIONE E SERVIZI SRL", "Bandiera": "Costantin", "Tipo impianto": "Altro", "Indirizzo": "VIA VENEZIA 32 35100", "Nome impianto": "COSTANTIN VIGONZA", "Comune": "VIGONZA", "idImpianto": 31038, "points": [{"type": "Feature", "properties": {}, "geometry": {"type": "Point", "coordinates": [11.980767846107485, 45.42107567683402]}}], "price": 1.807, "ultima_rilevazione": "12/05/2022 11:08:50"}, {"Gestore": "F.LLI BETTELLA DI BETTELLA MIRCO", "Bandiera": "Q8", "Tipo impianto": "Altro", "Indirizzo": "VIA VIGONOVESE  234 35127", "Nome impianto": "STAZ. DI SERV. Q8 F.LLI BETTELLA", "Comune": "PADOVA", "idImpianto": 13309, "points": [{"type": "Feature", "properties": {}, "geometry": {"type": "Point", "coordinates": [11.955485343933104, 45.39917318687467]}}], "price": 1.855, "ultima_rilevazione": "13/05/2022 07:28:27"}, {"Gestore": "GASOLINERA SOCIETA' A RESPONSABILITA' LIMITATA SEMPLIFICATA", "Bandiera": "Agip Eni", "Tipo impianto": "Altro", "Indirizzo": "VIA VENEZIA 48 35010", "Nome impianto": "eni", "Comune": "VIGONZA", "idImpianto": 43718, "points": [{"type": "Feature", "properties": {}, "geometry": {"type": "Point", "coordinates": [11.985655693865738, 45.41910417738222]}}], "price": 1.849, "ultima_rilevazione": "13/05/2022 17:32:55"}, {"Gestore": "SERVIZI & GESTIONI ITALIA srl", "Bandiera": "Q8", "Tipo impianto": "Altro", "Indirizzo": "STRADA GRANZE - LOC CAMIN 14 35020", "Nome impianto": "PADOVA STRADA GRANZE 14 LOC CAMIN", "Comune": "PADOVA", "idImpianto": 6496, "points": [{"type": "Feature", "properties": {}, "geometry": {"type": "Point", "coordinates": [11.944743406151588, 45.39676353545592]}}], "price": 1.829, "ultima_rilevazione": "14/05/2022 01:39:02"}, {"Gestore": "SERVIZI & GESTIONI ITALIA srl", "Bandiera": "Q8", "Tipo impianto": "Altro", "Indirizzo": "VIA VENEZIA-S.S.11 SNC 35027", "Nome impianto": "NOVENTA PADOVANA VENEZIA-S.S.11", "Comune": "NOVENTA PADOVANA", "idImpianto": 6497, "points": [{"type": "Feature", "properties": {}, "geometry": {"type": "Point", "coordinates": [12.004044619643423, 45.41081620070727]}}], "price": 1.829, "ultima_rilevazione": "14/05/2022 01:39:03"}, {"Gestore": "GESTIONI INNOVATIVE ITALIA S.R.L.", "Bandiera": "Agip Eni", "Tipo impianto": "Altro", "Indirizzo": "via boves 23 35129", "Nome impianto": "13245", "Comune": "PADOVA", "idImpianto": 47421, "points": [{"type": "Feature", "properties": {}, "geometry": {"type": "Point", "coordinates": [11.937731487102514, 45.42806635078733]}}], "price": 1.829, "ultima_rilevazione": "14/05/2022 07:26:04"}, {"Gestore": "GREGHI SAS DI GREGHI MONICA E C.", "Bandiera": "Som/Omv", "Tipo impianto": "Altro", "Indirizzo": "VIA RISORGIMENTO 31 35027", "Nome impianto": "SAN MARCO PETROLI", "Comune": "NOVENTA PADOVANA", "idImpianto": 21991, "points": [{"type": "Feature", "properties": {}, "geometry": {"type": "Point", "coordinates": [11.945172376651726, 45.42123666120712]}}], "price": 1.829, "ultima_rilevazione": "14/05/2022 06:59:42"}, {"Gestore": "FOOD & SERVICE OIL SAS DI BUSINARO LUCA", "Bandiera": "Agip Eni", "Tipo impianto": "Altro", "Indirizzo": "VIA DON GIUSEPPE LAGO 2 35129", "Nome impianto": "ENI", "Comune": "PADOVA", "idImpianto": 49957, "points": [{"type": "Feature", "properties": {}, "geometry": {"type": "Point", "coordinates": [11.941623491512718, 45.42354719894195]}}], "price": 1.824, "ultima_rilevazione": "14/05/2022 11:23:21"}, {"Gestore": "T.D.M. S.R.L.", "Bandiera": "Tamoil", "Tipo impianto": "Altro", "Indirizzo": "VIA VIGONOVESE - FR: CAMIN 120 35127", "Nome impianto": "8067", "Comune": "PADOVA", "idImpianto": 45545, "points": [{"type": "Feature", "properties": {}, "geometry": {"type": "Point", "coordinates": [11.94397389325411, 45.40096888382535]}}], "price": 1.829, "ultima_rilevazione": "14/05/2022 12:08:03"}, {"Gestore": "RISTOSYSTEM S.A.S. DI PAOLO BORDIN", "Bandiera": "Agip Eni", "Tipo impianto": "Altro", "Indirizzo": "via Canaletta 3 35129", "Nome impianto": "eni", "Comune": "PADOVA", "idImpianto": 25706, "points": [{"type": "Feature", "properties": {}, "geometry": {"type": "Point", "coordinates": [11.935764402151108, 45.4169565452905]}}], "price": 1.804, "ultima_rilevazione": "15/05/2022 00:20:08"}], "3": [{"Gestore": "MEDIOLANUM OIL S.R.L.", "Bandiera": "Pompe Bianche", "Tipo impianto": "Altro", "Indirizzo": "VIA RIVIERA DEL BRENTA 13 30032", "Nome impianto": "Vioil", "Comune": "FIESSO D'ARTICO", "idImpianto": 50400, "points": [{"type": "Feature", "properties": {}, "geometry": {"type": "Point", "coordinates": [12.025278964800853, 45.41637819069087]}}], "price": 1.589, "ultima_rilevazione": "02/11/2021 11:36:51"}, {"Gestore": "TRABUIO SEVERINO", "Bandiera": "Agip Eni", "Tipo impianto": "Altro", "Indirizzo": "CORSO SPAGNA 11 35127", "Nome impianto": "impianti agip di trabuio severino", "Comune": "PADOVA", "idImpianto": 16936, "points": [{"type": "Feature", "properties": {}, "geometry": {"type": "Point", "coordinates": [11.929899752140043, 45.38838524427938]}}], "price": 1.529, "ultima_rilevazione": "03/05/2022 18:33:22"}, {"Gestore": "CAPPELLARO DIEGO", "Bandiera": "Agip Eni", "Tipo impianto": "Altro", "Indirizzo": "VIA VENEZIA 66 35129", "Nome impianto": "ENI", "Comune": "PADOVA", "idImpianto": 16272, "points": [{"type": "Feature", "properties": {}, "geometry": {"type": "Point", "coordinates": [11.904559582471848, 45.409330680486974]}}], "price": 1.729, "ultima_rilevazione": "14/05/2022 07:45:59"}, {"Gestore": "EGI-2GO S.R.L.", "Bandiera": "Esso", "Tipo impianto": "Altro", "Indirizzo": "VIA VENEZIA 94 35131", "Nome impianto": "PD - v. Venezia", "Comune": "PADOVA", "idImpianto": 48151, "points": [{"type": "Feature", "properties": {}, "geometry": {"type": "Point", "coordinates": [11.907218224536908, 45.410270409574295]}}], "price": 1.789, "ultima_rilevazione": "06/05/2022 11:49:45"}, {"Gestore": "GABOGAS 2 DI GALVAGNI GUALTIERO & C. S.A.S.", "Bandiera": "Europetrol", "Tipo impianto": "Altro", "Indirizzo": "VIA LUCIANO MANARA 20 35010", "Nome impianto": "Euro Petrol", "Comune": "VIGONZA", "idImpianto": 44906, "points": [{"type": "Feature", "properties": {}, "geometry": {"type": "Point", "coordinates": [11.93772651349184, 45.44031505406932]}}], "price": 1.788, "ultima_rilevazione": "11/05/2022 07:24:27"}, {"Gestore": "AGIP STAZIONE DI RIFORNIMENTO DI ALIBARDI ENRICO", "Bandiera": "San Marco Petroli", "Tipo impianto": "Altro", "Indirizzo": "VIALE DELL' INDUSTRIA 41 35129", "Nome impianto": "ALIBARDI ENRICO", "Comune": "PADOVA", "idImpianto": 30341, "points": [{"type": "Feature", "properties": {}, "geometry": {"type": "Point", "coordinates": [11.921622973352328, 45.41109776016693]}}], "price": 1.869, "ultima_rilevazione": "12/05/2022 08:55:32"}, {"Gestore": "ZANIN RITA", "Bandiera": "Costantin", "Tipo impianto": "Altro", "Indirizzo": "VIA PADOVA 104, 30030  ", "Nome impianto": "Costantin Vigonovo", "Comune": "VIGONOVO", "idImpianto": 25561, "points": [{"type": "Feature", "properties": {}, "geometry": {"type": "Point", "coordinates": [11.986684799194336, 45.39619817082673]}}], "price": 1.797, "ultima_rilevazione": "12/05/2022 10:40:15"}, {"Gestore": "SERVIZI & GESTIONI ITALIA srl", "Bandiera": "Q8", "Tipo impianto": "Altro", "Indirizzo": "VIA JACOPO AVANZO 12 35100", "Nome impianto": "PADOVA VIA JACOPO AVANZO 12", "Comune": "PADOVA", "idImpianto": 6500, "points": [{"type": "Feature", "properties": {}, "geometry": {"type": "Point", "coordinates": [11.89846490541845, 45.41998483304013]}}], "price": 1.819, "ultima_rilevazione": "13/05/2022 01:36:18"}, {"Gestore": "F.M. DI MASIN FRANCO & C. SNC", "Bandiera": "Api-Ip", "Tipo impianto": "Altro", "Indirizzo": "via madonna della salute 67 35129", "Nome impianto": "IP di Masin Franco mortise", "Comune": "PADOVA", "idImpianto": 47811, "points": [{"type": "Feature", "properties": {}, "geometry": {"type": "Point", "coordinates": [11.913689626825752, 45.42706201367146]}}], "price": 1.819, "ultima_rilevazione": "13/05/2022 08:53:01"}, {"Gestore": "GRUPPO NORD PETROLI S.R.L.", "Bandiera": "GNP", "Tipo impianto": "Altro", "Indirizzo": "VIA INGHILTERRA 18 35127", "Nome impianto": "GNP PADOVA Z.I.", "Comune": "PADOVA", "idImpianto": 40079, "points": [{"type": "Feature", "properties": {}, "geometry": {"type": "Point", "coordinates": [11.926017925143242, 45.38253210365714]}}], "price": 1.799, "ultima_rilevazione": "13/05/2022 10:57:40"}, {"Gestore": "SERVIZI & GESTIONI ITALIA S.R.L.", "Bandiera": "Q8", "Tipo impianto": "Altro", "Indirizzo": "VIA VENEZIA  35129", "Nome impianto": "LOC. STANGA/PADOVA VIA VENEZIA", "Comune": "PADOVA", "idImpianto": 20039, "points": [{"type": "Feature", "properties": {}, "geometry": {"type": "Point", "coordinates": [11.903069615364076, 45.40885804297549]}}], "price": 1.829, "ultima_rilevazione": "14/05/2022 01:39:02"}, {"Gestore": "SERVIZI & GESTIONI ITALIA S.R.L.", "Bandiera": "Q8", "Tipo impianto": "Altro", "Indirizzo": "VIA DEI VIVAI 25 ", "Nome impianto": "SAONARA DEI VIVAI 25", "Comune": "SAONARA", "idImpianto": 9622, "points": [{"type": "Feature", "properties": {}, "geometry": {"type": "Point", "coordinates": [11.969382154631036, 45.382454177513104]}}], "price": 1.849, "ultima_rilevazione": "14/05/2022 01:39:03"}, {"Gestore": "SERVIZI & GESTIONI ITALIA S.R.L.", "Bandiera": "Q8", "Tipo impianto": "Altro", "Indirizzo": "VIA ANNA MARIA MOZZONI SNC 35100", "Nome impianto": "PADOVA-VIA MOZZONI", "Comune": "PADOVA", "idImpianto": 24131, "points": [{"type": "Feature", "properties": {}, "geometry": {"type": "Point", "coordinates": [11.921504437923431, 45.4234646692883]}}], "price": 1.829, "ultima_rilevazione": "14/05/2022 01:39:04"}, {"Gestore": "IMPIANTI AGIP DI TRABUIO MELINDA", "Bandiera": "Agip Eni", "Tipo impianto": "Altro", "Indirizzo": "VIA CORSO STATI UNITI 27 35127", "Nome impianto": "Impianti Agip di Trabuio Melinda", "Comune": "PADOVA", "idImpianto": 17017, "points": [{"type": "Feature", "properties": {}, "geometry": {"type": "Point", "coordinates": [11.94775253534317, 45.39092555128513]}}], "price": 1.824, "ultima_rilevazione": "14/05/2022 08:54:34"}, {"Gestore": "BRIXIA FINANZIARIA S.R.L.", "Bandiera": "Agip Eni", "Tipo impianto": "Altro", "Indirizzo": "Via Cavour - 35010", "Nome impianto": "BRIXIA FINANZIARIA SRL - Vigonza (PD)", "Comune": "VIGONZA", "idImpianto": 47848, "points": [{"type": "Feature", "properties": {}, "geometry": {"type": "Point", "coordinates": [11.976694850136068, 45.44033931205113]}}], "price": 1.844, "ultima_rilevazione": "14/05/2022 09:00:31"}, {"Gestore": "T.D.M. S.R.L.", "Bandiera": "Tamoil", "Tipo impianto": "Altro", "Indirizzo": "EX SS. 11 KM. 398+950 SNC 30032", "Nome impianto": "2341", "Comune": "FIESSO D'ARTICO", "idImpianto": 44613, "points": [{"type": "Feature", "properties": {}, "geometry": {"type": "Point", "coordinates": [12.036791128836056, 45.41711443100328]}}], "price": 1.819, "ultima_rilevazione": "14/05/2022 11:54:09"}, {"Gestore": "SAN MARCO PETROLI DISTRIBUZIONE S.R.L.", "Bandiera": "San Marco Petroli", "Tipo impianto": "Altro", "Indirizzo": "VIA URUGUAY 23  ", "Nome impianto": "SMP PADOVA URUGUAY", "Comune": "PADOVA", "idImpianto": 25042, "points": [{"type": "Feature", "properties": {}, "geometry": {"type": "Point", "coordinates": [11.92881566455685, 45.39968644336678]}}], "price": 1.849, "ultima_rilevazione": "14/05/2022 19:06:06"}, {"Gestore": "VEGA CARBURANTI S.P.A.", "Bandiera": "Vega", "Tipo impianto": "Altro", "Indirizzo": "VIA DELL'ELETTRONICA 2 35129", "Nome impianto": "VEGA PD ELETTRONICA", "Comune": "PADOVA", "idImpianto": 31443, "points": [{"type": "Feature", "properties": {}, "geometry": {"type": "Point", "coordinates": [11.91853791475296, 45.40917476704935]}}], "price": 1.799, "ultima_rilevazione": "15/05/2022 00:02:58"}, {"Gestore": "VEGA CARBURANTI S.P.A.", "Bandiera": "Vega", "Tipo impianto": "Altro", "Indirizzo": "VIA DELL'IPPODROMO 14 35129", "Nome impianto": "VEGA PD IPPODROMO", "Comune": "PADOVA", "idImpianto": 31444, "points": [{"type": "Feature", "properties": {}, "geometry": {"type": "Point", "coordinates": [11.926771489410385, 45.424204144142]}}], "price": 1.819, "ultima_rilevazione": "15/05/2022 00:02:58"}, {"Gestore": "VEGA CARBURANTI S.P.A.", "Bandiera": "Vega", "Tipo impianto": "Altro", "Indirizzo": "VIA VIGONOVESE 453 35127", "Nome impianto": "VEGA PD VIGONOVESE", "Comune": "PADOVA", "idImpianto": 31800, "points": [{"type": "Feature", "properties": {}, "geometry": {"type": "Point", "coordinates": [11.969973295927048, 45.39726117882133]}}], "price": 1.819, "ultima_rilevazione": "15/05/2022 00:02:59"}], "5": [{"Gestore": "SERVIZI INNOVATIVI NORD EST S.R.L.", "Bandiera": "Agip Eni", "Tipo impianto": "Altro", "Indirizzo": "VIA RIVIERA DEL BRENTA  312 30032", "Nome impianto": "SE.I.NE 13672", "Comune": "FIESSO D'ARTICO", "idImpianto": 39157, "points": [{"type": "Feature", "properties": {}, "geometry": {"type": "Point", "coordinates": [12.059578496295217, 45.41885470807205]}}], "price": 1.599, "ultima_rilevazione": "17/01/2022 10:54:23"}, {"Gestore": "BASSANELLO TIZIANO", "Bandiera": "Api-Ip", "Tipo impianto": "Altro", "Indirizzo": "VIA PROSDOCIMI ALESSANDRO 1 35128", "Nome impianto": "TOTAL ERG", "Comune": "PADOVA", "idImpianto": 16112, "points": [{"type": "Feature", "properties": {}, "geometry": {"type": "Point", "coordinates": [11.899303123354912, 45.3971681381481]}}], "price": 1.936, "ultima_rilevazione": "09/05/2022 15:21:12"}, {"Gestore": "NOALOIL S.P.A.", "Bandiera": "Noaloil", "Tipo impianto": "Altro", "Indirizzo": "VIA BORSELLINO, ARINO DI DOLO 3 30031", "Nome impianto": "NOALOIL PV2", "Comune": "DOLO", "idImpianto": 4484, "points": [{"type": "Feature", "properties": {}, "geometry": {"type": "Point", "coordinates": [12.047613859176636, 45.43214853006007]}}], "price": 1.819, "ultima_rilevazione": "10/05/2022 17:44:17"}, {"Gestore": "SERVIZI & GESTIONI ITALIA S.R.L.", "Bandiera": "Q8", "Tipo impianto": "Altro", "Indirizzo": "VIA PONTEVIGODARZERE 94 35133", "Nome impianto": "PADOVA VIA PONTEVIGODARZERE, 94", "Comune": "PADOVA", "idImpianto": 19936, "points": [{"type": "Feature", "properties": {}, "geometry": {"type": "Point", "coordinates": [11.893743657672076, 45.44347150241554]}}], "price": 1.839, "ultima_rilevazione": "11/05/2022 07:09:09"}, {"Gestore": "PAVAN DANILO", "Bandiera": "Api-Ip", "Tipo impianto": "Altro", "Indirizzo": "VIA CARDINAL CALLEGARI  35133", "Nome impianto": "STAZ.SERV.IP DI PAVAN DANILO", "Comune": "PADOVA", "idImpianto": 21534, "points": [{"type": "Feature", "properties": {}, "geometry": {"type": "Point", "coordinates": [11.89646601676941, 45.430519231494166]}}], "price": 1.779, "ultima_rilevazione": "11/05/2022 07:25:33"}, {"Gestore": "BOGONI ALFONSO & C. - S.A.S. DI BOGONI CARLO & C.", "Bandiera": "Bogoni", "Tipo impianto": "Altro", "Indirizzo": "VIA ROMA 88 35020", "Nome impianto": "BOGONI ALFONSO & C. - S.A.S. DI BOGONI CARLO & C.", "Comune": "SAONARA", "idImpianto": 43810, "points": [{"type": "Feature", "properties": {}, "geometry": {"type": "Point", "coordinates": [11.985099613666534, 45.36790942716353]}}], "price": 1.825, "ultima_rilevazione": "11/05/2022 19:09:56"}, {"Gestore": "CAPUZZO MORENO", "Bandiera": "Api-Ip", "Tipo impianto": "Altro", "Indirizzo": "VIA PIOVESE 332 35127", "Nome impianto": "TOTALERG di Capuzzo Moreno", "Comune": "PADOVA", "idImpianto": 15737, "points": [{"type": "Feature", "properties": {}, "geometry": {"type": "Point", "coordinates": [11.911370381712914, 45.37424420517317]}}], "price": 1.936, "ultima_rilevazione": "12/05/2022 09:53:16"}, {"Gestore": "TIOZZO ANDREA", "Bandiera": "Agip Eni", "Tipo impianto": "Altro", "Indirizzo": "VIA PAVA 15/1BIS 30030", "Nome impianto": "AREA SERVIZIO CACCO", "Comune": "FOSSO'", "idImpianto": 37311, "points": [{"type": "Feature", "properties": {}, "geometry": {"type": "Point", "coordinates": [12.037996798753738, 45.38364623317119]}}], "price": 1.827, "ultima_rilevazione": "12/05/2022 15:15:39"}, {"Gestore": "P. E G. S.N.C. DI PELUSI MARISTELLA & C.", "Bandiera": "Api-Ip", "Tipo impianto": "Altro", "Indirizzo": "VIA ANNIBALE DA BASSANO 70/B 35135", "Nome impianto": "P. E G. S.N.C. (TotalErg)", "Comune": "PADOVA", "idImpianto": 16151, "points": [{"type": "Feature", "properties": {}, "geometry": {"type": "Point", "coordinates": [11.87311738729477, 45.42465216235085]}}], "price": 1.819, "ultima_rilevazione": "12/05/2022 21:23:45"}, {"Gestore": "SERVIZI & GESTIONI ITALIA S.R.L.", "Bandiera": "Q8", "Tipo impianto": "Altro", "Indirizzo": "VIA BUONARROTI 148 35100", "Nome impianto": "PADOVA VIA BUONARROTI N. 148", "Comune": "PADOVA", "idImpianto": 32486, "points": [{"type": "Feature", "properties": {}, "geometry": {"type": "Point", "coordinates": [11.879627707969348, 45.42817500102028]}}], "price": 1.849, "ultima_rilevazione": "13/05/2022 02:07:37"}, {"Gestore": "MIX S.N.C. DI BUSINARO LUCA & C.", "Bandiera": "Major", "Tipo impianto": "Altro", "Indirizzo": "VIA PIOVESE 260 35126", "Nome impianto": "major", "Comune": "PADOVA", "idImpianto": 13619, "points": [{"type": "Feature", "properties": {}, "geometry": {"type": "Point", "coordinates": [11.90609246492386, 45.37649368239696]}}], "price": 1.829, "ultima_rilevazione": "13/05/2022 12:10:45"}, {"Gestore": "A.F. PETROLI S.P.A.", "Bandiera": "AF Petroli", "Tipo impianto": "Altro", "Indirizzo": "VIA VITTORIO EMANUELE II S.N.C. 35020", "Nome impianto": "A.F. PETROLI", "Comune": "SAONARA", "idImpianto": 12368, "points": [{"type": "Feature", "properties": {}, "geometry": {"type": "Point", "coordinates": [11.98758443435861, 45.3739170422884]}}], "price": 1.819, "ultima_rilevazione": "13/05/2022 19:51:59"}, {"Gestore": "SERVIZI & GESTIONI ITALIA srl", "Bandiera": "Q8", "Tipo impianto": "Altro", "Indirizzo": "VIA DEL PLEBISCITO 1866 SNC 35100", "Nome impianto": "PADOVA DEL PLEBISCITO 1866", "Comune": "PADOVA", "idImpianto": 6499, "points": [{"type": "Feature", "properties": {}, "geometry": {"type": "Point", "coordinates": [11.898106613491793, 45.43162035767453]}}], "price": 1.799, "ultima_rilevazione": "14/05/2022 01:39:03"}, {"Gestore": "FONTANA MAURIZIO", "Bandiera": "Esso", "Tipo impianto": "Altro", "Indirizzo": "Via Pontevigodarzere 109 35133", "Nome impianto": "Stazione di servizio ESSO di Fontana Maurizio", "Comune": "PADOVA", "idImpianto": 34068, "points": [{"type": "Feature", "properties": {}, "geometry": {"type": "Point", "coordinates": [11.89327542842898, 45.44369497231989]}}], "price": 1.789, "ultima_rilevazione": "14/05/2022 06:35:40"}, {"Gestore": "T.D.M. S.R.L.", "Bandiera": "Tamoil", "Tipo impianto": "Altro", "Indirizzo": "VIA A. DA BASSANO 48 35135", "Nome impianto": "8066", "Comune": "PADOVA", "idImpianto": 48281, "points": [{"type": "Feature", "properties": {}, "geometry": {"type": "Point", "coordinates": [11.874765506745923, 45.422116808997686]}}], "price": 1.799, "ultima_rilevazione": "14/05/2022 07:04:04"}, {"Gestore": "SERVIZI & GESTIONI ITALIA S.R.L.", "Bandiera": "Q8", "Tipo impianto": "Altro", "Indirizzo": "NUOVA SR 308 KM. 4+300  35010", "Nome impianto": "CADONEGHE NUOVA SR 308 KM. 4+300", "Comune": "CADONEGHE", "idImpianto": 48843, "points": [{"type": "Feature", "properties": {}, "geometry": {"type": "Point", "coordinates": [11.922992366864769, 45.45405211419074]}}], "price": 1.849, "ultima_rilevazione": "14/05/2022 07:10:45"}, {"Gestore": "GIRARDELLO STEFANO", "Bandiera": "Agip Eni", "Tipo impianto": "Altro", "Indirizzo": "VIA NOALESE SUD 55 30030", "Nome impianto": "Girardello Stefano", "Comune": "PIANIGA", "idImpianto": 15474, "points": [{"type": "Feature", "properties": {}, "geometry": {"type": "Point", "coordinates": [11.993375626983608, 45.457278770231206]}}], "price": 1.849, "ultima_rilevazione": "14/05/2022 07:31:23"}, {"Gestore": "GRIGOLON ANTONIO", "Bandiera": "Agip Eni", "Tipo impianto": "Altro", "Indirizzo": "VIA PLEBISCITO  35133", "Nome impianto": "agip antonio grigolon", "Comune": "PADOVA", "idImpianto": 21272, "points": [{"type": "Feature", "properties": {}, "geometry": {"type": "Point", "coordinates": [11.896578669548036, 45.43522328881738]}}], "price": 1.824, "ultima_rilevazione": "14/05/2022 07:53:35"}, {"Gestore": "IP SERVICES S.R.L.", "Bandiera": "Api-Ip", "Tipo impianto": "Altro", "Indirizzo": "Via del Plebiscito   35011", "Nome impianto": "PADOVA - PLEBISCITO", "Comune": "PADOVA", "idImpianto": 30887, "points": [{"type": "Feature", "properties": {}, "geometry": {"type": "Point", "coordinates": [11.89877137541771, 45.43177000843168]}}], "price": 1.799, "ultima_rilevazione": "14/05/2022 12:01:39"}, {"Gestore": "IP SERVICES S.R.L.", "Bandiera": "Api-Ip", "Tipo impianto": "Altro", "Indirizzo": "via Esperanto OVEST 1 35020", "Nome impianto": "Ponte San Nicol\u00f2", "Comune": "PONTE SAN NICOLO'", "idImpianto": 34391, "points": [{"type": "Feature", "properties": {}, "geometry": {"type": "Point", "coordinates": [11.912743002176285, 45.37860478220491]}}], "price": 1.829, "ultima_rilevazione": "14/05/2022 12:03:19"}, {"Gestore": "IP SERVICES S.R.L.", "Bandiera": "Api-Ip", "Tipo impianto": "Altro", "Indirizzo": "Corso Pertini 10 35020", "Nome impianto": "Ponte San Nicol\u00f2", "Comune": "PONTE SAN NICOLO'", "idImpianto": 20107, "points": [{"type": "Feature", "properties": {}, "geometry": {"type": "Point", "coordinates": [11.946816444396973, 45.36654002393913]}}], "price": 1.799, "ultima_rilevazione": "14/05/2022 12:04:03"}, {"Gestore": "IP SERVICES S.R.L.", "Bandiera": "Api-Ip", "Tipo impianto": "Altro", "Indirizzo": "Via Jacopo Facciolati 52 35126", "Nome impianto": "FACCIOLATI", "Comune": "PADOVA", "idImpianto": 5534, "points": [{"type": "Feature", "properties": {}, "geometry": {"type": "Point", "coordinates": [11.888137644180231, 45.39634323311386]}}], "price": 1.829, "ultima_rilevazione": "14/05/2022 12:05:10"}, {"Gestore": "T.D.M. S.R.L.", "Bandiera": "Tamoil", "Tipo impianto": "Altro", "Indirizzo": "VIA P. SARPI 44 35138", "Nome impianto": "1387", "Comune": "PADOVA", "idImpianto": 42016, "points": [{"type": "Feature", "properties": {}, "geometry": {"type": "Point", "coordinates": [11.872635616602338, 45.41921370898336]}}], "price": 1.799, "ultima_rilevazione": "14/05/2022 12:36:05"}, {"Gestore": "ENI FUEL S.P.A.", "Bandiera": "Agip Eni", "Tipo impianto": "Altro", "Indirizzo": "Ranare  35020", "Nome impianto": "3258 \u2013 Ponte San Nicol\u00f2", "Comune": "PONTE SAN NICOLO'", "idImpianto": 49550, "points": [{"type": "Feature", "properties": {}, "geometry": {"type": "Point", "coordinates": [11.913211940194843, 45.377932365049936]}}], "price": 1.619, "ultima_rilevazione": "14/05/2022 15:10:12"}, {"Gestore": "OIL ITALIA SRL", "Bandiera": "Oil Italia", "Tipo impianto": "Altro", "Indirizzo": "VIA FACCIOLATI 143 35122", "Nome impianto": "OIL ITALIA PADOVA V. Facciolati", "Comune": "PADOVA", "idImpianto": 22186, "points": [{"type": "Feature", "properties": {}, "geometry": {"type": "Point", "coordinates": [11.897079572081566, 45.38634292343277]}}], "price": 1.839, "ultima_rilevazione": "14/05/2022 16:01:07"}, {"Gestore": "GIERRESSE S.N.C. DI RAVAZZOLO STEFANO, RAVAZZOLO GASTONE CON SIGL A GIERRESSE S.N.C.", "Bandiera": "Esso", "Tipo impianto": "Altro", "Indirizzo": "VIA GUIDO RENI 114 35133", "Nome impianto": "ESSO VIA GUIDO RENI", "Comune": "PADOVA", "idImpianto": 40825, "points": [{"type": "Feature", "properties": {}, "geometry": {"type": "Point", "coordinates": [11.89121754358598, 45.43495064943243]}}], "price": 1.786, "ultima_rilevazione": "14/05/2022 16:22:47"}, {"Gestore": "ZENA S.A.S. DI BENVENUTI PAOLO E SPADARO LILIANA", "Bandiera": "Esso", "Tipo impianto": "Altro", "Indirizzo": "via del Plebiscito 1866 999 35100", "Nome impianto": "ZENA", "Comune": "PADOVA", "idImpianto": 40424, "points": [{"type": "Feature", "properties": {}, "geometry": {"type": "Point", "coordinates": [11.8982295691967, 45.4330198165547]}}], "price": 1.779, "ultima_rilevazione": "14/05/2022 19:03:27"}, {"Gestore": "BRAGAGNOLO S.R.L.", "Bandiera": "Vega", "Tipo impianto": "Altro", "Indirizzo": "via Noalese snc", "Nome impianto": "VEGA VIGONZA", "Comune": "VIGONZA", "idImpianto": 25365, "points": [{"type": "Feature", "properties": {}, "geometry": {"type": "Point", "coordinates": [11.988106369972227, 45.44929472222044]}}], "price": 1.819, "ultima_rilevazione": "15/05/2022 00:03:00"}, {"Gestore": "VEGA CARBURANTI S.P.A.", "Bandiera": "Vega", "Tipo impianto": "Altro", "Indirizzo": "VIA RIVIERA DEL BRENTA  256/A 30032", "Nome impianto": "VEGA FIESSO D'ARTICO", "Comune": "FIESSO D'ARTICO", "idImpianto": 31541, "points": [{"type": "Feature", "properties": {}, "geometry": {"type": "Point", "coordinates": [12.04828441143036, 45.4178265601309]}}], "price": 1.819, "ultima_rilevazione": "15/05/2022 00:02:42"}, {"Gestore": "FALK PETROLI SOCIETA' A RESPONSABILITA' LIMITATA", "Bandiera": "Pompe Bianche", "Tipo impianto": "Altro", "Indirizzo": "STRADA DEI VIVAI 48 35020", "Nome impianto": "TAP Saonara", "Comune": "SAONARA", "idImpianto": 47562, "points": [{"type": "Feature", "properties": {}, "geometry": {"type": "Point", "coordinates": [11.98093656770146, 45.37602086288885]}}], "price": 1.824, "ultima_rilevazione": "15/05/2022 00:12:13"}, {"Gestore": "SAN MARCO PETROLI DISTRIBUZIONE S.R.L.", "Bandiera": "San Marco Petroli", "Tipo impianto": "Altro", "Indirizzo": "VIA DEL PLEBISCITO 1866 SNC 35133", "Nome impianto": "SMP PADOVA, Via del Plebiscito", "Comune": "PADOVA", "idImpianto": 5190, "points": [{"type": "Feature", "properties": {}, "geometry": {"type": "Point", "coordinates": [11.89520537853241, 45.43641655734114]}}], "price": 1.799, "ultima_rilevazione": "15/05/2022 00:14:11"}, {"Gestore": "CAPPELLON GIANLUCA", "Bandiera": "Agip Eni", "Tipo impianto": "Altro", "Indirizzo": "VIA GATTAMELATA 24 35128", "Nome impianto": "ENI ", "Comune": "PADOVA", "idImpianto": 27505, "points": [{"type": "Feature", "properties": {}, "geometry": {"type": "Point", "coordinates": [11.888564229011536, 45.400754273665896]}}], "price": 1.809, "ultima_rilevazione": "15/05/2022 00:16:02"}, {"Gestore": "GESTIONI INNOVATIVE ITALIA S.R.L.", "Bandiera": "Agip Eni", "Tipo impianto": "Altro", "Indirizzo": "VIA A. BASSANO 42 35135", "Nome impianto": "PV 52710", "Comune": "PADOVA", "idImpianto": 24927, "points": [{"type": "Feature", "properties": {}, "geometry": {"type": "Point", "coordinates": [11.875043210450713, 45.421799568461495]}}], "price": 1.829, "ultima_rilevazione": "15/05/2022 06:04:04"}, {"Gestore": "GESTIONI INNOVATIVE ITALIA S.R.L.", "Bandiera": "Agip Eni", "Tipo impianto": "Altro", "Indirizzo": "VIA FACCIOLATI 68, 35126", "Nome impianto": "PV 3322", "Comune": "PADOVA", "idImpianto": 24930, "points": [{"type": "Feature", "properties": {}, "geometry": {"type": "Point", "coordinates": [11.889205276966097, 45.39505451276064]}}], "price": 1.829, "ultima_rilevazione": "15/05/2022 06:04:05"}, {"Gestore": "GESTIONI INNOVATIVE ITALIA S.R.L.", "Bandiera": "Agip Eni", "Tipo impianto": "Altro", "Indirizzo": "VIA T. ASPETTI 210, 35133", "Nome impianto": "PV 55320", "Comune": "PADOVA", "idImpianto": 24932, "points": [{"type": "Feature", "properties": {}, "geometry": {"type": "Point", "coordinates": [11.88697099685669, 45.42698001310263]}}], "price": 1.829, "ultima_rilevazione": "15/05/2022 06:06:05"}]}, "Metano": {"1": [], "3": [{"Gestore": "GABOGAS 2 DI GALVAGNI GUALTIERO & C. S.A.S.", "Bandiera": "Europetrol", "Tipo impianto": "Altro", "Indirizzo": "VIA LUCIANO MANARA 20 35010", "Nome impianto": "Euro Petrol", "Comune": "VIGONZA", "idImpianto": 44906, "points": [{"type": "Feature", "properties": {}, "geometry": {"type": "Point", "coordinates": [11.93772651349184, 45.44031505406932]}}], "price": 1.999, "ultima_rilevazione": "11/05/2022 07:24:27"}], "5": [{"Gestore": "A.F. PETROLI S.P.A.", "Bandiera": "AF Petroli", "Tipo impianto": "Altro", "Indirizzo": "VIA VITTORIO EMANUELE II S.N.C. 35020", "Nome impianto": "A.F. PETROLI", "Comune": "SAONARA", "idImpianto": 12368, "points": [{"type": "Feature", "properties": {}, "geometry": {"type": "Point", "coordinates": [11.98758443435861, 45.3739170422884]}}], "price": 1.839, "ultima_rilevazione": "13/05/2022 19:51:59"}]}, "GPL": {"1": [{"Gestore": "R8 S.R.L.", "Bandiera": "Pompe Bianche", "Tipo impianto": "Altro", "Indirizzo": "via dante  81 30030", "Nome impianto": "R8", "Comune": "VIGONOVO", "idImpianto": 38543, "points": [{"type": "Feature", "properties": {}, "geometry": {"type": "Point", "coordinates": [12.001975402235985, 45.40054876814513]}}], "price": 0.749, "ultima_rilevazione": "09/05/2022 09:18:13"}, {"Gestore": "F.LLI BETTELLA DI BETTELLA MIRCO", "Bandiera": "Q8", "Tipo impianto": "Altro", "Indirizzo": "VIA VIGONOVESE  234 35127", "Nome impianto": "STAZ. DI SERV. Q8 F.LLI BETTELLA", "Comune": "PADOVA", "idImpianto": 13309, "points": [{"type": "Feature", "properties": {}, "geometry": {"type": "Point", "coordinates": [11.955485343933104, 45.39917318687467]}}], "price": 0.829, "ultima_rilevazione": "13/05/2022 07:28:27"}, {"Gestore": "GASOLINERA SOCIETA' A RESPONSABILITA' LIMITATA SEMPLIFICATA", "Bandiera": "Agip Eni", "Tipo impianto": "Altro", "Indirizzo": "VIA VENEZIA 48 35010", "Nome impianto": "eni", "Comune": "VIGONZA", "idImpianto": 43718, "points": [{"type": "Feature", "properties": {}, "geometry": {"type": "Point", "coordinates": [11.985655693865738, 45.41910417738222]}}], "price": 0.799, "ultima_rilevazione": "13/05/2022 17:32:55"}], "3": [{"Gestore": "GABOGAS 2 DI GALVAGNI GUALTIERO & C. S.A.S.", "Bandiera": "Europetrol", "Tipo impianto": "Altro", "Indirizzo": "VIA LUCIANO MANARA 20 35010", "Nome impianto": "Euro Petrol", "Comune": "VIGONZA", "idImpianto": 44906, "points": [{"type": "Feature", "properties": {}, "geometry": {"type": "Point", "coordinates": [11.93772651349184, 45.44031505406932]}}], "price": 0.777, "ultima_rilevazione": "11/05/2022 07:24:27"}, {"Gestore": "BRIXIA FINANZIARIA S.R.L.", "Bandiera": "Agip Eni", "Tipo impianto": "Altro", "Indirizzo": "Via Cavour - 35010", "Nome impianto": "BRIXIA FINANZIARIA SRL - Vigonza (PD)", "Comune": "VIGONZA", "idImpianto": 47848, "points": [{"type": "Feature", "properties": {}, "geometry": {"type": "Point", "coordinates": [11.976694850136068, 45.44033931205113]}}], "price": 0.799, "ultima_rilevazione": "14/05/2022 09:00:31"}, {"Gestore": "VEGA CARBURANTI S.P.A.", "Bandiera": "Vega", "Tipo impianto": "Altro", "Indirizzo": "VIA DELL'ELETTRONICA 2 35129", "Nome impianto": "VEGA PD ELETTRONICA", "Comune": "PADOVA", "idImpianto": 31443, "points": [{"type": "Feature", "properties": {}, "geometry": {"type": "Point", "coordinates": [11.91853791475296, 45.40917476704935]}}], "price": 0.809, "ultima_rilevazione": "15/05/2022 00:02:58"}, {"Gestore": "VEGA CARBURANTI S.P.A.", "Bandiera": "Vega", "Tipo impianto": "Altro", "Indirizzo": "VIA DELL'IPPODROMO 14 35129", "Nome impianto": "VEGA PD IPPODROMO", "Comune": "PADOVA", "idImpianto": 31444, "points": [{"type": "Feature", "properties": {}, "geometry": {"type": "Point", "coordinates": [11.926771489410385, 45.424204144142]}}], "price": 0.829, "ultima_rilevazione": "15/05/2022 00:02:58"}, {"Gestore": "VEGA CARBURANTI S.P.A.", "Bandiera": "Vega", "Tipo impianto": "Altro", "Indirizzo": "VIA VIGONOVESE 453 35127", "Nome impianto": "VEGA PD VIGONOVESE", "Comune": "PADOVA", "idImpianto": 31800, "points": [{"type": "Feature", "properties": {}, "geometry": {"type": "Point", "coordinates": [11.969973295927048, 45.39726117882133]}}], "price": 0.819, "ultima_rilevazione": "15/05/2022 00:02:59"}], "5": [{"Gestore": "NOALOIL S.P.A.", "Bandiera": "Noaloil", "Tipo impianto": "Altro", "Indirizzo": "VIA BORSELLINO, ARINO DI DOLO 3 30031", "Nome impianto": "NOALOIL PV2", "Comune": "DOLO", "idImpianto": 4484, "points": [{"type": "Feature", "properties": {}, "geometry": {"type": "Point", "coordinates": [12.047613859176636, 45.43214853006007]}}], "price": 0.799, "ultima_rilevazione": "10/05/2022 17:44:17"}, {"Gestore": "A.F. PETROLI S.P.A.", "Bandiera": "AF Petroli", "Tipo impianto": "Altro", "Indirizzo": "VIA VITTORIO EMANUELE II S.N.C. 35020", "Nome impianto": "A.F. PETROLI", "Comune": "SAONARA", "idImpianto": 12368, "points": [{"type": "Feature", "properties": {}, "geometry": {"type": "Point", "coordinates": [11.98758443435861, 45.3739170422884]}}], "price": 0.837, "ultima_rilevazione": "13/05/2022 19:51:59"}, {"Gestore": "CAPUZZO MORENO", "Bandiera": "Api-Ip", "Tipo impianto": "Altro", "Indirizzo": "VIA PIOVESE 332 35127", "Nome impianto": "TOTALERG di Capuzzo Moreno", "Comune": "PADOVA", "idImpianto": 15737, "points": [{"type": "Feature", "properties": {}, "geometry": {"type": "Point", "coordinates": [11.911370381712914, 45.37424420517317]}}], "price": 0.824, "ultima_rilevazione": "12/05/2022 09:53:16"}, {"Gestore": "TIOZZO ANDREA", "Bandiera": "Agip Eni", "Tipo impianto": "Altro", "Indirizzo": "VIA PAVA 15/1BIS 30030", "Nome impianto": "AREA SERVIZIO CACCO", "Comune": "FOSSO'", "idImpianto": 37311, "points": [{"type": "Feature", "properties": {}, "geometry": {"type": "Point", "coordinates": [12.037996798753738, 45.38364623317119]}}], "price": 0.822, "ultima_rilevazione": "12/05/2022 15:15:39"}, {"Gestore": "SERVIZI & GESTIONI ITALIA S.R.L.", "Bandiera": "Q8", "Tipo impianto": "Altro", "Indirizzo": "NUOVA SR 308 KM. 4+300  35010", "Nome impianto": "CADONEGHE NUOVA SR 308 KM. 4+300", "Comune": "CADONEGHE", "idImpianto": 48843, "points": [{"type": "Feature", "properties": {}, "geometry": {"type": "Point", "coordinates": [11.922992366864769, 45.45405211419074]}}], "price": 0.799, "ultima_rilevazione": "14/05/2022 07:10:45"}, {"Gestore": "IP SERVICES S.R.L.", "Bandiera": "Api-Ip", "Tipo impianto": "Altro", "Indirizzo": "Via del Plebiscito   35011", "Nome impianto": "PADOVA - PLEBISCITO", "Comune": "PADOVA", "idImpianto": 30887, "points": [{"type": "Feature", "properties": {}, "geometry": {"type": "Point", "coordinates": [11.89877137541771, 45.43177000843168]}}], "price": 0.809, "ultima_rilevazione": "14/05/2022 12:01:39"}, {"Gestore": "BRAGAGNOLO S.R.L.", "Bandiera": "Vega", "Tipo impianto": "Altro", "Indirizzo": "via Noalese snc", "Nome impianto": "VEGA VIGONZA", "Comune": "VIGONZA", "idImpianto": 25365, "points": [{"type": "Feature", "properties": {}, "geometry": {"type": "Point", "coordinates": [11.988106369972227, 45.44929472222044]}}], "price": 0.799, "ultima_rilevazione": "15/05/2022 00:03:00"}]}, "Blue Diesel": {"1": [{"Gestore": "GASOLINERA SOCIETA' A RESPONSABILITA' LIMITATA SEMPLIFICATA", "Bandiera": "Agip Eni", "Tipo impianto": "Altro", "Indirizzo": "VIA VENEZIA 48 35010", "Nome impianto": "eni", "Comune": "VIGONZA", "idImpianto": 43718, "points": [{"type": "Feature", "properties": {}, "geometry": {"type": "Point", "coordinates": [11.985655693865738, 45.41910417738222]}}], "price": 2.009, "ultima_rilevazione": "13/05/2022 17:32:55"}, {"Gestore": "GESTIONI INNOVATIVE ITALIA S.R.L.", "Bandiera": "Agip Eni", "Tipo impianto": "Altro", "Indirizzo": "via boves 23 35129", "Nome impianto": "13245", "Comune": "PADOVA", "idImpianto": 47421, "points": [{"type": "Feature", "properties": {}, "geometry": {"type": "Point", "coordinates": [11.937731487102514, 45.42806635078733]}}], "price": 2.009, "ultima_rilevazione": "14/05/2022 07:26:04"}, {"Gestore": "FOOD & SERVICE OIL SAS DI BUSINARO LUCA", "Bandiera": "Agip Eni", "Tipo impianto": "Altro", "Indirizzo": "VIA DON GIUSEPPE LAGO 2 35129", "Nome impianto": "ENI", "Comune": "PADOVA", "idImpianto": 49957, "points": [{"type": "Feature", "properties": {}, "geometry": {"type": "Point", "coordinates": [11.941623491512718, 45.42354719894195]}}], "price": 2.009, "ultima_rilevazione": "14/05/2022 11:23:21"}, {"Gestore": "RISTOSYSTEM S.A.S. DI PAOLO BORDIN", "Bandiera": "Agip Eni", "Tipo impianto": "Altro", "Indirizzo": "via Canaletta 3 35129", "Nome impianto": "eni", "Comune": "PADOVA", "idImpianto": 25706, "points": [{"type": "Feature", "properties": {}, "geometry": {"type": "Point", "coordinates": [11.935764402151108, 45.4169565452905]}}], "price": 1.984, "ultima_rilevazione": "15/05/2022 00:20:08"}, {"Gestore": "GASOLINERA SOCIETA' A RESPONSABILITA' LIMITATA SEMPLIFICATA", "Bandiera": "Agip Eni", "Tipo impianto": "Altro", "Indirizzo": "VIA VENEZIA 48 35010", "Nome impianto": "eni", "Comune": "VIGONZA", "idImpianto": 43718, "points": [{"type": "Feature", "properties": {}, "geometry": {"type": "Point", "coordinates": [11.985655693865738, 45.41910417738222]}}], "price": 1.969, "ultima_rilevazione": "13/05/2022 17:32:55"}, {"Gestore": "GESTIONI INNOVATIVE ITALIA S.R.L.", "Bandiera": "Agip Eni", "Tipo impianto": "Altro", "Indirizzo": "via boves 23 35129", "Nome impianto": "13245", "Comune": "PADOVA", "idImpianto": 47421, "points": [{"type": "Feature", "properties": {}, "geometry": {"type": "Point", "coordinates": [11.937731487102514, 45.42806635078733]}}], "price": 1.929, "ultima_rilevazione": "14/05/2022 07:26:04"}, {"Gestore": "FOOD & SERVICE OIL SAS DI BUSINARO LUCA", "Bandiera": "Agip Eni", "Tipo impianto": "Altro", "Indirizzo": "VIA DON GIUSEPPE LAGO 2 35129", "Nome impianto": "ENI", "Comune": "PADOVA", "idImpianto": 49957, "points": [{"type": "Feature", "properties": {}, "geometry": {"type": "Point", "coordinates": [11.941623491512718, 45.42354719894195]}}], "price": 1.924, "ultima_rilevazione": "14/05/2022 11:23:21"}, {"Gestore": "RISTOSYSTEM S.A.S. DI PAOLO BORDIN", "Bandiera": "Agip Eni", "Tipo impianto": "Altro", "Indirizzo": "via Canaletta 3 35129", "Nome impianto": "eni", "Comune": "PADOVA", "idImpianto": 25706, "points": [{"type": "Feature", "properties": {}, "geometry": {"type": "Point", "coordinates": [11.935764402151108, 45.4169565452905]}}], "price": 1.904, "ultima_rilevazione": "15/05/2022 00:20:08"}], "3": [{"Gestore": "TRABUIO SEVERINO", "Bandiera": "Agip Eni", "Tipo impianto": "Altro", "Indirizzo": "CORSO SPAGNA 11 35127", "Nome impianto": "impianti agip di trabuio severino", "Comune": "PADOVA", "idImpianto": 16936, "points": [{"type": "Feature", "properties": {}, "geometry": {"type": "Point", "coordinates": [11.929899752140043, 45.38838524427938]}}], "price": 1.789, "ultima_rilevazione": "03/05/2022 18:33:22"}, {"Gestore": "CAPPELLARO DIEGO", "Bandiera": "Agip Eni", "Tipo impianto": "Altro", "Indirizzo": "VIA VENEZIA 66 35129", "Nome impianto": "ENI", "Comune": "PADOVA", "idImpianto": 16272, "points": [{"type": "Feature", "properties": {}, "geometry": {"type": "Point", "coordinates": [11.904559582471848, 45.409330680486974]}}], "price": 1.929, "ultima_rilevazione": "14/05/2022 07:45:59"}, {"Gestore": "IMPIANTI AGIP DI TRABUIO MELINDA", "Bandiera": "Agip Eni", "Tipo impianto": "Altro", "Indirizzo": "VIA CORSO STATI UNITI 27 35127", "Nome impianto": "Impianti Agip di Trabuio Melinda", "Comune": "PADOVA", "idImpianto": 17017, "points": [{"type": "Feature", "properties": {}, "geometry": {"type": "Point", "coordinates": [11.94775253534317, 45.39092555128513]}}], "price": 2.004, "ultima_rilevazione": "14/05/2022 08:54:34"}, {"Gestore": "TRABUIO SEVERINO", "Bandiera": "Agip Eni", "Tipo impianto": "Altro", "Indirizzo": "CORSO SPAGNA 11 35127", "Nome impianto": "impianti agip di trabuio severino", "Comune": "PADOVA", "idImpianto": 16936, "points": [{"type": "Feature", "properties": {}, "geometry": {"type": "Point", "coordinates": [11.929899752140043, 45.38838524427938]}}], "price": 1.629, "ultima_rilevazione": "03/05/2022 18:33:22"}, {"Gestore": "CAPPELLARO DIEGO", "Bandiera": "Agip Eni", "Tipo impianto": "Altro", "Indirizzo": "VIA VENEZIA 66 35129", "Nome impianto": "ENI", "Comune": "PADOVA", "idImpianto": 16272, "points": [{"type": "Feature", "properties": {}, "geometry": {"type": "Point", "coordinates": [11.904559582471848, 45.409330680486974]}}], "price": 1.829, "ultima_rilevazione": "14/05/2022 07:45:59"}, {"Gestore": "IMPIANTI AGIP DI TRABUIO MELINDA", "Bandiera": "Agip Eni", "Tipo impianto": "Altro", "Indirizzo": "VIA CORSO STATI UNITI 27 35127", "Nome impianto": "Impianti Agip di Trabuio Melinda", "Comune": "PADOVA", "idImpianto": 17017, "points": [{"type": "Feature", "properties": {}, "geometry": {"type": "Point", "coordinates": [11.94775253534317, 45.39092555128513]}}], "price": 1.924, "ultima_rilevazione": "14/05/2022 08:54:34"}, {"Gestore": "BRIXIA FINANZIARIA S.R.L.", "Bandiera": "Agip Eni", "Tipo impianto": "Altro", "Indirizzo": "Via Cavour - 35010", "Nome impianto": "BRIXIA FINANZIARIA SRL - Vigonza (PD)", "Comune": "VIGONZA", "idImpianto": 47848, "points": [{"type": "Feature", "properties": {}, "geometry": {"type": "Point", "coordinates": [11.976694850136068, 45.44033931205113]}}], "price": 1.944, "ultima_rilevazione": "14/05/2022 09:00:31"}], "5": [{"Gestore": "SERVIZI INNOVATIVI NORD EST S.R.L.", "Bandiera": "Agip Eni", "Tipo impianto": "Altro", "Indirizzo": "VIA RIVIERA DEL BRENTA  312 30032", "Nome impianto": "SE.I.NE 13672", "Comune": "FIESSO D'ARTICO", "idImpianto": 39157, "points": [{"type": "Feature", "properties": {}, "geometry": {"type": "Point", "coordinates": [12.059578496295217, 45.41885470807205]}}], "price": 1.889, "ultima_rilevazione": "17/01/2022 10:54:23"}, {"Gestore": "TIOZZO ANDREA", "Bandiera": "Agip Eni", "Tipo impianto": "Altro", "Indirizzo": "VIA PAVA 15/1BIS 30030", "Nome impianto": "AREA SERVIZIO CACCO", "Comune": "FOSSO'", "idImpianto": 37311, "points": [{"type": "Feature", "properties": {}, "geometry": {"type": "Point", "coordinates": [12.037996798753738, 45.38364623317119]}}], "price": 1.987, "ultima_rilevazione": "12/05/2022 15:15:39"}, {"Gestore": "GIRARDELLO STEFANO", "Bandiera": "Agip Eni", "Tipo impianto": "Altro", "Indirizzo": "VIA NOALESE SUD 55 30030", "Nome impianto": "Girardello Stefano", "Comune": "PIANIGA", "idImpianto": 15474, "points": [{"type": "Feature", "properties": {}, "geometry": {"type": "Point", "coordinates": [11.993375626983608, 45.457278770231206]}}], "price": 2.039, "ultima_rilevazione": "14/05/2022 07:31:23"}, {"Gestore": "CAPPELLON GIANLUCA", "Bandiera": "Agip Eni", "Tipo impianto": "Altro", "Indirizzo": "VIA GATTAMELATA 24 35128", "Nome impianto": "ENI ", "Comune": "PADOVA", "idImpianto": 27505, "points": [{"type": "Feature", "properties": {}, "geometry": {"type": "Point", "coordinates": [11.888564229011536, 45.400754273665896]}}], "price": 1.989, "ultima_rilevazione": "15/05/2022 00:16:02"}, {"Gestore": "SERVIZI INNOVATIVI NORD EST S.R.L.", "Bandiera": "Agip Eni", "Tipo impianto": "Altro", "Indirizzo": "VIA RIVIERA DEL BRENTA  312 30032", "Nome impianto": "SE.I.NE 13672", "Comune": "FIESSO D'ARTICO", "idImpianto": 39157, "points": [{"type": "Feature", "properties": {}, "geometry": {"type": "Point", "coordinates": [12.059578496295217, 45.41885470807205]}}], "price": 1.699, "ultima_rilevazione": "17/01/2022 10:54:23"}, {"Gestore": "TIOZZO ANDREA", "Bandiera": "Agip Eni", "Tipo impianto": "Altro", "Indirizzo": "VIA PAVA 15/1BIS 30030", "Nome impianto": "AREA SERVIZIO CACCO", "Comune": "FOSSO'", "idImpianto": 37311, "points": [{"type": "Feature", "properties": {}, "geometry": {"type": "Point", "coordinates": [12.037996798753738, 45.38364623317119]}}], "price": 1.927, "ultima_rilevazione": "12/05/2022 15:15:39"}, {"Gestore": "GIRARDELLO STEFANO", "Bandiera": "Agip Eni", "Tipo impianto": "Altro", "Indirizzo": "VIA NOALESE SUD 55 30030", "Nome impianto": "Girardello Stefano", "Comune": "PIANIGA", "idImpianto": 15474, "points": [{"type": "Feature", "properties": {}, "geometry": {"type": "Point", "coordinates": [11.993375626983608, 45.457278770231206]}}], "price": 1.979, "ultima_rilevazione": "14/05/2022 07:31:23"}, {"Gestore": "GRIGOLON ANTONIO", "Bandiera": "Agip Eni", "Tipo impianto": "Altro", "Indirizzo": "VIA PLEBISCITO  35133", "Nome impianto": "agip antonio grigolon", "Comune": "PADOVA", "idImpianto": 21272, "points": [{"type": "Feature", "properties": {}, "geometry": {"type": "Point", "coordinates": [11.896578669548036, 45.43522328881738]}}], "price": 1.924, "ultima_rilevazione": "14/05/2022 07:53:35"}, {"Gestore": "ENI FUEL S.P.A.", "Bandiera": "Agip Eni", "Tipo impianto": "Altro", "Indirizzo": "Ranare  35020", "Nome impianto": "3258 \u2013 Ponte San Nicol\u00f2", "Comune": "PONTE SAN NICOLO'", "idImpianto": 49550, "points": [{"type": "Feature", "properties": {}, "geometry": {"type": "Point", "coordinates": [11.913211940194843, 45.377932365049936]}}], "price": 1.719, "ultima_rilevazione": "14/05/2022 15:10:12"}, {"Gestore": "CAPPELLON GIANLUCA", "Bandiera": "Agip Eni", "Tipo impianto": "Altro", "Indirizzo": "VIA GATTAMELATA 24 35128", "Nome impianto": "ENI ", "Comune": "PADOVA", "idImpianto": 27505, "points": [{"type": "Feature", "properties": {}, "geometry": {"type": "Point", "coordinates": [11.888564229011536, 45.400754273665896]}}], "price": 1.909, "ultima_rilevazione": "15/05/2022 00:16:02"}, {"Gestore": "GESTIONI INNOVATIVE ITALIA S.R.L.", "Bandiera": "Agip Eni", "Tipo impianto": "Altro", "Indirizzo": "VIA A. BASSANO 42 35135", "Nome impianto": "PV 52710", "Comune": "PADOVA", "idImpianto": 24927, "points": [{"type": "Feature", "properties": {}, "geometry": {"type": "Point", "coordinates": [11.875043210450713, 45.421799568461495]}}], "price": 1.929, "ultima_rilevazione": "15/05/2022 06:04:04"}, {"Gestore": "GESTIONI INNOVATIVE ITALIA S.R.L.", "Bandiera": "Agip Eni", "Tipo impianto": "Altro", "Indirizzo": "VIA FACCIOLATI 68, 35126", "Nome impianto": "PV 3322", "Comune": "PADOVA", "idImpianto": 24930, "points": [{"type": "Feature", "properties": {}, "geometry": {"type": "Point", "coordinates": [11.889205276966097, 45.39505451276064]}}], "price": 1.929, "ultima_rilevazione": "15/05/2022 06:04:05"}, {"Gestore": "GESTIONI INNOVATIVE ITALIA S.R.L.", "Bandiera": "Agip Eni", "Tipo impianto": "Altro", "Indirizzo": "VIA T. ASPETTI 210, 35133", "Nome impianto": "PV 55320", "Comune": "PADOVA", "idImpianto": 24932, "points": [{"type": "Feature", "properties": {}, "geometry": {"type": "Point", "coordinates": [11.88697099685669, 45.42698001310263]}}], "price": 1.929, "ultima_rilevazione": "15/05/2022 06:06:05"}]}, "Diesel High Quality": {"1": [{"Gestore": "F.LLI BETTELLA DI BETTELLA MIRCO", "Bandiera": "Q8", "Tipo impianto": "Altro", "Indirizzo": "VIA VIGONOVESE  234 35127", "Nome impianto": "STAZ. DI SERV. Q8 F.LLI BETTELLA", "Comune": "PADOVA", "idImpianto": 13309, "points": [{"type": "Feature", "properties": {}, "geometry": {"type": "Point", "coordinates": [11.955485343933104, 45.39917318687467]}}], "price": 2.155, "ultima_rilevazione": "13/05/2022 07:28:27"}, {"Gestore": "F.LLI BETTELLA DI BETTELLA MIRCO", "Bandiera": "Q8", "Tipo impianto": "Altro", "Indirizzo": "VIA VIGONOVESE  234 35127", "Nome impianto": "STAZ. DI SERV. Q8 F.LLI BETTELLA", "Comune": "PADOVA", "idImpianto": 13309, "points": [{"type": "Feature", "properties": {}, "geometry": {"type": "Point", "coordinates": [11.955485343933104, 45.39917318687467]}}], "price": 2.155, "ultima_rilevazione": "13/05/2022 07:28:27"}], "3": [{"Gestore": "VEGA CARBURANTI S.P.A.", "Bandiera": "Vega", "Tipo impianto": "Altro", "Indirizzo": "VIA DELL'ELETTRONICA 2 35129", "Nome impianto": "VEGA PD ELETTRONICA", "Comune": "PADOVA", "idImpianto": 31443, "points": [{"type": "Feature", "properties": {}, "geometry": {"type": "Point", "coordinates": [11.91853791475296, 45.40917476704935]}}], "price": 1.869, "ultima_rilevazione": "15/05/2022 00:02:58"}, {"Gestore": "VEGA CARBURANTI S.P.A.", "Bandiera": "Vega", "Tipo impianto": "Altro", "Indirizzo": "VIA DELL'IPPODROMO 14 35129", "Nome impianto": "VEGA PD IPPODROMO", "Comune": "PADOVA", "idImpianto": 31444, "points": [{"type": "Feature", "properties": {}, "geometry": {"type": "Point", "coordinates": [11.926771489410385, 45.424204144142]}}], "price": 1.889, "ultima_rilevazione": "15/05/2022 00:02:58"}, {"Gestore": "VEGA CARBURANTI S.P.A.", "Bandiera": "Vega", "Tipo impianto": "Altro", "Indirizzo": "VIA VIGONOVESE 453 35127", "Nome impianto": "VEGA PD VIGONOVESE", "Comune": "PADOVA", "idImpianto": 31800, "points": [{"type": "Feature", "properties": {}, "geometry": {"type": "Point", "coordinates": [11.969973295927048, 45.39726117882133]}}], "price": 1.889, "ultima_rilevazione": "15/05/2022 00:02:59"}, {"Gestore": "EGI-2GO S.R.L.", "Bandiera": "Esso", "Tipo impianto": "Altro", "Indirizzo": "VIA VENEZIA 94 35131", "Nome impianto": "PD - v. Venezia", "Comune": "PADOVA", "idImpianto": 48151, "points": [{"type": "Feature", "properties": {}, "geometry": {"type": "Point", "coordinates": [11.907218224536908, 45.410270409574295]}}], "price": 1.939, "ultima_rilevazione": "06/05/2022 11:49:45"}], "5": [{"Gestore": "SERVIZI & GESTIONI ITALIA S.R.L.", "Bandiera": "Q8", "Tipo impianto": "Altro", "Indirizzo": "VIA PONTEVIGODARZERE 94 35133", "Nome impianto": "PADOVA VIA PONTEVIGODARZERE, 94", "Comune": "PADOVA", "idImpianto": 19936, "points": [{"type": "Feature", "properties": {}, "geometry": {"type": "Point", "coordinates": [11.893743657672076, 45.44347150241554]}}], "price": 2.139, "ultima_rilevazione": "11/05/2022 07:09:09"}, {"Gestore": "SERVIZI & GESTIONI ITALIA S.R.L.", "Bandiera": "Q8", "Tipo impianto": "Altro", "Indirizzo": "NUOVA SR 308 KM. 4+300  35010", "Nome impianto": "CADONEGHE NUOVA SR 308 KM. 4+300", "Comune": "CADONEGHE", "idImpianto": 48843, "points": [{"type": "Feature", "properties": {}, "geometry": {"type": "Point", "coordinates": [11.922992366864769, 45.45405211419074]}}], "price": 2.149, "ultima_rilevazione": "14/05/2022 07:10:45"}, {"Gestore": "SERVIZI & GESTIONI ITALIA S.R.L.", "Bandiera": "Q8", "Tipo impianto": "Altro", "Indirizzo": "VIA PONTEVIGODARZERE 94 35133", "Nome impianto": "PADOVA VIA PONTEVIGODARZERE, 94", "Comune": "PADOVA", "idImpianto": 19936, "points": [{"type": "Feature", "properties": {}, "geometry": {"type": "Point", "coordinates": [11.893743657672076, 45.44347150241554]}}], "price": 2.099, "ultima_rilevazione": "11/05/2022 07:09:09"}, {"Gestore": "BRAGAGNOLO S.R.L.", "Bandiera": "Vega", "Tipo impianto": "Altro", "Indirizzo": "via Noalese snc", "Nome impianto": "VEGA VIGONZA", "Comune": "VIGONZA", "idImpianto": 25365, "points": [{"type": "Feature", "properties": {}, "geometry": {"type": "Point", "coordinates": [11.988106369972227, 45.44929472222044]}}], "price": 1.889, "ultima_rilevazione": "15/05/2022 00:03:00"}, {"Gestore": "VEGA CARBURANTI S.P.A.", "Bandiera": "Vega", "Tipo impianto": "Altro", "Indirizzo": "VIA RIVIERA DEL BRENTA  256/A 30032", "Nome impianto": "VEGA FIESSO D'ARTICO", "Comune": "FIESSO D'ARTICO", "idImpianto": 31541, "points": [{"type": "Feature", "properties": {}, "geometry": {"type": "Point", "coordinates": [12.04828441143036, 45.4178265601309]}}], "price": 1.889, "ultima_rilevazione": "15/05/2022 00:02:42"}, {"Gestore": "FONTANA MAURIZIO", "Bandiera": "Esso", "Tipo impianto": "Altro", "Indirizzo": "Via Pontevigodarzere 109 35133", "Nome impianto": "Stazione di servizio ESSO di Fontana Maurizio", "Comune": "PADOVA", "idImpianto": 34068, "points": [{"type": "Feature", "properties": {}, "geometry": {"type": "Point", "coordinates": [11.89327542842898, 45.44369497231989]}}], "price": 1.956, "ultima_rilevazione": "14/05/2022 06:35:40"}, {"Gestore": "GIERRESSE S.N.C. DI RAVAZZOLO STEFANO, RAVAZZOLO GASTONE CON SIGL A GIERRESSE S.N.C.", "Bandiera": "Esso", "Tipo impianto": "Altro", "Indirizzo": "VIA GUIDO RENI 114 35133", "Nome impianto": "ESSO VIA GUIDO RENI", "Comune": "PADOVA", "idImpianto": 40825, "points": [{"type": "Feature", "properties": {}, "geometry": {"type": "Point", "coordinates": [11.89121754358598, 45.43495064943243]}}], "price": 1.969, "ultima_rilevazione": "14/05/2022 16:22:47"}, {"Gestore": "CAPUZZO MORENO", "Bandiera": "Api-Ip", "Tipo impianto": "Altro", "Indirizzo": "VIA PIOVESE 332 35127", "Nome impianto": "TOTALERG di Capuzzo Moreno", "Comune": "PADOVA", "idImpianto": 15737, "points": [{"type": "Feature", "properties": {}, "geometry": {"type": "Point", "coordinates": [11.911370381712914, 45.37424420517317]}}], "price": 1.482, "ultima_rilevazione": "12/05/2022 09:53:16"}, {"Gestore": "IP SERVICES S.R.L.", "Bandiera": "Api-Ip", "Tipo impianto": "Altro", "Indirizzo": "via Esperanto OVEST 1 35020", "Nome impianto": "Ponte San Nicol\u00f2", "Comune": "PONTE SAN NICOLO'", "idImpianto": 34391, "points": [{"type": "Feature", "properties": {}, "geometry": {"type": "Point", "coordinates": [11.912743002176285, 45.37860478220491]}}], "price": 1.539, "ultima_rilevazione": "14/05/2022 12:03:19"}, {"Gestore": "IP SERVICES S.R.L.", "Bandiera": "Api-Ip", "Tipo impianto": "Altro", "Indirizzo": "Corso Pertini 10 35020", "Nome impianto": "Ponte San Nicol\u00f2", "Comune": "PONTE SAN NICOLO'", "idImpianto": 20107, "points": [{"type": "Feature", "properties": {}, "geometry": {"type": "Point", "coordinates": [11.946816444396973, 45.36654002393913]}}], "price": 1.879, "ultima_rilevazione": "14/05/2022 12:04:03"}]}, "Gasolio High Quality": {"1": [{"Gestore": "COSTANTIN DISTRIBUZIONE E SERVIZI SRL", "Bandiera": "Costantin", "Tipo impianto": "Altro", "Indirizzo": "VIA VENEZIA 32 35100", "Nome impianto": "COSTANTIN VIGONZA", "Comune": "VIGONZA", "idImpianto": 31038, "points": [{"type": "Feature", "properties": {}, "geometry": {"type": "Point", "coordinates": [11.980767846107485, 45.42107567683402]}}], "price": 1.857, "ultima_rilevazione": "12/05/2022 11:08:50"}], "3": [{"Gestore": "GABOGAS 2 DI GALVAGNI GUALTIERO & C. S.A.S.", "Bandiera": "Europetrol", "Tipo impianto": "Altro", "Indirizzo": "VIA LUCIANO MANARA 20 35010", "Nome impianto": "Euro Petrol", "Comune": "VIGONZA", "idImpianto": 44906, "points": [{"type": "Feature", "properties": {}, "geometry": {"type": "Point", "coordinates": [11.93772651349184, 45.44031505406932]}}], "price": 1.838, "ultima_rilevazione": "11/05/2022 07:24:27"}], "5": [{"Gestore": "ZENA S.A.S. DI BENVENUTI PAOLO E SPADARO LILIANA", "Bandiera": "Esso", "Tipo impianto": "Altro", "Indirizzo": "via del Plebiscito 1866 999 35100", "Nome impianto": "ZENA", "Comune": "PADOVA", "idImpianto": 40424, "points": [{"type": "Feature", "properties": {}, "geometry": {"type": "Point", "coordinates": [11.8982295691967, 45.4330198165547]}}], "price": 1.929, "ultima_rilevazione": "14/05/2022 19:03:27"}, {"Gestore": "NOALOIL S.P.A.", "Bandiera": "Noaloil", "Tipo impianto": "Altro", "Indirizzo": "VIA BORSELLINO, ARINO DI DOLO 3 30031", "Nome impianto": "NOALOIL PV2", "Comune": "DOLO", "idImpianto": 4484, "points": [{"type": "Feature", "properties": {}, "geometry": {"type": "Point", "coordinates": [12.047613859176636, 45.43214853006007]}}], "price": 1.889, "ultima_rilevazione": "10/05/2022 17:44:17"}, {"Gestore": "MIX S.N.C. DI BUSINARO LUCA & C.", "Bandiera": "Major", "Tipo impianto": "Altro", "Indirizzo": "VIA PIOVESE 260 35126", "Nome impianto": "major", "Comune": "PADOVA", "idImpianto": 13619, "points": [{"type": "Feature", "properties": {}, "geometry": {"type": "Point", "coordinates": [11.90609246492386, 45.37649368239696]}}], "price": 2.109, "ultima_rilevazione": "13/05/2022 12:10:45"}, {"Gestore": "A.F. PETROLI S.P.A.", "Bandiera": "AF Petroli", "Tipo impianto": "Altro", "Indirizzo": "VIA VITTORIO EMANUELE II S.N.C. 35020", "Nome impianto": "A.F. PETROLI", "Comune": "SAONARA", "idImpianto": 12368, "points": [{"type": "Feature", "properties": {}, "geometry": {"type": "Point", "coordinates": [11.98758443435861, 45.3739170422884]}}], "price": 1.919, "ultima_rilevazione": "13/05/2022 19:51:59"}, {"Gestore": "FALK PETROLI SOCIETA' A RESPONSABILITA' LIMITATA", "Bandiera": "Pompe Bianche", "Tipo impianto": "Altro", "Indirizzo": "STRADA DEI VIVAI 48 35020", "Nome impianto": "TAP Saonara", "Comune": "SAONARA", "idImpianto": 47562, "points": [{"type": "Feature", "properties": {}, "geometry": {"type": "Point", "coordinates": [11.98093656770146, 45.37602086288885]}}], "price": 1.924, "ultima_rilevazione": "15/05/2022 00:12:13"}]}, "null": {}}