{"area_comune": "[{\"type\": \"Feature\", \"properties\": {}, \"geometry\": {\"type\": \"Polygon\", \"coordinates\": [[[9.057350613611483, 45.523920067737954], [9.060116227652374, 45.52402664995497], [9.068713384712789, 45.522518630273076], [9.070213194894732, 45.519992924406964], [9.07060831851079, 45.51854351910876], [9.070864040899716, 45.518273339259146], [9.074062105848842, 45.516390087921835], [9.076668038822593, 45.5155332649453], [9.08889799615, 45.51564591969661], [9.094542308847222, 45.51639317847064], [9.094905028496964, 45.515965123332705], [9.09836319094592, 45.50740220366777], [9.098438750734271, 45.50669104792422], [9.089336815787735, 45.498381542483855], [9.088299217571633, 45.497833286081686], [9.07875037923433, 45.496904159488125], [9.076610271803736, 45.49786872870163], [9.075459861930014, 45.498850614931975], [9.072506423801856, 45.50599094658229], [9.070451881288704, 45.50604115691513], [9.069210024872874, 45.505798894664935], [9.060692022825023, 45.51134838330057], [9.058771504756256, 45.511160362262395], [9.055397678393296, 45.5168056996857], [9.05518209560553, 45.51893455784589], [9.057350613611483, 45.523920067737954]]]}}]", "comune": "pero", "buffer_1": "[{\"type\": \"Feature\", \"properties\": {}, \"geometry\": {\"type\": \"Polygon\", \"coordinates\": [[[9.044584715065817, 45.52321676984088], [9.044547598342417, 45.52408420185992], [9.044629493091453, 45.524950114671704], [9.044829643479064, 45.52580645893002], [9.045146194186787, 45.52664527387635], [9.045576207465464, 45.52745876136171], [9.046115690266847, 45.52823935836937], [9.046759631207255, 45.52897980736295], [9.04750204702543, 45.529673223804416], [9.04833603810732, 45.53031316021213], [9.049253852565238, 45.53089366616134], [9.050246958277716, 45.53140934366663], [9.05130612222118, 45.53185539742928], [9.05242149635517, 45.532227679479355], [9.053582709260585, 45.53252272779547], [9.054778962675561, 45.53273779854074], [9.055999132026878, 45.532870891613285], [9.05723187001659, 45.53292076927192], [9.058465712294401, 45.532886967663075], [9.059689184226281, 45.53276980114043], [9.060890907759374, 45.532570359337285], [9.098087827401693, 45.52504232450316], [9.099316379159035, 45.52474523072332], [9.100495764773992, 45.524362149149134], [9.101613839506589, 45.52389702492135], [9.102659090816305, 45.52335464798341], [9.10362075699796, 45.522740603693826], [9.104488938039577, 45.52206121524309], [9.105254697557871, 45.52132347847209], [9.105910154761098, 45.52053498976618], [9.10644856549372, 45.519703867771234], [9.106864391531987, 45.51883866974102], [9.110758883528177, 45.50913612489267], [9.111052144666102, 45.50822796764167], [9.111210376638859, 45.50730336549221], [9.111231892231109, 45.50637221626324], [9.11111646787446, 45.50544448737505], [9.11086534575271, 45.504530109151546], [9.110481220221546, 45.50363886854033], [9.1099682087002, 45.502780304387294], [9.109331807358004, 45.501963605385555], [9.108578832080418, 45.50119751178808], [9.099476293539686, 45.49288880680031], [9.098622440071274, 45.4921869231241], [9.09767082530281, 45.49155027603135], [9.096631471012403, 45.49098556820757], [9.09551532169204, 45.49049874476853], [9.094334129353765, 45.49009493074094], [9.093100329884246, 45.489778377173394], [9.091826912244745, 45.489552416440944], [9.081242065294722, 45.48807526083164], [9.079990747584201, 45.487945391050296], [9.078727317763148, 45.487903030587525], [9.077464113106439, 45.487948593094785], [9.076213468694489, 45.48808163366061], [9.074987597132905, 45.48830085314881], [9.073798469459605, 45.48860411086679], [9.072657698394384, 45.48898844544088], [9.071576425063649, 45.48945010369651], [9.070565210300186, 45.4899845772627], [9.06963393157429, 45.490586646546085], [9.04965498761733, 45.50484127072423], [9.048803216540684, 45.50551281963899], [9.048051036922903, 45.50624080770501], [9.04740596779231, 45.50701796155727], [9.046874458847018, 45.50783651630632], [9.046461825878566, 45.508688293065696], [9.046172197487998, 45.50956478062645], [9.046008473633226, 45.510457220465014], [9.044584715065817, 45.52321676984088]]]}}]", "buffer_3": "[{\"type\": \"Feature\", \"properties\": {}, \"geometry\": {\"type\": \"Polygon\", \"coordinates\": [[[9.019053870991751, 45.52180589373691], [9.01894134307624, 45.524408165304514], [9.019185857736733, 45.527005958278146], [9.019785190868294, 45.52957512261001], [9.02073381801363, 45.53209177115657], [9.022022963983426, 45.53453250192348], [9.023640682836394, 45.53687461591263], [9.02557196753482, 45.539096328534825], [9.027798888308093, 45.54117697260783], [9.03030075848052, 45.54309719103413], [9.033054326253358, 45.544839117346214], [9.036033990677733, 45.54638654241889], [9.03921203981715, 45.54772506577477], [9.042558908879029, 45.54884223005322], [9.04604345589602, 45.54972763737008], [9.049633252362597, 45.55037304646539], [9.053294886082265, 45.55077244971769], [9.056994273357947, 45.55092212929392], [9.060696977563616, 45.55082069190131], [9.064368531070809, 45.55046908181123], [9.067974757469688, 45.54987057203101], [9.105182131764955, 45.542340244072584], [9.108868765226616, 45.54144869596302], [9.112407725720674, 45.54029912137529], [9.115762546005229, 45.538903369301046], [9.118898663979383, 45.53727582517525], [9.121783779596068, 45.535433262070136], [9.12438818804702, 45.53339466724663], [9.126685085761984, 45.531181045881034], [9.128650846063598, 45.52881520402133], [9.130265261651488, 45.526321513040834], [9.131511751449883, 45.52372565804633], [9.135402341282884, 45.51402228572266], [9.136280982690796, 45.5112976251405], [9.136754449233665, 45.50852371566937], [9.13681773178541, 45.50573025514931], [9.13647021362981, 45.50294714637168], [9.135715674470463, 45.5002041769654], [9.134562247421735, 45.497530700701795], [9.133022329549831, 45.4949553236225], [9.131112447023723, 45.49250559833513], [9.128853076410593, 45.49020772972768], [9.119749333787517, 45.48190062549849], [9.117187581432782, 45.47979540580505], [9.114332801646787, 45.47788590029241], [9.111215057012904, 45.47619219872735], [9.10786716761203, 45.47473211875271], [9.104324366006166, 45.47352101907182], [9.100623927288964, 45.47257163846693], [9.09680477805271, 45.471893962314766], [9.086223108278995, 45.47041726106269], [9.082470310788166, 45.47002777226258], [9.078681222658382, 45.46990073002372], [9.07489280893758, 45.470037373777345], [9.07114202813245, 45.470436370492045], [9.06746547318451, 45.47109382762251], [9.063899015936528, 45.472003330925496], [9.060477458486483, 45.47315600678168], [9.057234194765174, 45.47454060842803], [9.054200885582379, 45.47614362527577], [9.051407150266032, 45.477949414267606], [9.031428071999903, 45.49220088227044], [9.028872619277555, 45.49421510650202], [9.026615702595631, 45.49639866627075], [9.024679894050891, 45.498729757598916], [9.023084566651827, 45.501185100577416], [9.021845699641064, 45.50374017135957], [9.020975717377736, 45.506369446673176], [9.020483363446393, 45.509046658430414], [9.019053870991751, 45.52180589373691]]]}}]", "buffer_5": "[{\"type\": \"Feature\", \"properties\": {}, \"geometry\": {\"type\": \"Polygon\", \"coordinates\": [[[8.99352430387118, 45.52038931125047], [8.99333479460527, 45.52472638885475], [8.993740369362357, 45.529056133859136], [8.994737393658825, 45.53333829288985], [8.99631672930158, 45.537533045977256], [8.998463814513615, 45.54160137725871], [9.001158794867132, 45.545505438518695], [9.004376703972497, 45.54920890215515], [9.008087692388296, 45.55267730024864], [9.01225730274372, 45.5558783465313], [9.016846788604415, 45.55878223820423], [9.021813474172475, 45.56136193473475], [9.027111151495646, 45.563593410975805], [9.032690511475288, 45.565455882188964], [9.038499604612271, 45.566931998815825], [9.044484327119214, 45.56800800912841], [9.05058892776076, 45.56867388819521], [9.05675653056435, 45.56892343192133], [9.062929668375416, 45.56875431525652], [9.069050822115415, 45.56816811400973], [9.075062960540235, 45.56717029005999], [9.112280797279737, 45.55963766632117], [9.118426817763435, 45.55815130769245], [9.124326425192333, 45.556234799711554], [9.12991878574519, 45.553907913372875], [9.135146255127815, 45.5511946504703], [9.139954975102484, 45.54812299451007], [9.144295429809684, 45.54472462045776], [9.14812295607799, 45.5410345663981], [9.15139820244596, 45.53709087058196], [9.154087532203317, 45.532934177689896], [9.156163366388597, 45.52860731845552], [9.160050050885031, 45.518903120162435], [9.161512548655615, 45.514361705246515], [9.162299609905375, 45.50973835196877], [9.162402973690407, 45.505082563970085], [9.161821702140562, 45.50044418005148], [9.160562183298978, 45.4958728406234], [9.158638055664868, 45.49141745679451], [9.156070055548785, 45.48712568776281], [9.152885789156976, 45.48304343206179], [9.149119432096402, 45.47921433804673], [9.140014489528593, 45.47090883437952], [9.13574458403081, 45.4674008535957], [9.130986726535859, 45.46421907032112], [9.125791016643946, 45.46139693706478], [9.120212132092615, 45.45896412044873], [9.114308754677928, 45.45694619107995], [9.108142955318286, 45.45536435638504], [9.101779544607478, 45.454235239132885], [9.091201049305024, 45.452758991684256], [9.084948311170482, 45.45211004434162], [9.078635164631633, 45.45189837244243], [9.072323140304372, 45.45212603917468], [9.06607375797249, 45.45279082564908], [9.059947931228713, 45.45388625237074], [9.0540053778141, 45.45540164195318], [9.048304041206308, 45.457322222484514], [9.042899528913898, 45.45962927057233], [9.03784457279474, 45.462300292719064], [9.033188516531897, 45.46530924331486], [9.013209310146426, 45.47955755649946], [9.008949991358568, 45.48291389291645], [9.00518783566866, 45.48655248517492], [9.001960488094545, 45.490437020157536], [8.99930027666901, 45.49452872261562], [8.997233886411637, 45.49878674084455], [8.995782088704393, 45.5031685533502], [8.994959528930616, 45.507630392506115], [8.99352430387118, 45.52038931125047]]]}}]", "centroid": "[{\"type\": \"Feature\", \"properties\": {}, \"geometry\": {\"type\": \"Point\", \"coordinates\": [9.076777575714138, 45.51134993529335]}}]", "Diesel High Quality": {"1": [{"Gestore": "DUE VELE S.N.C. DI LIGUORI FRANCO E C.", "Bandiera": "Q8", "Tipo impianto": "Autostradale", "Indirizzo": "Autostrada A4 TORINO-MILANO, Km. 121.705, dir. Ovest 20016", "Nome impianto": "PERO NORD", "Comune": "PERO", "idImpianto": 3816, "points": [{"type": "Feature", "properties": {}, "geometry": {"type": "Point", "coordinates": [9.06977653503418, 45.51360875909406]}}], "price": 2.209, "ultima_rilevazione": "13/04/2022 13:56:09"}, {"Gestore": "DUE VELE S.N.C. DI LIGUORI FRANCO E C.", "Bandiera": "Q8", "Tipo impianto": "Autostradale", "Indirizzo": "Autostrada A4 TORINO-MILANO, Km. 121.705, dir. Ovest 20016", "Nome impianto": "PERO NORD", "Comune": "PERO", "idImpianto": 3816, "points": [{"type": "Feature", "properties": {}, "geometry": {"type": "Point", "coordinates": [9.06977653503418, 45.51360875909406]}}], "price": 2.179, "ultima_rilevazione": "13/04/2022 13:56:09"}, {"Gestore": "NUOVA SIDAP  S.R.L.", "Bandiera": "Esso", "Tipo impianto": "Altro", "Indirizzo": "VIA ALCIDE DE GASPERI 1 20017", "Nome impianto": "Rho", "Comune": "RHO", "idImpianto": 43733, "points": [{"type": "Feature", "properties": {}, "geometry": {"type": "Point", "coordinates": [9.061585664749146, 45.52971514886303]}}], "price": 1.942, "ultima_rilevazione": "16/04/2022 08:30:12"}], "3": [{"Gestore": "GE.MAR. SRL", "Bandiera": "Q8", "Tipo impianto": "Autostradale", "Indirizzo": "Autostrada A4 TORINO-MILANO, Km. 119.25, dir. Est ", "Nome impianto": "RHO SUD", "Comune": "RHO", "idImpianto": 3928, "points": [{"type": "Feature", "properties": {}, "geometry": {"type": "Point", "coordinates": [9.040060937404633, 45.50970194291012]}}], "price": 2.099, "ultima_rilevazione": "13/04/2022 10:45:18"}, {"Gestore": "GE.MAR. SRL", "Bandiera": "Q8", "Tipo impianto": "Autostradale", "Indirizzo": "Autostrada A4 TORINO-MILANO, Km. 119.25, dir. Est ", "Nome impianto": "RHO SUD", "Comune": "RHO", "idImpianto": 3928, "points": [{"type": "Feature", "properties": {}, "geometry": {"type": "Point", "coordinates": [9.040060937404633, 45.50970194291012]}}], "price": 2.099, "ultima_rilevazione": "13/04/2022 10:45:18"}, {"Gestore": "NUOVA SIDAP  S.R.L.", "Bandiera": "Esso", "Tipo impianto": "Strada Statale", "Indirizzo": "11 Padana Superiore, Km. SNC, Nord 20019", "Nome impianto": "Settimo M.se", "Comune": "SETTIMO MILANESE", "idImpianto": 43739, "points": [{"type": "Feature", "properties": {}, "geometry": {"type": "Point", "coordinates": [9.05754566192627, 45.488861178032025]}}], "price": 1.952, "ultima_rilevazione": "14/04/2022 15:18:53"}, {"Gestore": "SERVIZI & GESTIONI ITALIA S.R.L.", "Bandiera": "Q8", "Tipo impianto": "Altro", "Indirizzo": "FZ. OSPIATE VIA REPUBBLICA 16 20021", "Nome impianto": "BOLLATE-FZ. OSPIATE VIA REPUBBLICA 16", "Comune": "BOLLATE", "idImpianto": 11699, "points": [{"type": "Feature", "properties": {}, "geometry": {"type": "Point", "coordinates": [9.105332186508122, 45.54173005746877]}}], "price": 2.069, "ultima_rilevazione": "16/04/2022 07:09:44"}, {"Gestore": "SERVIZI & GESTIONI ITALIA S.R.L.", "Bandiera": "Q8", "Tipo impianto": "Altro", "Indirizzo": "FZ. OSPIATE VIA REPUBBLICA 16 20021", "Nome impianto": "BOLLATE-FZ. OSPIATE VIA REPUBBLICA 16", "Comune": "BOLLATE", "idImpianto": 11699, "points": [{"type": "Feature", "properties": {}, "geometry": {"type": "Point", "coordinates": [9.105332186508122, 45.54173005746877]}}], "price": 2.119, "ultima_rilevazione": "16/04/2022 07:09:44"}, {"Gestore": "SERVIZI & GESTIONI ITALIA S.R.L.", "Bandiera": "Q8", "Tipo impianto": "Altro", "Indirizzo": "S.S. 11 KM 130+776  20019", "Nome impianto": "SETTIMO MILANESE S.S. 11 KM 130+776", "Comune": "SETTIMO MILANESE", "idImpianto": 24383, "points": [{"type": "Feature", "properties": {}, "geometry": {"type": "Point", "coordinates": [9.041356613491873, 45.49012202060383]}}], "price": 2.069, "ultima_rilevazione": "16/04/2022 07:09:45"}, {"Gestore": "SERVIZI & GESTIONI ITALIA S.R.L.", "Bandiera": "Q8", "Tipo impianto": "Altro", "Indirizzo": "S.S. 11 KM 130+776  20019", "Nome impianto": "SETTIMO MILANESE S.S. 11 KM 130+776", "Comune": "SETTIMO MILANESE", "idImpianto": 24383, "points": [{"type": "Feature", "properties": {}, "geometry": {"type": "Point", "coordinates": [9.041356613491873, 45.49012202060383]}}], "price": 2.099, "ultima_rilevazione": "16/04/2022 07:09:45"}, {"Gestore": "SERVIZI & GESTIONI ITALIA S.R.L.", "Bandiera": "Q8", "Tipo impianto": "Altro", "Indirizzo": "V.LE CERTOSA 228 20156", "Nome impianto": "MILANO-V.LE CERTOSA 228", "Comune": "MILANO", "idImpianto": 11701, "points": [{"type": "Feature", "properties": {}, "geometry": {"type": "Point", "coordinates": [9.13087014484404, 45.50007519935568]}}], "price": 2.079, "ultima_rilevazione": "16/04/2022 07:09:47"}, {"Gestore": "SERVIZI & GESTIONI ITALIA S.R.L.", "Bandiera": "Q8", "Tipo impianto": "Altro", "Indirizzo": "V.LE CERTOSA 228 20156", "Nome impianto": "MILANO-V.LE CERTOSA 228", "Comune": "MILANO", "idImpianto": 11701, "points": [{"type": "Feature", "properties": {}, "geometry": {"type": "Point", "coordinates": [9.13087014484404, 45.50007519935568]}}], "price": 2.099, "ultima_rilevazione": "16/04/2022 07:09:47"}, {"Gestore": "SERVIZI & GESTIONI ITALIA S.R.L.", "Bandiera": "Q8", "Tipo impianto": "Altro", "Indirizzo": "VIA NOVARA 391 20147", "Nome impianto": "MILANO - VIA NOVARA 391", "Comune": "MILANO", "idImpianto": 7260, "points": [{"type": "Feature", "properties": {}, "geometry": {"type": "Point", "coordinates": [9.088782372789067, 45.48313980009453]}}], "price": 2.079, "ultima_rilevazione": "16/04/2022 07:09:48"}, {"Gestore": "SERVIZI & GESTIONI ITALIA S.R.L.", "Bandiera": "Q8", "Tipo impianto": "Altro", "Indirizzo": "VIA NOVARA 391 20147", "Nome impianto": "MILANO - VIA NOVARA 391", "Comune": "MILANO", "idImpianto": 7260, "points": [{"type": "Feature", "properties": {}, "geometry": {"type": "Point", "coordinates": [9.088782372789067, 45.48313980009453]}}], "price": 2.109, "ultima_rilevazione": "16/04/2022 07:09:48"}, {"Gestore": "SERVIZI & GESTIONI ITALIA S.R.L.", "Bandiera": "Q8", "Tipo impianto": "Altro", "Indirizzo": "STRADA PROVINCIALE 11 - TANGENZIALINA KM 132+248 SN 20019", "Nome impianto": "SETTIMO MILANESE-SP11 TANGENZIALINA", "Comune": "SETTIMO MILANESE", "idImpianto": 7289, "points": [{"type": "Feature", "properties": {}, "geometry": {"type": "Point", "coordinates": [9.058144373016376, 45.49626476021985]}}], "price": 2.069, "ultima_rilevazione": "16/04/2022 07:09:49"}, {"Gestore": "SERVIZI & GESTIONI ITALIA S.R.L.", "Bandiera": "Q8", "Tipo impianto": "Altro", "Indirizzo": "STRADA PROVINCIALE 11 - TANGENZIALINA KM 132+248 SN 20019", "Nome impianto": "SETTIMO MILANESE-SP11 TANGENZIALINA", "Comune": "SETTIMO MILANESE", "idImpianto": 7289, "points": [{"type": "Feature", "properties": {}, "geometry": {"type": "Point", "coordinates": [9.058144373016376, 45.49626476021985]}}], "price": 2.099, "ultima_rilevazione": "16/04/2022 07:09:49"}, {"Gestore": "ET CAR SERVICE DI SAMMARCO EMILIANO", "Bandiera": "Q8", "Tipo impianto": "Altro", "Indirizzo": "VIALE DEI FONTANILI ang. Via Vallassa snc 20017", "Nome impianto": "ET CAR SERVICE SUD", "Comune": "RHO", "idImpianto": 46011, "points": [{"type": "Feature", "properties": {}, "geometry": {"type": "Point", "coordinates": [9.041621482519416, 45.51462320631299]}}], "price": 2.099, "ultima_rilevazione": "16/04/2022 07:23:42"}, {"Gestore": "ET CAR SERVICE DI SAMMARCO EMILIANO", "Bandiera": "Q8", "Tipo impianto": "Altro", "Indirizzo": "VIALE DEI FONTANILI ang. Via Vallassa snc 20017", "Nome impianto": "ET CAR SERVICE SUD", "Comune": "RHO", "idImpianto": 46011, "points": [{"type": "Feature", "properties": {}, "geometry": {"type": "Point", "coordinates": [9.041621482519416, 45.51462320631299]}}], "price": 2.089, "ultima_rilevazione": "16/04/2022 07:23:42"}, {"Gestore": "IP SERVICES S.R.L.", "Bandiera": "Api-Ip", "Tipo impianto": "Altro", "Indirizzo": "Via Novara 451/1 20153", "Nome impianto": "Milano Via Novara", "Comune": "MILANO", "idImpianto": 24021, "points": [{"type": "Feature", "properties": {}, "geometry": {"type": "Point", "coordinates": [9.080338598811297, 45.48597388961089]}}], "price": 1.759, "ultima_rilevazione": "16/04/2022 12:04:03"}, {"Gestore": "IP SERVICES S.R.L.", "Bandiera": "Api-Ip", "Tipo impianto": "Altro", "Indirizzo": "via Lainate ang. via Diaz  20017", "Nome impianto": "Rho via Lainate", "Comune": "RHO", "idImpianto": 36451, "points": [{"type": "Feature", "properties": {}, "geometry": {"type": "Point", "coordinates": [9.036739021539688, 45.53643383759013]}}], "price": 1.779, "ultima_rilevazione": "16/04/2022 12:04:56"}], "5": [{"Gestore": "NUOVA SIDAP  S.R.L.", "Bandiera": "Q8", "Tipo impianto": "Altro", "Indirizzo": "Via Sandro Pertini 331/11 20152", "Nome impianto": "MILANO PERTINI OIL", "Comune": "MILANO", "idImpianto": 45207, "points": [{"type": "Feature", "properties": {}, "geometry": {"type": "Point", "coordinates": [9.072222709655762, 45.45678067793206]}}], "price": 2.114, "ultima_rilevazione": "16/04/2022 07:24:05"}, {"Gestore": "NUOVA SIDAP  S.R.L.", "Bandiera": "Q8", "Tipo impianto": "Altro", "Indirizzo": "Via Sandro Pertini 331/11 20152", "Nome impianto": "MILANO PERTINI OIL", "Comune": "MILANO", "idImpianto": 45207, "points": [{"type": "Feature", "properties": {}, "geometry": {"type": "Point", "coordinates": [9.072222709655762, 45.45678067793206]}}], "price": 2.064, "ultima_rilevazione": "16/04/2022 07:24:05"}, {"Gestore": "SERVIZI & GESTIONI ITALIA S.R.L.", "Bandiera": "Q8", "Tipo impianto": "Altro", "Indirizzo": "VIA NOVARA 82 20147", "Nome impianto": "MILANO-VIA NOVARA 82", "Comune": "MILANO", "idImpianto": 11664, "points": [{"type": "Feature", "properties": {}, "geometry": {"type": "Point", "coordinates": [9.121613818454762, 45.47161880932868]}}], "price": 2.079, "ultima_rilevazione": "11/04/2022 00:34:26"}, {"Gestore": "SERVIZI & GESTIONI ITALIA S.R.L.", "Bandiera": "Q8", "Tipo impianto": "Altro", "Indirizzo": "VIA NOVARA 82 20147", "Nome impianto": "MILANO-VIA NOVARA 82", "Comune": "MILANO", "idImpianto": 11664, "points": [{"type": "Feature", "properties": {}, "geometry": {"type": "Point", "coordinates": [9.121613818454762, 45.47161880932868]}}], "price": 2.099, "ultima_rilevazione": "11/04/2022 00:34:26"}, {"Gestore": "SERVIZI & GESTIONI ITALIA S.R.L.", "Bandiera": "Q8", "Tipo impianto": "Altro", "Indirizzo": "SS. 33 DEL SEMPIONE KM.15+660 S/N 20017", "Nome impianto": "RHO-SS. 33 DEL SEMPIONE KM.15+660", "Comune": "RHO", "idImpianto": 11686, "points": [{"type": "Feature", "properties": {}, "geometry": {"type": "Point", "coordinates": [9.02422338161466, 45.540303757278025]}}], "price": 2.089, "ultima_rilevazione": "11/04/2022 00:34:31"}, {"Gestore": "SERVIZI & GESTIONI ITALIA S.R.L.", "Bandiera": "Q8", "Tipo impianto": "Altro", "Indirizzo": "SS. 33 DEL SEMPIONE KM.15+660 S/N 20017", "Nome impianto": "RHO-SS. 33 DEL SEMPIONE KM.15+660", "Comune": "RHO", "idImpianto": 11686, "points": [{"type": "Feature", "properties": {}, "geometry": {"type": "Point", "coordinates": [9.02422338161466, 45.540303757278025]}}], "price": 2.089, "ultima_rilevazione": "11/04/2022 00:34:31"}, {"Gestore": "EGI-2GO S.R.L.", "Bandiera": "Esso", "Tipo impianto": "Altro", "Indirizzo": "VIA PALATINO 1 20148", "Nome impianto": "EGI-2GO MI VIA PALATINO", "Comune": "MILANO", "idImpianto": 51317, "points": [{"type": "Feature", "properties": {}, "geometry": {"type": "Point", "coordinates": [9.131456999999989, 45.4762906691333]}}], "price": 1.949, "ultima_rilevazione": "14/04/2022 16:31:18"}, {"Gestore": "SERVIZI & GESTIONI ITALIA S.R.L.", "Bandiera": "Q8", "Tipo impianto": "Altro", "Indirizzo": "VIA AMORETTI S/N 20026", "Nome impianto": "NOVATE MILANESE-VIA AMORETTI", "Comune": "NOVATE MILANESE", "idImpianto": 11675, "points": [{"type": "Feature", "properties": {}, "geometry": {"type": "Point", "coordinates": [9.149742915344175, 45.52126013683692]}}], "price": 2.059, "ultima_rilevazione": "15/04/2022 07:08:01"}, {"Gestore": "SERVIZI & GESTIONI ITALIA S.R.L.", "Bandiera": "Q8", "Tipo impianto": "Altro", "Indirizzo": "VIA AMORETTI S/N 20026", "Nome impianto": "NOVATE MILANESE-VIA AMORETTI", "Comune": "NOVATE MILANESE", "idImpianto": 11675, "points": [{"type": "Feature", "properties": {}, "geometry": {"type": "Point", "coordinates": [9.149742915344175, 45.52126013683692]}}], "price": 2.039, "ultima_rilevazione": "15/04/2022 07:08:01"}, {"Gestore": "CALMAR S.A.S. DI MONASTRA CALOGERO & C.", "Bandiera": "Esso", "Tipo impianto": "Altro", "Indirizzo": "Milano viale certosa 2 2 20155", "Nome impianto": "CALMAR sas di monastra calogero & c.", "Comune": "MILANO", "idImpianto": 51184, "points": [{"type": "Feature", "properties": {}, "geometry": {"type": "Point", "coordinates": [9.154926511329018, 45.48882478994109]}}], "price": 1.996, "ultima_rilevazione": "15/04/2022 07:53:19"}, {"Gestore": "MONTAGNA GIULIO MAURO", "Bandiera": "Esso", "Tipo impianto": "Altro", "Indirizzo": "viale forze armate ang fratellill zoia 226 20152", "Nome impianto": "Esso", "Comune": "MILANO", "idImpianto": 49382, "points": [{"type": "Feature", "properties": {}, "geometry": {"type": "Point", "coordinates": [9.110602186508189, 45.46076376258973]}}], "price": 1.949, "ultima_rilevazione": "15/04/2022 08:02:16"}, {"Gestore": "MOHAMED ASHRAF", "Bandiera": "Esso", "Tipo impianto": "Altro", "Indirizzo": "via varesina 169 20156", "Nome impianto": "ESSO DI MOHAMED ASHRAF", "Comune": "MILANO", "idImpianto": 49381, "points": [{"type": "Feature", "properties": {}, "geometry": {"type": "Point", "coordinates": [9.13876233862311, 45.50303159364093]}}], "price": 1.989, "ultima_rilevazione": "15/04/2022 11:44:27"}, {"Gestore": "Nuova Sidap SRL", "Bandiera": "Q8", "Tipo impianto": "Autostradale", "Indirizzo": "Autostrada A8-A9 MILANO-LAGHI, Km. 7+600, dir. Nord 20020", "Nome impianto": "VILLORESI EST", "Comune": "LAINATE", "idImpianto": 3555, "points": [{"type": "Feature", "properties": {}, "geometry": {"type": "Point", "coordinates": [9.039123033065836, 45.55996995230018]}}], "price": 2.074, "ultima_rilevazione": "15/04/2022 14:30:25"}, {"Gestore": "Nuova Sidap SRL", "Bandiera": "Q8", "Tipo impianto": "Autostradale", "Indirizzo": "Autostrada A8-A9 MILANO-LAGHI, Km. 7+600, dir. Nord 20020", "Nome impianto": "VILLORESI EST", "Comune": "LAINATE", "idImpianto": 3555, "points": [{"type": "Feature", "properties": {}, "geometry": {"type": "Point", "coordinates": [9.039123033065836, 45.55996995230018]}}], "price": 2.124, "ultima_rilevazione": "15/04/2022 14:30:25"}, {"Gestore": "VUOTTI ANTONIO", "Bandiera": "Esso", "Tipo impianto": "Altro", "Indirizzo": "VIA DELLE FORZE ARMATE 189 20152", "Nome impianto": "Esso", "Comune": "MILANO", "idImpianto": 47900, "points": [{"type": "Feature", "properties": {}, "geometry": {"type": "Point", "coordinates": [9.11278631779098, 45.460115237367255]}}], "price": 1.889, "ultima_rilevazione": "15/04/2022 16:21:53"}, {"Gestore": "SERVIZI & GESTIONI ITALIA S.R.L.", "Bandiera": "Q8", "Tipo impianto": "Altro", "Indirizzo": "VIA ERITREA 71 20157", "Nome impianto": "MILANO VIA ERITREA, 71", "Comune": "MILANO", "idImpianto": 43279, "points": [{"type": "Feature", "properties": {}, "geometry": {"type": "Point", "coordinates": [9.136708201223428, 45.51261552152685]}}], "price": 2.119, "ultima_rilevazione": "16/04/2022 07:09:45"}, {"Gestore": "SERVIZI & GESTIONI ITALIA S.R.L.", "Bandiera": "Q8", "Tipo impianto": "Altro", "Indirizzo": "VIA DE GASPERI S/N 20151", "Nome impianto": "MILANO-VIA DE GASPERI", "Comune": "MILANO", "idImpianto": 11704, "points": [{"type": "Feature", "properties": {}, "geometry": {"type": "Point", "coordinates": [9.140903440475428, 45.48899555700437]}}], "price": 2.099, "ultima_rilevazione": "16/04/2022 07:09:48"}, {"Gestore": "SERVIZI & GESTIONI ITALIA S.R.L.", "Bandiera": "Q8", "Tipo impianto": "Altro", "Indirizzo": "VIA DE GASPERI S/N 20151", "Nome impianto": "MILANO-VIA DE GASPERI", "Comune": "MILANO", "idImpianto": 11704, "points": [{"type": "Feature", "properties": {}, "geometry": {"type": "Point", "coordinates": [9.140903440475428, 45.48899555700437]}}], "price": 2.099, "ultima_rilevazione": "16/04/2022 07:09:48"}, {"Gestore": "TORZINI LUCA", "Bandiera": "Q8", "Tipo impianto": "Altro", "Indirizzo": "VIA NOVARA 46 20147", "Nome impianto": "Stazione Rifornimento Q8 Torzini Luca", "Comune": "MILANO", "idImpianto": 13234, "points": [{"type": "Feature", "properties": {}, "geometry": {"type": "Point", "coordinates": [9.124655993219337, 45.46991993269708]}}], "price": 2.029, "ultima_rilevazione": "16/04/2022 08:16:36"}, {"Gestore": "IP SERVICES S.R.L.", "Bandiera": "Api-Ip", "Tipo impianto": "Altro", "Indirizzo": "VIA BRODOLINI 14 20026", "Nome impianto": "NOVATE MILANESE", "Comune": "NOVATE MILANESE", "idImpianto": 39752, "points": [{"type": "Feature", "properties": {}, "geometry": {"type": "Point", "coordinates": [9.146490320563316, 45.53384295647024]}}], "price": 1.739, "ultima_rilevazione": "16/04/2022 12:03:14"}, {"Gestore": "IP SERVICES S.R.L.", "Bandiera": "Api-Ip", "Tipo impianto": "Altro", "Indirizzo": "via Veniere ang. via Scarampo snc 20148", "Nome impianto": "Milano Veniere", "Comune": "MILANO", "idImpianto": 39036, "points": [{"type": "Feature", "properties": {}, "geometry": {"type": "Point", "coordinates": [9.147986993193626, 45.482792928406525]}}], "price": 1.759, "ultima_rilevazione": "16/04/2022 12:03:18"}, {"Gestore": "IP SERVICES S.R.L.", "Bandiera": "Api-Ip", "Tipo impianto": "Altro", "Indirizzo": "Via Trilussa 3 20157", "Nome impianto": "Milano Via Trilussa", "Comune": "MILANO", "idImpianto": 24668, "points": [{"type": "Feature", "properties": {}, "geometry": {"type": "Point", "coordinates": [9.137596786022186, 45.51461428840631]}}], "price": 1.784, "ultima_rilevazione": "16/04/2022 12:04:39"}]}, "Blue Diesel": {"1": [{"Gestore": "ENERGY FUEL S.R.L.", "Bandiera": "Agip Eni", "Tipo impianto": "Altro", "Indirizzo": "VIA FIGINO 41 20016", "Nome impianto": "ENERGY FUEL SRL ", "Comune": "PERO", "idImpianto": 32711, "points": [{"type": "Feature", "properties": {}, "geometry": {"type": "Point", "coordinates": [9.076453670534876, 45.50660862993045]}}], "price": 1.869, "ultima_rilevazione": "15/04/2022 07:02:22"}, {"Gestore": "ZAPPIA SARA", "Bandiera": "Agip Eni", "Tipo impianto": "Altro", "Indirizzo": "VIA PACE 58 20017", "Nome impianto": "STAZIONE DI SERVIZIO ENI", "Comune": "RHO", "idImpianto": 50557, "points": [{"type": "Feature", "properties": {}, "geometry": {"type": "Point", "coordinates": [9.057194292545311, 45.52911650922827]}}], "price": 1.904, "ultima_rilevazione": "15/04/2022 16:53:24"}, {"Gestore": "ENI FUEL S.P.A.", "Bandiera": "Agip Eni", "Tipo impianto": "Altro", "Indirizzo": "Strada Stat. Sempione 2/A 20016", "Nome impianto": "PERO ", "Comune": "PERO", "idImpianto": 5440, "points": [{"type": "Feature", "properties": {}, "geometry": {"type": "Point", "coordinates": [9.095755160713225, 45.50746804033977]}}], "price": 1.849, "ultima_rilevazione": "17/04/2022 00:14:04"}], "3": [{"Gestore": "ENERGY FUEL S.R.L.", "Bandiera": "Agip Eni", "Tipo impianto": "Strada Statale", "Indirizzo": "Statale 11 Padana Superiore, Km. 132, dir. novara 20019", "Nome impianto": "energy fuel srl", "Comune": "SETTIMO MILANESE", "idImpianto": 32712, "points": [{"type": "Feature", "properties": {}, "geometry": {"type": "Point", "coordinates": [9.057532846927645, 45.49646218580503]}}], "price": 1.869, "ultima_rilevazione": "15/04/2022 07:03:46"}, {"Gestore": "DE ZOLT PONTE SILVIO MARIO", "Bandiera": "Agip Eni", "Tipo impianto": "Altro", "Indirizzo": "VIA NOVARA 286 20153", "Nome impianto": "ENI 2194", "Comune": "MILANO", "idImpianto": 42445, "points": [{"type": "Feature", "properties": {}, "geometry": {"type": "Point", "coordinates": [9.101179093122482, 45.48025486800432]}}], "price": 1.869, "ultima_rilevazione": "15/04/2022 07:24:05"}, {"Gestore": "DE ZOLT PONTE SILVIO MARIO", "Bandiera": "Agip Eni", "Tipo impianto": "Altro", "Indirizzo": "VIA NOVARA 286 20153", "Nome impianto": "ENI 2194", "Comune": "MILANO", "idImpianto": 42445, "points": [{"type": "Feature", "properties": {}, "geometry": {"type": "Point", "coordinates": [9.101179093122482, 45.48025486800432]}}], "price": 1.949, "ultima_rilevazione": "15/04/2022 07:24:05"}, {"Gestore": "STEFANO CLAUDIO", "Bandiera": "Agip Eni", "Tipo impianto": "Altro", "Indirizzo": "VIA ITALIA 23 20017", "Nome impianto": "Eni di Stefano Claudio", "Comune": "RHO", "idImpianto": 36375, "points": [{"type": "Feature", "properties": {}, "geometry": {"type": "Point", "coordinates": [9.039467324536872, 45.52622836219744]}}], "price": 1.889, "ultima_rilevazione": "15/04/2022 07:31:17"}, {"Gestore": "ENI FUEL S.P.A.", "Bandiera": "Agip Eni", "Tipo impianto": "Altro", "Indirizzo": "GARIBALDI / BRERA  20010", "Nome impianto": "57560 \u2013 Cornaredo", "Comune": "CORNAREDO", "idImpianto": 49789, "points": [{"type": "Feature", "properties": {}, "geometry": {"type": "Point", "coordinates": [9.026622191118353, 45.49735782137639]}}], "price": 1.869, "ultima_rilevazione": "17/04/2022 00:16:08"}, {"Gestore": "ENI FUEL S.P.A.", "Bandiera": "Agip Eni", "Tipo impianto": "Altro", "Indirizzo": "GARIBALDI / BRERA  20010", "Nome impianto": "57560 \u2013 Cornaredo", "Comune": "CORNAREDO", "idImpianto": 49789, "points": [{"type": "Feature", "properties": {}, "geometry": {"type": "Point", "coordinates": [9.026622191118353, 45.49735782137639]}}], "price": 1.949, "ultima_rilevazione": "17/04/2022 00:16:08"}], "5": [{"Gestore": "SCALI ROSSELLA", "Bandiera": "Agip Eni", "Tipo impianto": "Altro", "Indirizzo": "via vialba 34 20026", "Nome impianto": "AGIP ", "Comune": "NOVATE MILANESE", "idImpianto": 11327, "points": [{"type": "Feature", "properties": {}, "geometry": {"type": "Point", "coordinates": [9.134978950023651, 45.5289443807462]}}], "price": 1.789, "ultima_rilevazione": "08/04/2022 08:06:21"}, {"Gestore": "SCALI ROSSELLA", "Bandiera": "Agip Eni", "Tipo impianto": "Altro", "Indirizzo": "via vialba 34 20026", "Nome impianto": "AGIP ", "Comune": "NOVATE MILANESE", "idImpianto": 11327, "points": [{"type": "Feature", "properties": {}, "geometry": {"type": "Point", "coordinates": [9.134978950023651, 45.5289443807462]}}], "price": 1.869, "ultima_rilevazione": "08/04/2022 08:06:21"}, {"Gestore": "SIMA PETROLI S.N.C. DI SOMMARUGA SIMONA ANNA & C.", "Bandiera": "Agip Eni", "Tipo impianto": "Altro", "Indirizzo": "VIA MONTE CENERI 10 20155", "Nome impianto": "SIMONA ANNA SOMMARUGA", "Comune": "MILANO", "idImpianto": 45870, "points": [{"type": "Feature", "properties": {}, "geometry": {"type": "Point", "coordinates": [9.156136000123, 45.493370000123]}}], "price": 1.909, "ultima_rilevazione": "15/04/2022 07:01:27"}, {"Gestore": "WAD S.A.S. DI D'AMATO DAVIDE & C.", "Bandiera": "Agip Eni", "Tipo impianto": "Altro", "Indirizzo": "VIA GALLARATE 40 20151", "Nome impianto": "wad s.a.s", "Comune": "MILANO", "idImpianto": 48395, "points": [{"type": "Feature", "properties": {}, "geometry": {"type": "Point", "coordinates": [9.138772588954923, 45.494919359535935]}}], "price": 1.869, "ultima_rilevazione": "15/04/2022 07:37:50"}, {"Gestore": "AUTOSERVICE LOTTO SRL", "Bandiera": "Agip Eni", "Tipo impianto": "Altro", "Indirizzo": "PIAZZALE LOTTO LORENZO 14 20148", "Nome impianto": "Autoservice Lotto srl", "Comune": "MILANO", "idImpianto": 9455, "points": [{"type": "Feature", "properties": {}, "geometry": {"type": "Point", "coordinates": [9.143325932339051, 45.480722585938246]}}], "price": 1.909, "ultima_rilevazione": "16/04/2022 07:30:50"}]}, "Benzina": {"1": [{"Gestore": "DUE VELE S.N.C. DI LIGUORI FRANCO E C.", "Bandiera": "Q8", "Tipo impianto": "Autostradale", "Indirizzo": "Autostrada A4 TORINO-MILANO, Km. 121.705, dir. Ovest 20016", "Nome impianto": "PERO NORD", "Comune": "PERO", "idImpianto": 3816, "points": [{"type": "Feature", "properties": {}, "geometry": {"type": "Point", "coordinates": [9.06977653503418, 45.51360875909406]}}], "price": 1.879, "ultima_rilevazione": "13/04/2022 13:56:09"}, {"Gestore": "BRITA S.A.S. DI D'AMATO DAVIDE & C.", "Bandiera": "OIL ONE", "Tipo impianto": "Altro", "Indirizzo": "VIA GALLARATE 417 20151", "Nome impianto": "OILONE", "Comune": "MILANO", "idImpianto": 18802, "points": [{"type": "Feature", "properties": {}, "geometry": {"type": "Point", "coordinates": [9.10411467909853, 45.50513991554254]}}], "price": 1.749, "ultima_rilevazione": "14/04/2022 08:13:23"}, {"Gestore": "ENERGY FUEL S.R.L.", "Bandiera": "Agip Eni", "Tipo impianto": "Altro", "Indirizzo": "VIA FIGINO 41 20016", "Nome impianto": "ENERGY FUEL SRL ", "Comune": "PERO", "idImpianto": 32711, "points": [{"type": "Feature", "properties": {}, "geometry": {"type": "Point", "coordinates": [9.076453670534876, 45.50660862993045]}}], "price": 1.799, "ultima_rilevazione": "15/04/2022 07:02:22"}, {"Gestore": "METANO PER AUTO SETTIMO MILANESE M.A.S. SRL", "Bandiera": "Pompe Bianche", "Tipo impianto": "Altro", "Indirizzo": "Via Gallarate 437 20151", "Nome impianto": "M.A.S. S.r.l.", "Comune": "MILANO", "idImpianto": 24317, "points": [{"type": "Feature", "properties": {}, "geometry": {"type": "Point", "coordinates": [9.096813797950745, 45.506485252405575]}}], "price": 1.749, "ultima_rilevazione": "15/04/2022 12:50:36"}, {"Gestore": "ZAPPIA SARA", "Bandiera": "Agip Eni", "Tipo impianto": "Altro", "Indirizzo": "VIA PACE 58 20017", "Nome impianto": "STAZIONE DI SERVIZIO ENI", "Comune": "RHO", "idImpianto": 50557, "points": [{"type": "Feature", "properties": {}, "geometry": {"type": "Point", "coordinates": [9.057194292545311, 45.52911650922827]}}], "price": 1.794, "ultima_rilevazione": "15/04/2022 16:53:24"}, {"Gestore": "SERVIZI & GESTIONI ITALIA S.R.L.", "Bandiera": "Q8", "Tipo impianto": "Altro", "Indirizzo": "VIA GALLARATE 400 20151", "Nome impianto": "MILANO-VIA GALLARATE 400", "Comune": "MILANO", "idImpianto": 11694, "points": [{"type": "Feature", "properties": {}, "geometry": {"type": "Point", "coordinates": [9.10516619682312, 45.50515304444358]}}], "price": 1.769, "ultima_rilevazione": "16/04/2022 01:34:22"}, {"Gestore": "SERVIZI & GESTIONI ITALIA S.R.L.", "Bandiera": "Q8", "Tipo impianto": "Altro", "Indirizzo": "VIA PISACANE 9/B 20016", "Nome impianto": "VIA PISACANE 9/B - PERO", "Comune": "PERO", "idImpianto": 27792, "points": [{"type": "Feature", "properties": {}, "geometry": {"type": "Point", "coordinates": [9.08890489325404, 45.506984215320095]}}], "price": 1.769, "ultima_rilevazione": "16/04/2022 01:34:23"}, {"Gestore": "ET CAR SERVICE DI SAMMARCO EMILIANO", "Bandiera": "Q8", "Tipo impianto": "Altro", "Indirizzo": "VIALE DEI FONTANILI SNC 20017", "Nome impianto": "ET CAR SERVICE DI SAMMARCO EMILIANO", "Comune": "RHO", "idImpianto": 10515, "points": [{"type": "Feature", "properties": {}, "geometry": {"type": "Point", "coordinates": [9.04581935707779, 45.515450649237735]}}], "price": 1.789, "ultima_rilevazione": "16/04/2022 07:22:23"}, {"Gestore": "NUOVA SIDAP  S.R.L.", "Bandiera": "Esso", "Tipo impianto": "Altro", "Indirizzo": "VIA ALCIDE DE GASPERI 1 20017", "Nome impianto": "Rho", "Comune": "RHO", "idImpianto": 43733, "points": [{"type": "Feature", "properties": {}, "geometry": {"type": "Point", "coordinates": [9.061585664749146, 45.52971514886303]}}], "price": 1.802, "ultima_rilevazione": "16/04/2022 08:30:12"}, {"Gestore": "ENI FUEL S.P.A.", "Bandiera": "Agip Eni", "Tipo impianto": "Altro", "Indirizzo": "Strada Stat. Sempione 2/A 20016", "Nome impianto": "PERO ", "Comune": "PERO", "idImpianto": 5440, "points": [{"type": "Feature", "properties": {}, "geometry": {"type": "Point", "coordinates": [9.095755160713225, 45.50746804033977]}}], "price": 1.799, "ultima_rilevazione": "17/04/2022 00:14:04"}], "3": [{"Gestore": "GE.MAR. SRL", "Bandiera": "Q8", "Tipo impianto": "Autostradale", "Indirizzo": "Autostrada A4 TORINO-MILANO, Km. 119.25, dir. Est ", "Nome impianto": "RHO SUD", "Comune": "RHO", "idImpianto": 3928, "points": [{"type": "Feature", "properties": {}, "geometry": {"type": "Point", "coordinates": [9.040060937404633, 45.50970194291012]}}], "price": 1.799, "ultima_rilevazione": "13/04/2022 10:45:18"}, {"Gestore": "NUOVA SIDAP  S.R.L.", "Bandiera": "Esso", "Tipo impianto": "Strada Statale", "Indirizzo": "11 Padana Superiore, Km. SNC, Nord 20019", "Nome impianto": "Settimo M.se", "Comune": "SETTIMO MILANESE", "idImpianto": 43739, "points": [{"type": "Feature", "properties": {}, "geometry": {"type": "Point", "coordinates": [9.05754566192627, 45.488861178032025]}}], "price": 1.802, "ultima_rilevazione": "14/04/2022 15:18:53"}, {"Gestore": "OMAR SNC DI FONTANA RACHELE & MORSHEDY KHALIL", "Bandiera": "Esso", "Tipo impianto": "Altro", "Indirizzo": "VIA NOVARA 342 20153", "Nome impianto": "OMAR SNC DI FONTANA RACHELE & MORSHEDY KHALIL", "Comune": "MILANO", "idImpianto": 29436, "points": [{"type": "Feature", "properties": {}, "geometry": {"type": "Point", "coordinates": [9.094179403179965, 45.4821880049466]}}], "price": 1.799, "ultima_rilevazione": "14/04/2022 19:08:00"}, {"Gestore": "ENERGY FUEL S.R.L.", "Bandiera": "Agip Eni", "Tipo impianto": "Strada Statale", "Indirizzo": "Statale 11 Padana Superiore, Km. 132, dir. novara 20019", "Nome impianto": "energy fuel srl", "Comune": "SETTIMO MILANESE", "idImpianto": 32712, "points": [{"type": "Feature", "properties": {}, "geometry": {"type": "Point", "coordinates": [9.057532846927645, 45.49646218580503]}}], "price": 1.799, "ultima_rilevazione": "15/04/2022 07:03:46"}, {"Gestore": "DE ZOLT PONTE SILVIO MARIO", "Bandiera": "Agip Eni", "Tipo impianto": "Altro", "Indirizzo": "VIA NOVARA 286 20153", "Nome impianto": "ENI 2194", "Comune": "MILANO", "idImpianto": 42445, "points": [{"type": "Feature", "properties": {}, "geometry": {"type": "Point", "coordinates": [9.101179093122482, 45.48025486800432]}}], "price": 1.799, "ultima_rilevazione": "15/04/2022 07:24:05"}, {"Gestore": "STEFANO CLAUDIO", "Bandiera": "Agip Eni", "Tipo impianto": "Altro", "Indirizzo": "VIA ITALIA 23 20017", "Nome impianto": "Eni di Stefano Claudio", "Comune": "RHO", "idImpianto": 36375, "points": [{"type": "Feature", "properties": {}, "geometry": {"type": "Point", "coordinates": [9.039467324536872, 45.52622836219744]}}], "price": 1.799, "ultima_rilevazione": "15/04/2022 07:31:17"}, {"Gestore": "ENIL SERVICE DI MYRTAJ KASTRIOT", "Bandiera": "Retitalia", "Tipo impianto": "Altro", "Indirizzo": "CORSO EUROPA 255 20017", "Nome impianto": "RETITALIA", "Comune": "RHO", "idImpianto": 51333, "points": [{"type": "Feature", "properties": {}, "geometry": {"type": "Point", "coordinates": [9.032077557564092, 45.53330877054567]}}], "price": 1.719, "ultima_rilevazione": "15/04/2022 16:15:00"}, {"Gestore": "SERVIZI & GESTIONI ITALIA S.R.L.", "Bandiera": "Q8", "Tipo impianto": "Altro", "Indirizzo": "VIA FALZAREGO S/N 20021", "Nome impianto": "BARANZATE-VIA FALZAREGO", "Comune": "BARANZATE", "idImpianto": 11713, "points": [{"type": "Feature", "properties": {}, "geometry": {"type": "Point", "coordinates": [9.106058031320572, 45.53447218144471]}}], "price": 1.799, "ultima_rilevazione": "16/04/2022 01:34:18"}, {"Gestore": "SERVIZI & GESTIONI ITALIA S.R.L.", "Bandiera": "Q8", "Tipo impianto": "Altro", "Indirizzo": "VIA CECHOV 44 20151", "Nome impianto": "MILANO-VIA CECHOV 44", "Comune": "MILANO", "idImpianto": 11702, "points": [{"type": "Feature", "properties": {}, "geometry": {"type": "Point", "coordinates": [9.113351720237688, 45.49525381995993]}}], "price": 1.769, "ultima_rilevazione": "16/04/2022 01:34:22"}, {"Gestore": "SERVIZI & GESTIONI ITALIA S.R.L.", "Bandiera": "Q8", "Tipo impianto": "Altro", "Indirizzo": "FZ. OSPIATE VIA REPUBBLICA 16 20021", "Nome impianto": "BOLLATE-FZ. OSPIATE VIA REPUBBLICA 16", "Comune": "BOLLATE", "idImpianto": 11699, "points": [{"type": "Feature", "properties": {}, "geometry": {"type": "Point", "coordinates": [9.105332186508122, 45.54173005746877]}}], "price": 1.819, "ultima_rilevazione": "16/04/2022 07:09:44"}, {"Gestore": "SERVIZI & GESTIONI ITALIA S.R.L.", "Bandiera": "Q8", "Tipo impianto": "Altro", "Indirizzo": "S.S. 11 KM 130+776  20019", "Nome impianto": "SETTIMO MILANESE S.S. 11 KM 130+776", "Comune": "SETTIMO MILANESE", "idImpianto": 24383, "points": [{"type": "Feature", "properties": {}, "geometry": {"type": "Point", "coordinates": [9.041356613491873, 45.49012202060383]}}], "price": 1.799, "ultima_rilevazione": "16/04/2022 07:09:45"}, {"Gestore": "SERVIZI & GESTIONI ITALIA S.R.L.", "Bandiera": "Q8", "Tipo impianto": "Altro", "Indirizzo": "V.LE CERTOSA 228 20156", "Nome impianto": "MILANO-V.LE CERTOSA 228", "Comune": "MILANO", "idImpianto": 11701, "points": [{"type": "Feature", "properties": {}, "geometry": {"type": "Point", "coordinates": [9.13087014484404, 45.50007519935568]}}], "price": 1.799, "ultima_rilevazione": "16/04/2022 07:09:47"}, {"Gestore": "SERVIZI & GESTIONI ITALIA S.R.L.", "Bandiera": "Q8", "Tipo impianto": "Altro", "Indirizzo": "VIA NOVARA 391 20147", "Nome impianto": "MILANO - VIA NOVARA 391", "Comune": "MILANO", "idImpianto": 7260, "points": [{"type": "Feature", "properties": {}, "geometry": {"type": "Point", "coordinates": [9.088782372789067, 45.48313980009453]}}], "price": 1.809, "ultima_rilevazione": "16/04/2022 07:09:48"}, {"Gestore": "SERVIZI & GESTIONI ITALIA S.R.L.", "Bandiera": "Q8", "Tipo impianto": "Altro", "Indirizzo": "STRADA PROVINCIALE 11 - TANGENZIALINA KM 132+248 SN 20019", "Nome impianto": "SETTIMO MILANESE-SP11 TANGENZIALINA", "Comune": "SETTIMO MILANESE", "idImpianto": 7289, "points": [{"type": "Feature", "properties": {}, "geometry": {"type": "Point", "coordinates": [9.058144373016376, 45.49626476021985]}}], "price": 1.799, "ultima_rilevazione": "16/04/2022 07:09:49"}, {"Gestore": "PRINELLI SANTINA", "Bandiera": "Esso", "Tipo impianto": "Altro", "Indirizzo": "VIA PANZERI 35 20019", "Nome impianto": "Esso Prinelli", "Comune": "SETTIMO MILANESE", "idImpianto": 22039, "points": [{"type": "Feature", "properties": {}, "geometry": {"type": "Point", "coordinates": [9.049645811319351, 45.489553886670535]}}], "price": 1.802, "ultima_rilevazione": "16/04/2022 07:18:00"}, {"Gestore": "ET CAR SERVICE DI SAMMARCO EMILIANO", "Bandiera": "Q8", "Tipo impianto": "Altro", "Indirizzo": "VIALE DEI FONTANILI ang. Via Vallassa snc 20017", "Nome impianto": "ET CAR SERVICE SUD", "Comune": "RHO", "idImpianto": 46011, "points": [{"type": "Feature", "properties": {}, "geometry": {"type": "Point", "coordinates": [9.041621482519416, 45.51462320631299]}}], "price": 1.789, "ultima_rilevazione": "16/04/2022 07:23:42"}, {"Gestore": "ESSO DI MARCHETTO GIANFRANCO", "Bandiera": "Esso", "Tipo impianto": "Altro", "Indirizzo": "VIA GALLARATE 392 20151", "Nome impianto": "ESSO di Marchetto Gianfranco", "Comune": "MILANO", "idImpianto": 21197, "points": [{"type": "Feature", "properties": {}, "geometry": {"type": "Point", "coordinates": [9.1065073584748, 45.50488064752391]}}], "price": 1.769, "ultima_rilevazione": "16/04/2022 07:43:01"}, {"Gestore": "IP SERVICES S.R.L.", "Bandiera": "Api-Ip", "Tipo impianto": "Altro", "Indirizzo": "VIA MILANO 75 20021", "Nome impianto": "MI BOLLATE", "Comune": "BOLLATE", "idImpianto": 17687, "points": [{"type": "Feature", "properties": {}, "geometry": {"type": "Point", "coordinates": [9.104994635581988, 45.53660751505031]}}], "price": 1.779, "ultima_rilevazione": "16/04/2022 12:02:48"}, {"Gestore": "IP SERVICES S.R.L.", "Bandiera": "Api-Ip", "Tipo impianto": "Altro", "Indirizzo": "Via Novara 451/1 20153", "Nome impianto": "Milano Via Novara", "Comune": "MILANO", "idImpianto": 24021, "points": [{"type": "Feature", "properties": {}, "geometry": {"type": "Point", "coordinates": [9.080338598811297, 45.48597388961089]}}], "price": 1.799, "ultima_rilevazione": "16/04/2022 12:04:03"}, {"Gestore": "IP SERVICES S.R.L.", "Bandiera": "Api-Ip", "Tipo impianto": "Altro", "Indirizzo": "via Lainate ang. via Diaz  20017", "Nome impianto": "Rho via Lainate", "Comune": "RHO", "idImpianto": 36451, "points": [{"type": "Feature", "properties": {}, "geometry": {"type": "Point", "coordinates": [9.036739021539688, 45.53643383759013]}}], "price": 1.739, "ultima_rilevazione": "16/04/2022 12:04:56"}, {"Gestore": "T.D.M. S.R.L.", "Bandiera": "Tamoil", "Tipo impianto": "Altro", "Indirizzo": "Via Uruguay angolo Via delle Ande  4 20151", "Nome impianto": "2391", "Comune": "MILANO", "idImpianto": 33859, "points": [{"type": "Feature", "properties": {}, "geometry": {"type": "Point", "coordinates": [9.124250047885198, 45.49462245388579]}}], "price": 1.769, "ultima_rilevazione": "16/04/2022 13:04:07"}, {"Gestore": "T.D.M. S.R.L.", "Bandiera": "Tamoil", "Tipo impianto": "Altro", "Indirizzo": "Via Grassi  20157", "Nome impianto": "8053", "Comune": "MILANO", "idImpianto": 35639, "points": [{"type": "Feature", "properties": {}, "geometry": {"type": "Point", "coordinates": [9.128024652600288, 45.51190589544868]}}], "price": 1.789, "ultima_rilevazione": "16/04/2022 13:06:11"}, {"Gestore": "ENI FUEL S.P.A.", "Bandiera": "Agip Eni", "Tipo impianto": "Altro", "Indirizzo": "GARIBALDI / BRERA  20010", "Nome impianto": "57560 \u2013 Cornaredo", "Comune": "CORNAREDO", "idImpianto": 49789, "points": [{"type": "Feature", "properties": {}, "geometry": {"type": "Point", "coordinates": [9.026622191118353, 45.49735782137639]}}], "price": 1.799, "ultima_rilevazione": "17/04/2022 00:16:08"}], "5": [{"Gestore": "VIRCIGLIO ROBERTO", "Bandiera": "Tamoil", "Tipo impianto": "Altro", "Indirizzo": "VIA VARESINA 16 20156", "Nome impianto": "TAMOIL", "Comune": "MILANO", "idImpianto": 26585, "points": [{"type": "Feature", "properties": {}, "geometry": {"type": "Point", "coordinates": [9.147988682548304, 45.49524914690538]}}], "price": 2.0, "ultima_rilevazione": "16/12/2021 11:16:10"}, {"Gestore": "MEOLA CHIARA MARIA", "Bandiera": "Sommese Petroli", "Tipo impianto": "Altro", "Indirizzo": "piazzale santorre di santarosa 2 20156", "Nome impianto": "POMPA BIANCA", "Comune": "MILANO", "idImpianto": 29891, "points": [{"type": "Feature", "properties": {}, "geometry": {"type": "Point", "coordinates": [9.13970558619326, 45.50035452509578]}}], "price": 1.969, "ultima_rilevazione": "03/03/2022 19:03:43"}, {"Gestore": "SCALI ROSSELLA", "Bandiera": "Agip Eni", "Tipo impianto": "Altro", "Indirizzo": "via vialba 34 20026", "Nome impianto": "AGIP ", "Comune": "NOVATE MILANESE", "idImpianto": 11327, "points": [{"type": "Feature", "properties": {}, "geometry": {"type": "Point", "coordinates": [9.134978950023651, 45.5289443807462]}}], "price": 1.789, "ultima_rilevazione": "08/04/2022 08:06:21"}, {"Gestore": "SERVIZI & GESTIONI ITALIA S.R.L.", "Bandiera": "Q8", "Tipo impianto": "Altro", "Indirizzo": "VIA S.GIUSTO 66 20153", "Nome impianto": "MILANO VIA S.GIUSTO 66", "Comune": "MILANO", "idImpianto": 8725, "points": [{"type": "Feature", "properties": {}, "geometry": {"type": "Point", "coordinates": [9.11729386686477, 45.47182559595421]}}], "price": 1.789, "ultima_rilevazione": "11/04/2022 00:34:24"}, {"Gestore": "SERVIZI & GESTIONI ITALIA S.R.L.", "Bandiera": "Q8", "Tipo impianto": "Altro", "Indirizzo": "VIA NOVARA 82 20147", "Nome impianto": "MILANO-VIA NOVARA 82", "Comune": "MILANO", "idImpianto": 11664, "points": [{"type": "Feature", "properties": {}, "geometry": {"type": "Point", "coordinates": [9.121613818454762, 45.47161880932868]}}], "price": 1.799, "ultima_rilevazione": "11/04/2022 00:34:26"}, {"Gestore": "SERVIZI & GESTIONI ITALIA S.R.L.", "Bandiera": "Q8", "Tipo impianto": "Altro", "Indirizzo": "SS. 33 DEL SEMPIONE KM.15+660 S/N 20017", "Nome impianto": "RHO-SS. 33 DEL SEMPIONE KM.15+660", "Comune": "RHO", "idImpianto": 11686, "points": [{"type": "Feature", "properties": {}, "geometry": {"type": "Point", "coordinates": [9.02422338161466, 45.540303757278025]}}], "price": 1.789, "ultima_rilevazione": "11/04/2022 00:34:31"}, {"Gestore": "CUSITEX DI CIRRINCIONE DOMENICO E C. S.N.C.", "Bandiera": "Esso", "Tipo impianto": "Altro", "Indirizzo": "VIA G. VERDI  20021", "Nome impianto": "via verdi", "Comune": "BOLLATE", "idImpianto": 8741, "points": [{"type": "Feature", "properties": {}, "geometry": {"type": "Point", "coordinates": [9.112526178359984, 45.54750564381035]}}], "price": 1.776, "ultima_rilevazione": "11/04/2022 06:45:28"}, {"Gestore": "MC SERVIZI S.A.S. DI FERTONANI CHIARA E C.", "Bandiera": "Api-Ip", "Tipo impianto": "Altro", "Indirizzo": "VIA PER PASSIRANA   20020", "Nome impianto": "MC SERVIZI SAS", "Comune": "ARESE", "idImpianto": 37165, "points": [{"type": "Feature", "properties": {}, "geometry": {"type": "Point", "coordinates": [9.052507728338242, 45.55435987700847]}}], "price": 1.862, "ultima_rilevazione": "11/04/2022 10:50:19"}, {"Gestore": "SERVIZI & GESTIONI ITALIA srl", "Bandiera": "Q8", "Tipo impianto": "Altro", "Indirizzo": "VIA BOVISASCA SNC 20026", "Nome impianto": "NOVATE VIA BOVISASCA", "Comune": "NOVATE MILANESE", "idImpianto": 6440, "points": [{"type": "Feature", "properties": {}, "geometry": {"type": "Point", "coordinates": [9.150898711045102, 45.5207109449471]}}], "price": 1.699, "ultima_rilevazione": "11/04/2022 14:04:40"}, {"Gestore": "villoresi di vitale gaetano &c. snc", "Bandiera": "Esso", "Tipo impianto": "Autostradale", "Indirizzo": "Autostrada A8-A9 MILANO-LAGHI, Km. 7+600, dir. Sud 20020", "Nome impianto": "VILLORESI OVEST", "Comune": "LAINATE", "idImpianto": 3927, "points": [{"type": "Feature", "properties": {}, "geometry": {"type": "Point", "coordinates": [9.04014393386842, 45.55834880837939]}}], "price": 1.967, "ultima_rilevazione": "14/04/2022 09:00:12"}, {"Gestore": "CORNAREDO CARBURANTI S.R.L.", "Bandiera": "Repsol", "Tipo impianto": "Altro", "Indirizzo": "VIA MERENDI SNC 20010", "Nome impianto": "S/S CORNAREDO CARBURANTI S.R.L. - Cornaredo", "Comune": "CORNAREDO", "idImpianto": 7169, "points": [{"type": "Feature", "properties": {}, "geometry": {"type": "Point", "coordinates": [9.036147594451904, 45.47837193539868]}}], "price": 1.799, "ultima_rilevazione": "14/04/2022 10:42:20"}, {"Gestore": "EGI-2GO S.R.L.", "Bandiera": "Esso", "Tipo impianto": "Altro", "Indirizzo": "VIA PALATINO 1 20148", "Nome impianto": "EGI-2GO MI VIA PALATINO", "Comune": "MILANO", "idImpianto": 51317, "points": [{"type": "Feature", "properties": {}, "geometry": {"type": "Point", "coordinates": [9.131456999999989, 45.4762906691333]}}], "price": 1.799, "ultima_rilevazione": "14/04/2022 16:31:18"}, {"Gestore": "NUOVA SIDAP  S.R.L.", "Bandiera": "Esso", "Tipo impianto": "Autostradale", "Indirizzo": "A4 MILANO-BRESCIA, Km. 3,5, Ovest 20026", "Nome impianto": "NOVATE NORD", "Comune": "NOVATE MILANESE", "idImpianto": 43747, "points": [{"type": "Feature", "properties": {}, "geometry": {"type": "Point", "coordinates": [9.14892315864563, 45.52995078468612]}}], "price": 1.772, "ultima_rilevazione": "14/04/2022 17:00:23"}, {"Gestore": "SIMA PETROLI S.N.C. DI SOMMARUGA SIMONA ANNA & C.", "Bandiera": "Agip Eni", "Tipo impianto": "Altro", "Indirizzo": "VIA MONTE CENERI 10 20155", "Nome impianto": "SIMONA ANNA SOMMARUGA", "Comune": "MILANO", "idImpianto": 45870, "points": [{"type": "Feature", "properties": {}, "geometry": {"type": "Point", "coordinates": [9.156136000123, 45.493370000123]}}], "price": 1.789, "ultima_rilevazione": "15/04/2022 07:01:27"}, {"Gestore": "SERVIZI & GESTIONI ITALIA S.R.L.", "Bandiera": "Q8", "Tipo impianto": "Altro", "Indirizzo": "VIA AMORETTI S/N 20026", "Nome impianto": "NOVATE MILANESE-VIA AMORETTI", "Comune": "NOVATE MILANESE", "idImpianto": 11675, "points": [{"type": "Feature", "properties": {}, "geometry": {"type": "Point", "coordinates": [9.149742915344175, 45.52126013683692]}}], "price": 1.739, "ultima_rilevazione": "15/04/2022 07:08:01"}, {"Gestore": "WAD S.A.S. DI D'AMATO DAVIDE & C.", "Bandiera": "Agip Eni", "Tipo impianto": "Altro", "Indirizzo": "VIA GALLARATE 40 20151", "Nome impianto": "wad s.a.s", "Comune": "MILANO", "idImpianto": 48395, "points": [{"type": "Feature", "properties": {}, "geometry": {"type": "Point", "coordinates": [9.138772588954923, 45.494919359535935]}}], "price": 1.799, "ultima_rilevazione": "15/04/2022 07:37:50"}, {"Gestore": "ESSO SERVICE S.A.S. DI STELLUTI DANIELE & C.", "Bandiera": "Esso", "Tipo impianto": "Altro", "Indirizzo": "Via Giuseppe Garibaldi 132 20024", "Nome impianto": "Esso", "Comune": "GARBAGNATE MILANESE", "idImpianto": 42136, "points": [{"type": "Feature", "properties": {}, "geometry": {"type": "Point", "coordinates": [9.076157453967426, 45.56543979927998]}}], "price": 1.789, "ultima_rilevazione": "15/04/2022 07:43:51"}, {"Gestore": "CALMAR S.A.S. DI MONASTRA CALOGERO & C.", "Bandiera": "Esso", "Tipo impianto": "Altro", "Indirizzo": "Milano viale certosa 2 2 20155", "Nome impianto": "CALMAR sas di monastra calogero & c.", "Comune": "MILANO", "idImpianto": 51184, "points": [{"type": "Feature", "properties": {}, "geometry": {"type": "Point", "coordinates": [9.154926511329018, 45.48882478994109]}}], "price": 1.816, "ultima_rilevazione": "15/04/2022 07:53:19"}, {"Gestore": "CARONNI LAURA", "Bandiera": "Api-Ip", "Tipo impianto": "Altro", "Indirizzo": "VIALE DELLA REPUBBLICA 113 20010", "Nome impianto": "IP", "Comune": "CORNAREDO", "idImpianto": 9825, "points": [{"type": "Feature", "properties": {}, "geometry": {"type": "Point", "coordinates": [9.020634635581928, 45.49914899940036]}}], "price": 1.924, "ultima_rilevazione": "15/04/2022 07:57:45"}, {"Gestore": "MONTAGNA GIULIO MAURO", "Bandiera": "Esso", "Tipo impianto": "Altro", "Indirizzo": "viale forze armate ang fratellill zoia 226 20152", "Nome impianto": "Esso", "Comune": "MILANO", "idImpianto": 49382, "points": [{"type": "Feature", "properties": {}, "geometry": {"type": "Point", "coordinates": [9.110602186508189, 45.46076376258973]}}], "price": 1.759, "ultima_rilevazione": "15/04/2022 08:02:16"}, {"Gestore": "GALLI MARIO", "Bandiera": "Api-Ip", "Tipo impianto": "Altro", "Indirizzo": "VIA PER CORNAREDO   2 20010", "Nome impianto": "ITALIANA PETROLI DI GALLI MARIO", "Comune": "PREGNANA MILANESE", "idImpianto": 4811, "points": [{"type": "Feature", "properties": {}, "geometry": {"type": "Point", "coordinates": [9.013562875082355, 45.51129001073932]}}], "price": 2.0, "ultima_rilevazione": "15/04/2022 08:41:05"}, {"Gestore": "MATTA FRANCESCO", "Bandiera": "Api-Ip", "Tipo impianto": "Altro", "Indirizzo": "VIA ANTONIO SANT'ELIA  3 20148", "Nome impianto": "IP SANT'ELIA", "Comune": "MILANO", "idImpianto": 48957, "points": [{"type": "Feature", "properties": {}, "geometry": {"type": "Point", "coordinates": [9.130037800853708, 45.48545304043279]}}], "price": 1.749, "ultima_rilevazione": "15/04/2022 16:41:32"}, {"Gestore": "MOHAMED ASHRAF", "Bandiera": "Esso", "Tipo impianto": "Altro", "Indirizzo": "via varesina 169 20156", "Nome impianto": "ESSO DI MOHAMED ASHRAF", "Comune": "MILANO", "idImpianto": 49381, "points": [{"type": "Feature", "properties": {}, "geometry": {"type": "Point", "coordinates": [9.13876233862311, 45.50303159364093]}}], "price": 1.799, "ultima_rilevazione": "15/04/2022 11:44:27"}, {"Gestore": "HYDRO CAR - S.R.L.", "Bandiera": "Socogas", "Tipo impianto": "Altro", "Indirizzo": "VIA CARLO AMORETTI  93 20157", "Nome impianto": "HYDRO CAR SRL", "Comune": "MILANO", "idImpianto": 47681, "points": [{"type": "Feature", "properties": {}, "geometry": {"type": "Point", "coordinates": [9.148152916455397, 45.52109863317232]}}], "price": 1.729, "ultima_rilevazione": "15/04/2022 13:50:23"}, {"Gestore": "Nuova Sidap SRL", "Bandiera": "Q8", "Tipo impianto": "Autostradale", "Indirizzo": "Autostrada A8-A9 MILANO-LAGHI, Km. 7+600, dir. Nord 20020", "Nome impianto": "VILLORESI EST", "Comune": "LAINATE", "idImpianto": 3555, "points": [{"type": "Feature", "properties": {}, "geometry": {"type": "Point", "coordinates": [9.039123033065836, 45.55996995230018]}}], "price": 1.774, "ultima_rilevazione": "15/04/2022 14:30:25"}, {"Gestore": "GHULAM PAK DI ANWAR SAEED & C. S.A.S.", "Bandiera": "Esso", "Tipo impianto": "Altro", "Indirizzo": "S.S.33 DEL SEMPIONE, KM.16+030  20017", "Nome impianto": "GHULAM PAK", "Comune": "RHO", "idImpianto": 24279, "points": [{"type": "Feature", "properties": {}, "geometry": {"type": "Point", "coordinates": [9.019233584403992, 45.54109280194033]}}], "price": 1.719, "ultima_rilevazione": "15/04/2022 14:34:47"}, {"Gestore": "GONELLA IVANO", "Bandiera": "Api-Ip", "Tipo impianto": "Altro", "Indirizzo": "PIAZZALE SEGESTA ANG. VIA STRATICO 2 20148", "Nome impianto": "TOTAL ERG di IVANO GONELLA", "Comune": "MILANO", "idImpianto": 30934, "points": [{"type": "Feature", "properties": {}, "geometry": {"type": "Point", "coordinates": [9.136851909437496, 45.47616802144962]}}], "price": 1.769, "ultima_rilevazione": "15/04/2022 15:45:52"}, {"Gestore": "VUOTTI ANTONIO", "Bandiera": "Agip Eni", "Tipo impianto": "Altro", "Indirizzo": "VIA ERITREA 65 20157", "Nome impianto": "Eni", "Comune": "MILANO", "idImpianto": 45219, "points": [{"type": "Feature", "properties": {}, "geometry": {"type": "Point", "coordinates": [9.13694977760315, 45.511988580308376]}}], "price": 1.794, "ultima_rilevazione": "15/04/2022 16:20:01"}, {"Gestore": "VUOTTI ANTONIO", "Bandiera": "Esso", "Tipo impianto": "Altro", "Indirizzo": "VIA DELLE FORZE ARMATE 189 20152", "Nome impianto": "Esso", "Comune": "MILANO", "idImpianto": 47900, "points": [{"type": "Feature", "properties": {}, "geometry": {"type": "Point", "coordinates": [9.11278631779098, 45.460115237367255]}}], "price": 1.769, "ultima_rilevazione": "15/04/2022 16:21:53"}, {"Gestore": "S.I.A. ENGINEERING CONSTRUCTION S.R.L.", "Bandiera": "Sia fuel", "Tipo impianto": "Altro", "Indirizzo": "Via Bovisasca  201 20157", "Nome impianto": "Sia Fuel Bovisasca", "Comune": "MILANO", "idImpianto": 39504, "points": [{"type": "Feature", "properties": {}, "geometry": {"type": "Point", "coordinates": [9.154344977107256, 45.518404587624445]}}], "price": 1.789, "ultima_rilevazione": "15/04/2022 16:59:23"}, {"Gestore": "SERVIZI E GESTIONI ZENIT S.R.L. IN SIGLA - ZENIT S.R.L.", "Bandiera": "Esso", "Tipo impianto": "Altro", "Indirizzo": "VIA DE GASPERI 23 20020", "Nome impianto": "VIA DEGASP.ARESE", "Comune": "ARESE", "idImpianto": 12065, "points": [{"type": "Feature", "properties": {}, "geometry": {"type": "Point", "coordinates": [9.080279892030717, 45.55094687828335]}}], "price": 1.759, "ultima_rilevazione": "15/04/2022 17:33:52"}, {"Gestore": "SERVIZI E GESTIONI ZENIT S.R.L. IN SIGLA - ZENIT S.R.L.", "Bandiera": "Esso", "Tipo impianto": "Altro", "Indirizzo": "VIA S. PELLICO 20 20021", "Nome impianto": "VIA PELLICO BOLL", "Comune": "BOLLATE", "idImpianto": 12069, "points": [{"type": "Feature", "properties": {}, "geometry": {"type": "Point", "coordinates": [9.130003201223415, 45.54511030892274]}}], "price": 1.699, "ultima_rilevazione": "15/04/2022 17:33:53"}, {"Gestore": "SERVIZI & GESTIONI ITALIA srl", "Bandiera": "Q8", "Tipo impianto": "Altro", "Indirizzo": "S.P. 229 KM 6+682 SNC 20010", "Nome impianto": "POGLIANO MILANESE S.P. 229 KM 6+682", "Comune": "POGLIANO MILANESE", "idImpianto": 6831, "points": [{"type": "Feature", "properties": {}, "geometry": {"type": "Point", "coordinates": [9.010794635581988, 45.53944696670913]}}], "price": 1.759, "ultima_rilevazione": "16/04/2022 01:34:17"}, {"Gestore": "SERVIZI & GESTIONI ITALIA S.R.L.", "Bandiera": "Q8", "Tipo impianto": "Altro", "Indirizzo": "VIA BAGAROTTI 14/A 20152", "Nome impianto": "MILANO VIA BAGAROTTI 14/A", "Comune": "MILANO", "idImpianto": 23872, "points": [{"type": "Feature", "properties": {}, "geometry": {"type": "Point", "coordinates": [9.094877768122842, 45.4574490020773]}}], "price": 1.759, "ultima_rilevazione": "16/04/2022 01:34:18"}, {"Gestore": "SERVIZI & GESTIONI ITALIA srl", "Bandiera": "Q8", "Tipo impianto": "Altro", "Indirizzo": "VIA CIVIDALE DEL FRIULI 6 20152", "Nome impianto": "MILANO VIA CIVIDALE DEL FRIULI 6", "Comune": "MILANO", "idImpianto": 6437, "points": [{"type": "Feature", "properties": {}, "geometry": {"type": "Point", "coordinates": [9.100626387171928, 45.45898088643508]}}], "price": 1.759, "ultima_rilevazione": "16/04/2022 01:34:20"}, {"Gestore": "SERVIZI & GESTIONI ITALIA S.R.L.", "Bandiera": "Q8", "Tipo impianto": "Altro", "Indirizzo": "VIA SERRA ANG. SALMOIRAGHI S/N 20148", "Nome impianto": "MILANO-VIA SERRA ANG. SALMOIRAGHI", "Comune": "MILANO", "idImpianto": 11698, "points": [{"type": "Feature", "properties": {}, "geometry": {"type": "Point", "coordinates": [9.142816093254057, 45.48375331904261]}}], "price": 1.799, "ultima_rilevazione": "16/04/2022 01:34:22"}, {"Gestore": "SERVIZI & GESTIONI ITALIA S.R.L.", "Bandiera": "Q8", "Tipo impianto": "Altro", "Indirizzo": "CONSOLE MARCELLO 41 20156", "Nome impianto": "CONSOLE MARCELLO 41 MILANO", "Comune": "MILANO", "idImpianto": 25256, "points": [{"type": "Feature", "properties": {}, "geometry": {"type": "Point", "coordinates": [9.143400355225369, 45.50195181968039]}}], "price": 1.799, "ultima_rilevazione": "16/04/2022 01:34:23"}, {"Gestore": "SERVIZI & GESTIONI ITALIA S.R.L.", "Bandiera": "Q8", "Tipo impianto": "Altro", "Indirizzo": "VIA CAPUANA C/O ESSELUNGA CENTRE S/N 20017", "Nome impianto": "RHO -VIA CAPUANA C/O ESSELUNGA CENTRE", "Comune": "RHO", "idImpianto": 11712, "points": [{"type": "Feature", "properties": {}, "geometry": {"type": "Point", "coordinates": [9.021690487861632, 45.53642989217953]}}], "price": 1.759, "ultima_rilevazione": "16/04/2022 01:34:23"}, {"Gestore": "SERVIZI & GESTIONI ITALIA S.R.L.", "Bandiera": "Q8", "Tipo impianto": "Altro", "Indirizzo": "VIA FORZE ARMATE 241 20151", "Nome impianto": "MILANO - VIA FORZE ARMATE 241", "Comune": "MILANO", "idImpianto": 30114, "points": [{"type": "Feature", "properties": {}, "geometry": {"type": "Point", "coordinates": [9.109656087766323, 45.46037001431894]}}], "price": 1.759, "ultima_rilevazione": "16/04/2022 01:34:24"}, {"Gestore": "SERVIZI & GESTIONI ITALIA S.R.L.", "Bandiera": "Q8", "Tipo impianto": "Altro", "Indirizzo": "VIA ERITREA 71 20157", "Nome impianto": "MILANO VIA ERITREA, 71", "Comune": "MILANO", "idImpianto": 43279, "points": [{"type": "Feature", "properties": {}, "geometry": {"type": "Point", "coordinates": [9.136708201223428, 45.51261552152685]}}], "price": 1.819, "ultima_rilevazione": "16/04/2022 07:09:45"}, {"Gestore": "SERVIZI & GESTIONI ITALIA S.R.L.", "Bandiera": "Q8", "Tipo impianto": "Altro", "Indirizzo": "VIA DE GASPERI S/N 20151", "Nome impianto": "MILANO-VIA DE GASPERI", "Comune": "MILANO", "idImpianto": 11704, "points": [{"type": "Feature", "properties": {}, "geometry": {"type": "Point", "coordinates": [9.140903440475428, 45.48899555700437]}}], "price": 1.799, "ultima_rilevazione": "16/04/2022 07:09:48"}, {"Gestore": "NUOVA SIDAP  S.R.L.", "Bandiera": "Q8", "Tipo impianto": "Altro", "Indirizzo": "Via Sandro Pertini 331/11 20152", "Nome impianto": "MILANO PERTINI OIL", "Comune": "MILANO", "idImpianto": 45207, "points": [{"type": "Feature", "properties": {}, "geometry": {"type": "Point", "coordinates": [9.072222709655762, 45.45678067793206]}}], "price": 1.789, "ultima_rilevazione": "16/04/2022 07:24:05"}, {"Gestore": "AUTOSERVICE LOTTO SRL", "Bandiera": "Agip Eni", "Tipo impianto": "Altro", "Indirizzo": "PIAZZALE LOTTO LORENZO 14 20148", "Nome impianto": "Autoservice Lotto srl", "Comune": "MILANO", "idImpianto": 9455, "points": [{"type": "Feature", "properties": {}, "geometry": {"type": "Point", "coordinates": [9.143325932339051, 45.480722585938246]}}], "price": 1.799, "ultima_rilevazione": "16/04/2022 07:30:50"}, {"Gestore": "TORZINI LUCA", "Bandiera": "Q8", "Tipo impianto": "Altro", "Indirizzo": "VIA NOVARA 46 20147", "Nome impianto": "Stazione Rifornimento Q8 Torzini Luca", "Comune": "MILANO", "idImpianto": 13234, "points": [{"type": "Feature", "properties": {}, "geometry": {"type": "Point", "coordinates": [9.124655993219337, 45.46991993269708]}}], "price": 1.819, "ultima_rilevazione": "16/04/2022 08:16:36"}, {"Gestore": "AUTORIPARAZIONI RIZZI DI RINALDO RIZZI E C. - S.N.C.", "Bandiera": "OIL ONE", "Tipo impianto": "Altro", "Indirizzo": "VIA GUGLIEIMO MARCONI 32/34/36 20010", "Nome impianto": "Oil One", "Comune": "PREGNANA MILANESE", "idImpianto": 19095, "points": [{"type": "Feature", "properties": {}, "geometry": {"type": "Point", "coordinates": [9.006143106056697, 45.515219533472575]}}], "price": 1.718, "ultima_rilevazione": "16/04/2022 10:20:47"}, {"Gestore": "IP SERVICES S.R.L.", "Bandiera": "Api-Ip", "Tipo impianto": "Altro", "Indirizzo": "VIA LAINATE  20017", "Nome impianto": "RHO - LAINATE", "Comune": "RHO", "idImpianto": 27031, "points": [{"type": "Feature", "properties": {}, "geometry": {"type": "Point", "coordinates": [9.03128583068849, 45.547463865626085]}}], "price": 1.739, "ultima_rilevazione": "16/04/2022 12:02:11"}, {"Gestore": "IP SERVICES S.R.L.", "Bandiera": "Api-Ip", "Tipo impianto": "Altro", "Indirizzo": "VIA NOVARA  169 20147", "Nome impianto": "MILANO - NOVARA 169", "Comune": "MILANO", "idImpianto": 29212, "points": [{"type": "Feature", "properties": {}, "geometry": {"type": "Point", "coordinates": [9.11177510185246, 45.47614733814495]}}], "price": 1.749, "ultima_rilevazione": "16/04/2022 12:03:12"}, {"Gestore": "IP SERVICES S.R.L.", "Bandiera": "Api-Ip", "Tipo impianto": "Altro", "Indirizzo": "VIA BRODOLINI 14 20026", "Nome impianto": "NOVATE MILANESE", "Comune": "NOVATE MILANESE", "idImpianto": 39752, "points": [{"type": "Feature", "properties": {}, "geometry": {"type": "Point", "coordinates": [9.146490320563316, 45.53384295647024]}}], "price": 1.699, "ultima_rilevazione": "16/04/2022 12:03:14"}, {"Gestore": "IP SERVICES S.R.L.", "Bandiera": "Api-Ip", "Tipo impianto": "Altro", "Indirizzo": "via Veniere ang. via Scarampo snc 20148", "Nome impianto": "Milano Veniere", "Comune": "MILANO", "idImpianto": 39036, "points": [{"type": "Feature", "properties": {}, "geometry": {"type": "Point", "coordinates": [9.147986993193626, 45.482792928406525]}}], "price": 1.749, "ultima_rilevazione": "16/04/2022 12:03:18"}, {"Gestore": "IP SERVICES S.R.L.", "Bandiera": "Api-Ip", "Tipo impianto": "Strada Statale", "Indirizzo": "Statale 33 del Sempione, Km. 15+580, dir. Nerviano 20017", "Nome impianto": "RHO - SS 33 KM 15+580", "Comune": "RHO", "idImpianto": 23101, "points": [{"type": "Feature", "properties": {}, "geometry": {"type": "Point", "coordinates": [9.02470728836056, 45.54066994198055]}}], "price": 1.729, "ultima_rilevazione": "16/04/2022 12:03:45"}, {"Gestore": "IP SERVICES S.R.L.", "Bandiera": "Api-Ip", "Tipo impianto": "Altro", "Indirizzo": "Via Trilussa 3 20157", "Nome impianto": "Milano Via Trilussa", "Comune": "MILANO", "idImpianto": 24668, "points": [{"type": "Feature", "properties": {}, "geometry": {"type": "Point", "coordinates": [9.137596786022186, 45.51461428840631]}}], "price": 1.774, "ultima_rilevazione": "16/04/2022 12:04:39"}, {"Gestore": "T.D.M. S.R.L.", "Bandiera": "Tamoil", "Tipo impianto": "Altro", "Indirizzo": "VIA DELLA REPUBBLICA 6 20021", "Nome impianto": "8483", "Comune": "BOLLATE", "idImpianto": 46839, "points": [{"type": "Feature", "properties": {}, "geometry": {"type": "Point", "coordinates": [9.111826769940537, 45.54182715694789]}}], "price": 1.719, "ultima_rilevazione": "16/04/2022 13:06:14"}, {"Gestore": "T.D.M. S.R.L.", "Bandiera": "Tamoil", "Tipo impianto": "Altro", "Indirizzo": "VIA PAPA GIOVANNI XXIII 12 20010", "Nome impianto": "8492", "Comune": "PREGNANA MILANESE", "idImpianto": 48559, "points": [{"type": "Feature", "properties": {}, "geometry": {"type": "Point", "coordinates": [9.006146406686462, 45.513799584179]}}], "price": 1.729, "ultima_rilevazione": "16/04/2022 13:06:14"}, {"Gestore": "T.D.M. S.R.L.", "Bandiera": "Tamoil", "Tipo impianto": "Altro", "Indirizzo": "Via delle Forze Armate 353 20152", "Nome impianto": "8056", "Comune": "MILANO", "idImpianto": 32685, "points": [{"type": "Feature", "properties": {}, "geometry": {"type": "Point", "coordinates": [9.095978106943448, 45.46025389751213]}}], "price": 1.749, "ultima_rilevazione": "16/04/2022 13:08:10"}, {"Gestore": "T.D.M. S.R.L.", "Bandiera": "Tamoil", "Tipo impianto": "Altro", "Indirizzo": "Via Rho  20020", "Nome impianto": "3537", "Comune": "LAINATE", "idImpianto": 35445, "points": [{"type": "Feature", "properties": {}, "geometry": {"type": "Point", "coordinates": [9.029793441295624, 45.55220869339715]}}], "price": 1.749, "ultima_rilevazione": "16/04/2022 13:08:11"}, {"Gestore": "DEL GIUDICE BONAVENTURA", "Bandiera": "Q8", "Tipo impianto": "Altro", "Indirizzo": "VIA BOLLATE 68 20026", "Nome impianto": "Stazione di Servizio n\u00b0 1131 Q8 Outlet", "Comune": "NOVATE MILANESE", "idImpianto": 30023, "points": [{"type": "Feature", "properties": {}, "geometry": {"type": "Point", "coordinates": [9.130849689245224, 45.53807566917228]}}], "price": 1.699, "ultima_rilevazione": "16/04/2022 15:38:27"}, {"Gestore": "ENI FUEL S.P.A.", "Bandiera": "Agip Eni", "Tipo impianto": "Altro", "Indirizzo": "Via Forze Armate 322 20100", "Nome impianto": "PV 2373 Forze Armate", "Comune": "MILANO", "idImpianto": 38980, "points": [{"type": "Feature", "properties": {}, "geometry": {"type": "Point", "coordinates": [9.099088982208968, 45.46010315272357]}}], "price": 1.799, "ultima_rilevazione": "17/04/2022 00:12:06"}, {"Gestore": "IPER MONTEBELLO S.P.A.", "Bandiera": "Iper Station", "Tipo impianto": "Altro", "Indirizzo": "Via Luraghi sn 20020", "Nome impianto": "Iper Station Arese", "Comune": "ARESE", "idImpianto": 30892, "points": [{"type": "Feature", "properties": {}, "geometry": {"type": "Point", "coordinates": [9.053292274475098, 45.56176087890731]}}], "price": 1.685, "ultima_rilevazione": "17/04/2022 03:08:46"}]}, "Gasolio High Quality": {"1": [], "3": [{"Gestore": "OMAR SNC DI FONTANA RACHELE & MORSHEDY KHALIL", "Bandiera": "Esso", "Tipo impianto": "Altro", "Indirizzo": "VIA NOVARA 342 20153", "Nome impianto": "OMAR SNC DI FONTANA RACHELE & MORSHEDY KHALIL", "Comune": "MILANO", "idImpianto": 29436, "points": [{"type": "Feature", "properties": {}, "geometry": {"type": "Point", "coordinates": [9.094179403179965, 45.4821880049466]}}], "price": 1.939, "ultima_rilevazione": "14/04/2022 19:08:00"}, {"Gestore": "PRINELLI SANTINA", "Bandiera": "Esso", "Tipo impianto": "Altro", "Indirizzo": "VIA PANZERI 35 20019", "Nome impianto": "Esso Prinelli", "Comune": "SETTIMO MILANESE", "idImpianto": 22039, "points": [{"type": "Feature", "properties": {}, "geometry": {"type": "Point", "coordinates": [9.049645811319351, 45.489553886670535]}}], "price": 1.952, "ultima_rilevazione": "16/04/2022 07:18:00"}, {"Gestore": "ESSO DI MARCHETTO GIANFRANCO", "Bandiera": "Esso", "Tipo impianto": "Altro", "Indirizzo": "VIA GALLARATE 392 20151", "Nome impianto": "ESSO di Marchetto Gianfranco", "Comune": "MILANO", "idImpianto": 21197, "points": [{"type": "Feature", "properties": {}, "geometry": {"type": "Point", "coordinates": [9.1065073584748, 45.50488064752391]}}], "price": 1.919, "ultima_rilevazione": "16/04/2022 07:43:01"}], "5": [{"Gestore": "CUSITEX DI CIRRINCIONE DOMENICO E C. S.N.C.", "Bandiera": "Esso", "Tipo impianto": "Altro", "Indirizzo": "VIA G. VERDI  20021", "Nome impianto": "via verdi", "Comune": "BOLLATE", "idImpianto": 8741, "points": [{"type": "Feature", "properties": {}, "geometry": {"type": "Point", "coordinates": [9.112526178359984, 45.54750564381035]}}], "price": 1.946, "ultima_rilevazione": "11/04/2022 06:45:28"}, {"Gestore": "villoresi di vitale gaetano &c. snc", "Bandiera": "Esso", "Tipo impianto": "Autostradale", "Indirizzo": "Autostrada A8-A9 MILANO-LAGHI, Km. 7+600, dir. Sud 20020", "Nome impianto": "VILLORESI OVEST", "Comune": "LAINATE", "idImpianto": 3927, "points": [{"type": "Feature", "properties": {}, "geometry": {"type": "Point", "coordinates": [9.04014393386842, 45.55834880837939]}}], "price": 2.162, "ultima_rilevazione": "14/04/2022 09:00:12"}, {"Gestore": "ESSO SERVICE S.A.S. DI STELLUTI DANIELE & C.", "Bandiera": "Esso", "Tipo impianto": "Altro", "Indirizzo": "Via Giuseppe Garibaldi 132 20024", "Nome impianto": "Esso", "Comune": "GARBAGNATE MILANESE", "idImpianto": 42136, "points": [{"type": "Feature", "properties": {}, "geometry": {"type": "Point", "coordinates": [9.076157453967426, 45.56543979927998]}}], "price": 1.919, "ultima_rilevazione": "15/04/2022 07:43:51"}, {"Gestore": "HYDRO CAR - S.R.L.", "Bandiera": "Socogas", "Tipo impianto": "Altro", "Indirizzo": "VIA CARLO AMORETTI  93 20157", "Nome impianto": "HYDRO CAR SRL", "Comune": "MILANO", "idImpianto": 47681, "points": [{"type": "Feature", "properties": {}, "geometry": {"type": "Point", "coordinates": [9.148152916455397, 45.52109863317232]}}], "price": 1.799, "ultima_rilevazione": "15/04/2022 13:50:23"}]}, "null": {}, "GPL": {"1": [{"Gestore": "DUE VELE S.N.C. DI LIGUORI FRANCO E C.", "Bandiera": "Q8", "Tipo impianto": "Autostradale", "Indirizzo": "Autostrada A4 TORINO-MILANO, Km. 121.705, dir. Ovest 20016", "Nome impianto": "PERO NORD", "Comune": "PERO", "idImpianto": 3816, "points": [{"type": "Feature", "properties": {}, "geometry": {"type": "Point", "coordinates": [9.06977653503418, 45.51360875909406]}}], "price": 1.022, "ultima_rilevazione": "13/04/2022 13:56:09"}, {"Gestore": "METANO PER AUTO SETTIMO MILANESE M.A.S. SRL", "Bandiera": "Pompe Bianche", "Tipo impianto": "Altro", "Indirizzo": "Via Gallarate 437 20151", "Nome impianto": "M.A.S. S.r.l.", "Comune": "MILANO", "idImpianto": 24317, "points": [{"type": "Feature", "properties": {}, "geometry": {"type": "Point", "coordinates": [9.096813797950745, 45.506485252405575]}}], "price": 0.899, "ultima_rilevazione": "15/04/2022 12:50:36"}], "3": [{"Gestore": "KEROPETROL S.P.A.", "Bandiera": "KEROPETROL", "Tipo impianto": "Altro", "Indirizzo": "via falzarego 1 20021", "Nome impianto": "KEROPETROL SPA BARANZATE GPL", "Comune": "BARANZATE", "idImpianto": 31656, "points": [{"type": "Feature", "properties": {}, "geometry": {"type": "Point", "coordinates": [9.105639606714249, 45.53491875810432]}}], "price": 0.899, "ultima_rilevazione": "07/04/2022 17:18:33"}, {"Gestore": "FRATANTONIO FABRIZIO", "Bandiera": "Beyfin", "Tipo impianto": "Strada Statale", "Indirizzo": "Statale 11 Padana Superiore, Km. -, dir. MILANO 20153", "Nome impianto": "bey fin", "Comune": "MILANO", "idImpianto": 34803, "points": [{"type": "Feature", "properties": {}, "geometry": {"type": "Point", "coordinates": [9.100346267223358, 45.48065958120245]}}], "price": 0.899, "ultima_rilevazione": "11/04/2022 08:51:50"}, {"Gestore": "GE.MAR. SRL", "Bandiera": "Q8", "Tipo impianto": "Autostradale", "Indirizzo": "Autostrada A4 TORINO-MILANO, Km. 119.25, dir. Est ", "Nome impianto": "RHO SUD", "Comune": "RHO", "idImpianto": 3928, "points": [{"type": "Feature", "properties": {}, "geometry": {"type": "Point", "coordinates": [9.040060937404633, 45.50970194291012]}}], "price": 0.879, "ultima_rilevazione": "13/04/2022 10:45:18"}, {"Gestore": "OMAR SNC DI FONTANA RACHELE & MORSHEDY KHALIL", "Bandiera": "Esso", "Tipo impianto": "Altro", "Indirizzo": "VIA NOVARA 342 20153", "Nome impianto": "OMAR SNC DI FONTANA RACHELE & MORSHEDY KHALIL", "Comune": "MILANO", "idImpianto": 29436, "points": [{"type": "Feature", "properties": {}, "geometry": {"type": "Point", "coordinates": [9.094179403179965, 45.4821880049466]}}], "price": 0.879, "ultima_rilevazione": "14/04/2022 19:08:00"}, {"Gestore": "ENERGY FUEL S.R.L.", "Bandiera": "Agip Eni", "Tipo impianto": "Strada Statale", "Indirizzo": "Statale 11 Padana Superiore, Km. 132, dir. novara 20019", "Nome impianto": "energy fuel srl", "Comune": "SETTIMO MILANESE", "idImpianto": 32712, "points": [{"type": "Feature", "properties": {}, "geometry": {"type": "Point", "coordinates": [9.057532846927645, 45.49646218580503]}}], "price": 0.89, "ultima_rilevazione": "15/04/2022 07:03:46"}, {"Gestore": "SERVIZI & GESTIONI ITALIA S.R.L.", "Bandiera": "Q8", "Tipo impianto": "Altro", "Indirizzo": "VIA NOVARA 391 20147", "Nome impianto": "MILANO - VIA NOVARA 391", "Comune": "MILANO", "idImpianto": 7260, "points": [{"type": "Feature", "properties": {}, "geometry": {"type": "Point", "coordinates": [9.088782372789067, 45.48313980009453]}}], "price": 0.879, "ultima_rilevazione": "16/04/2022 07:09:48"}, {"Gestore": "SERVIZI & GESTIONI ITALIA S.R.L.", "Bandiera": "Q8", "Tipo impianto": "Altro", "Indirizzo": "STRADA PROVINCIALE 11 - TANGENZIALINA KM 132+248 SN 20019", "Nome impianto": "SETTIMO MILANESE-SP11 TANGENZIALINA", "Comune": "SETTIMO MILANESE", "idImpianto": 7289, "points": [{"type": "Feature", "properties": {}, "geometry": {"type": "Point", "coordinates": [9.058144373016376, 45.49626476021985]}}], "price": 0.879, "ultima_rilevazione": "16/04/2022 07:09:49"}, {"Gestore": "ET CAR SERVICE DI SAMMARCO EMILIANO", "Bandiera": "Q8", "Tipo impianto": "Altro", "Indirizzo": "VIALE DEI FONTANILI ang. Via Vallassa snc 20017", "Nome impianto": "ET CAR SERVICE SUD", "Comune": "RHO", "idImpianto": 46011, "points": [{"type": "Feature", "properties": {}, "geometry": {"type": "Point", "coordinates": [9.041621482519416, 45.51462320631299]}}], "price": 0.889, "ultima_rilevazione": "16/04/2022 07:23:42"}], "5": [{"Gestore": "OFFICINA MGK DI LONGO GIUSEPPE", "Bandiera": "Agip Eni", "Tipo impianto": "Altro", "Indirizzo": "via Trento 80 20017", "Nome impianto": "Brixia", "Comune": "RHO", "idImpianto": 47000, "points": [{"type": "Feature", "properties": {}, "geometry": {"type": "Point", "coordinates": [9.03206993005938, 45.54899381752294]}}], "price": 0.869, "ultima_rilevazione": "31/03/2022 12:30:50"}, {"Gestore": "DE CAPRARIS PASQUALE", "Bandiera": "Agip Eni", "Tipo impianto": "Altro", "Indirizzo": "VIA JF KENNEDY  61 20024", "Nome impianto": "DISTRIBUTORE GPL BRIXIA", "Comune": "GARBAGNATE MILANESE", "idImpianto": 47133, "points": [{"type": "Feature", "properties": {}, "geometry": {"type": "Point", "coordinates": [9.070534000123, 45.562744000123]}}], "price": 0.889, "ultima_rilevazione": "11/04/2022 12:42:14"}, {"Gestore": "villoresi di vitale gaetano &c. snc", "Bandiera": "Esso", "Tipo impianto": "Autostradale", "Indirizzo": "Autostrada A8-A9 MILANO-LAGHI, Km. 7+600, dir. Sud 20020", "Nome impianto": "VILLORESI OVEST", "Comune": "LAINATE", "idImpianto": 3927, "points": [{"type": "Feature", "properties": {}, "geometry": {"type": "Point", "coordinates": [9.04014393386842, 45.55834880837939]}}], "price": 1.129, "ultima_rilevazione": "14/04/2022 09:00:12"}, {"Gestore": "HYDRO CAR - S.R.L.", "Bandiera": "Socogas", "Tipo impianto": "Altro", "Indirizzo": "VIA CARLO AMORETTI  93 20157", "Nome impianto": "HYDRO CAR SRL", "Comune": "MILANO", "idImpianto": 47681, "points": [{"type": "Feature", "properties": {}, "geometry": {"type": "Point", "coordinates": [9.148152916455397, 45.52109863317232]}}], "price": 0.869, "ultima_rilevazione": "15/04/2022 13:50:23"}, {"Gestore": "Nuova Sidap SRL", "Bandiera": "Q8", "Tipo impianto": "Autostradale", "Indirizzo": "Autostrada A8-A9 MILANO-LAGHI, Km. 7+600, dir. Nord 20020", "Nome impianto": "VILLORESI EST", "Comune": "LAINATE", "idImpianto": 3555, "points": [{"type": "Feature", "properties": {}, "geometry": {"type": "Point", "coordinates": [9.039123033065836, 45.55996995230018]}}], "price": 0.899, "ultima_rilevazione": "15/04/2022 14:30:25"}, {"Gestore": "GHULAM PAK DI ANWAR SAEED & C. S.A.S.", "Bandiera": "Esso", "Tipo impianto": "Altro", "Indirizzo": "S.S.33 DEL SEMPIONE, KM.16+030  20017", "Nome impianto": "GHULAM PAK", "Comune": "RHO", "idImpianto": 24279, "points": [{"type": "Feature", "properties": {}, "geometry": {"type": "Point", "coordinates": [9.019233584403992, 45.54109280194033]}}], "price": 0.889, "ultima_rilevazione": "15/04/2022 14:34:47"}]}, "Gasolio": {"1": [{"Gestore": "DUE VELE S.N.C. DI LIGUORI FRANCO E C.", "Bandiera": "Q8", "Tipo impianto": "Autostradale", "Indirizzo": "Autostrada A4 TORINO-MILANO, Km. 121.705, dir. Ovest 20016", "Nome impianto": "PERO NORD", "Comune": "PERO", "idImpianto": 3816, "points": [{"type": "Feature", "properties": {}, "geometry": {"type": "Point", "coordinates": [9.06977653503418, 45.51360875909406]}}], "price": 1.819, "ultima_rilevazione": "13/04/2022 13:56:09"}, {"Gestore": "BRITA S.A.S. DI D'AMATO DAVIDE & C.", "Bandiera": "OIL ONE", "Tipo impianto": "Altro", "Indirizzo": "VIA GALLARATE 417 20151", "Nome impianto": "OILONE", "Comune": "MILANO", "idImpianto": 18802, "points": [{"type": "Feature", "properties": {}, "geometry": {"type": "Point", "coordinates": [9.10411467909853, 45.50513991554254]}}], "price": 1.729, "ultima_rilevazione": "14/04/2022 08:13:23"}, {"Gestore": "ENERGY FUEL S.R.L.", "Bandiera": "Agip Eni", "Tipo impianto": "Altro", "Indirizzo": "VIA FIGINO 41 20016", "Nome impianto": "ENERGY FUEL SRL ", "Comune": "PERO", "idImpianto": 32711, "points": [{"type": "Feature", "properties": {}, "geometry": {"type": "Point", "coordinates": [9.076453670534876, 45.50660862993045]}}], "price": 1.769, "ultima_rilevazione": "15/04/2022 07:02:22"}, {"Gestore": "METANO PER AUTO SETTIMO MILANESE M.A.S. SRL", "Bandiera": "Pompe Bianche", "Tipo impianto": "Altro", "Indirizzo": "Via Gallarate 437 20151", "Nome impianto": "M.A.S. S.r.l.", "Comune": "MILANO", "idImpianto": 24317, "points": [{"type": "Feature", "properties": {}, "geometry": {"type": "Point", "coordinates": [9.096813797950745, 45.506485252405575]}}], "price": 1.769, "ultima_rilevazione": "15/04/2022 12:50:36"}, {"Gestore": "ZAPPIA SARA", "Bandiera": "Agip Eni", "Tipo impianto": "Altro", "Indirizzo": "VIA PACE 58 20017", "Nome impianto": "STAZIONE DI SERVIZIO ENI", "Comune": "RHO", "idImpianto": 50557, "points": [{"type": "Feature", "properties": {}, "geometry": {"type": "Point", "coordinates": [9.057194292545311, 45.52911650922827]}}], "price": 1.804, "ultima_rilevazione": "15/04/2022 16:53:24"}, {"Gestore": "SERVIZI & GESTIONI ITALIA S.R.L.", "Bandiera": "Q8", "Tipo impianto": "Altro", "Indirizzo": "VIA GALLARATE 400 20151", "Nome impianto": "MILANO-VIA GALLARATE 400", "Comune": "MILANO", "idImpianto": 11694, "points": [{"type": "Feature", "properties": {}, "geometry": {"type": "Point", "coordinates": [9.10516619682312, 45.50515304444358]}}], "price": 1.749, "ultima_rilevazione": "16/04/2022 01:34:22"}, {"Gestore": "SERVIZI & GESTIONI ITALIA S.R.L.", "Bandiera": "Q8", "Tipo impianto": "Altro", "Indirizzo": "VIA PISACANE 9/B 20016", "Nome impianto": "VIA PISACANE 9/B - PERO", "Comune": "PERO", "idImpianto": 27792, "points": [{"type": "Feature", "properties": {}, "geometry": {"type": "Point", "coordinates": [9.08890489325404, 45.506984215320095]}}], "price": 1.749, "ultima_rilevazione": "16/04/2022 01:34:23"}, {"Gestore": "ET CAR SERVICE DI SAMMARCO EMILIANO", "Bandiera": "Q8", "Tipo impianto": "Altro", "Indirizzo": "VIALE DEI FONTANILI SNC 20017", "Nome impianto": "ET CAR SERVICE DI SAMMARCO EMILIANO", "Comune": "RHO", "idImpianto": 10515, "points": [{"type": "Feature", "properties": {}, "geometry": {"type": "Point", "coordinates": [9.04581935707779, 45.515450649237735]}}], "price": 1.799, "ultima_rilevazione": "16/04/2022 07:22:23"}, {"Gestore": "NUOVA SIDAP  S.R.L.", "Bandiera": "Esso", "Tipo impianto": "Altro", "Indirizzo": "VIA ALCIDE DE GASPERI 1 20017", "Nome impianto": "Rho", "Comune": "RHO", "idImpianto": 43733, "points": [{"type": "Feature", "properties": {}, "geometry": {"type": "Point", "coordinates": [9.061585664749146, 45.52971514886303]}}], "price": 1.792, "ultima_rilevazione": "16/04/2022 08:30:12"}, {"Gestore": "ENI FUEL S.P.A.", "Bandiera": "Agip Eni", "Tipo impianto": "Altro", "Indirizzo": "Strada Stat. Sempione 2/A 20016", "Nome impianto": "PERO ", "Comune": "PERO", "idImpianto": 5440, "points": [{"type": "Feature", "properties": {}, "geometry": {"type": "Point", "coordinates": [9.095755160713225, 45.50746804033977]}}], "price": 1.749, "ultima_rilevazione": "17/04/2022 00:14:04"}], "3": [{"Gestore": "GE.MAR. SRL", "Bandiera": "Q8", "Tipo impianto": "Autostradale", "Indirizzo": "Autostrada A4 TORINO-MILANO, Km. 119.25, dir. Est ", "Nome impianto": "RHO SUD", "Comune": "RHO", "idImpianto": 3928, "points": [{"type": "Feature", "properties": {}, "geometry": {"type": "Point", "coordinates": [9.040060937404633, 45.50970194291012]}}], "price": 1.799, "ultima_rilevazione": "13/04/2022 10:45:18"}, {"Gestore": "NUOVA SIDAP  S.R.L.", "Bandiera": "Esso", "Tipo impianto": "Strada Statale", "Indirizzo": "11 Padana Superiore, Km. SNC, Nord 20019", "Nome impianto": "Settimo M.se", "Comune": "SETTIMO MILANESE", "idImpianto": 43739, "points": [{"type": "Feature", "properties": {}, "geometry": {"type": "Point", "coordinates": [9.05754566192627, 45.488861178032025]}}], "price": 1.802, "ultima_rilevazione": "14/04/2022 15:18:53"}, {"Gestore": "OMAR SNC DI FONTANA RACHELE & MORSHEDY KHALIL", "Bandiera": "Esso", "Tipo impianto": "Altro", "Indirizzo": "VIA NOVARA 342 20153", "Nome impianto": "OMAR SNC DI FONTANA RACHELE & MORSHEDY KHALIL", "Comune": "MILANO", "idImpianto": 29436, "points": [{"type": "Feature", "properties": {}, "geometry": {"type": "Point", "coordinates": [9.094179403179965, 45.4821880049466]}}], "price": 1.789, "ultima_rilevazione": "14/04/2022 19:08:00"}, {"Gestore": "ENERGY FUEL S.R.L.", "Bandiera": "Agip Eni", "Tipo impianto": "Strada Statale", "Indirizzo": "Statale 11 Padana Superiore, Km. 132, dir. novara 20019", "Nome impianto": "energy fuel srl", "Comune": "SETTIMO MILANESE", "idImpianto": 32712, "points": [{"type": "Feature", "properties": {}, "geometry": {"type": "Point", "coordinates": [9.057532846927645, 45.49646218580503]}}], "price": 1.769, "ultima_rilevazione": "15/04/2022 07:03:46"}, {"Gestore": "DE ZOLT PONTE SILVIO MARIO", "Bandiera": "Agip Eni", "Tipo impianto": "Altro", "Indirizzo": "VIA NOVARA 286 20153", "Nome impianto": "ENI 2194", "Comune": "MILANO", "idImpianto": 42445, "points": [{"type": "Feature", "properties": {}, "geometry": {"type": "Point", "coordinates": [9.101179093122482, 45.48025486800432]}}], "price": 1.769, "ultima_rilevazione": "15/04/2022 07:24:05"}, {"Gestore": "STEFANO CLAUDIO", "Bandiera": "Agip Eni", "Tipo impianto": "Altro", "Indirizzo": "VIA ITALIA 23 20017", "Nome impianto": "Eni di Stefano Claudio", "Comune": "RHO", "idImpianto": 36375, "points": [{"type": "Feature", "properties": {}, "geometry": {"type": "Point", "coordinates": [9.039467324536872, 45.52622836219744]}}], "price": 1.789, "ultima_rilevazione": "15/04/2022 07:31:17"}, {"Gestore": "ENIL SERVICE DI MYRTAJ KASTRIOT", "Bandiera": "Retitalia", "Tipo impianto": "Altro", "Indirizzo": "CORSO EUROPA 255 20017", "Nome impianto": "RETITALIA", "Comune": "RHO", "idImpianto": 51333, "points": [{"type": "Feature", "properties": {}, "geometry": {"type": "Point", "coordinates": [9.032077557564092, 45.53330877054567]}}], "price": 1.739, "ultima_rilevazione": "15/04/2022 16:15:00"}, {"Gestore": "SERVIZI & GESTIONI ITALIA S.R.L.", "Bandiera": "Q8", "Tipo impianto": "Altro", "Indirizzo": "VIA FALZAREGO S/N 20021", "Nome impianto": "BARANZATE-VIA FALZAREGO", "Comune": "BARANZATE", "idImpianto": 11713, "points": [{"type": "Feature", "properties": {}, "geometry": {"type": "Point", "coordinates": [9.106058031320572, 45.53447218144471]}}], "price": 1.749, "ultima_rilevazione": "16/04/2022 01:34:18"}, {"Gestore": "SERVIZI & GESTIONI ITALIA S.R.L.", "Bandiera": "Q8", "Tipo impianto": "Altro", "Indirizzo": "VIA CECHOV 44 20151", "Nome impianto": "MILANO-VIA CECHOV 44", "Comune": "MILANO", "idImpianto": 11702, "points": [{"type": "Feature", "properties": {}, "geometry": {"type": "Point", "coordinates": [9.113351720237688, 45.49525381995993]}}], "price": 1.749, "ultima_rilevazione": "16/04/2022 01:34:22"}, {"Gestore": "SERVIZI & GESTIONI ITALIA S.R.L.", "Bandiera": "Q8", "Tipo impianto": "Altro", "Indirizzo": "FZ. OSPIATE VIA REPUBBLICA 16 20021", "Nome impianto": "BOLLATE-FZ. OSPIATE VIA REPUBBLICA 16", "Comune": "BOLLATE", "idImpianto": 11699, "points": [{"type": "Feature", "properties": {}, "geometry": {"type": "Point", "coordinates": [9.105332186508122, 45.54173005746877]}}], "price": 1.769, "ultima_rilevazione": "16/04/2022 07:09:44"}, {"Gestore": "SERVIZI & GESTIONI ITALIA S.R.L.", "Bandiera": "Q8", "Tipo impianto": "Altro", "Indirizzo": "S.S. 11 KM 130+776  20019", "Nome impianto": "SETTIMO MILANESE S.S. 11 KM 130+776", "Comune": "SETTIMO MILANESE", "idImpianto": 24383, "points": [{"type": "Feature", "properties": {}, "geometry": {"type": "Point", "coordinates": [9.041356613491873, 45.49012202060383]}}], "price": 1.769, "ultima_rilevazione": "16/04/2022 07:09:45"}, {"Gestore": "SERVIZI & GESTIONI ITALIA S.R.L.", "Bandiera": "Q8", "Tipo impianto": "Altro", "Indirizzo": "V.LE CERTOSA 228 20156", "Nome impianto": "MILANO-V.LE CERTOSA 228", "Comune": "MILANO", "idImpianto": 11701, "points": [{"type": "Feature", "properties": {}, "geometry": {"type": "Point", "coordinates": [9.13087014484404, 45.50007519935568]}}], "price": 1.779, "ultima_rilevazione": "16/04/2022 07:09:47"}, {"Gestore": "SERVIZI & GESTIONI ITALIA S.R.L.", "Bandiera": "Q8", "Tipo impianto": "Altro", "Indirizzo": "VIA NOVARA 391 20147", "Nome impianto": "MILANO - VIA NOVARA 391", "Comune": "MILANO", "idImpianto": 7260, "points": [{"type": "Feature", "properties": {}, "geometry": {"type": "Point", "coordinates": [9.088782372789067, 45.48313980009453]}}], "price": 1.779, "ultima_rilevazione": "16/04/2022 07:09:48"}, {"Gestore": "SERVIZI & GESTIONI ITALIA S.R.L.", "Bandiera": "Q8", "Tipo impianto": "Altro", "Indirizzo": "STRADA PROVINCIALE 11 - TANGENZIALINA KM 132+248 SN 20019", "Nome impianto": "SETTIMO MILANESE-SP11 TANGENZIALINA", "Comune": "SETTIMO MILANESE", "idImpianto": 7289, "points": [{"type": "Feature", "properties": {}, "geometry": {"type": "Point", "coordinates": [9.058144373016376, 45.49626476021985]}}], "price": 1.769, "ultima_rilevazione": "16/04/2022 07:09:49"}, {"Gestore": "PRINELLI SANTINA", "Bandiera": "Esso", "Tipo impianto": "Altro", "Indirizzo": "VIA PANZERI 35 20019", "Nome impianto": "Esso Prinelli", "Comune": "SETTIMO MILANESE", "idImpianto": 22039, "points": [{"type": "Feature", "properties": {}, "geometry": {"type": "Point", "coordinates": [9.049645811319351, 45.489553886670535]}}], "price": 1.802, "ultima_rilevazione": "16/04/2022 07:18:00"}, {"Gestore": "ET CAR SERVICE DI SAMMARCO EMILIANO", "Bandiera": "Q8", "Tipo impianto": "Altro", "Indirizzo": "VIALE DEI FONTANILI ang. Via Vallassa snc 20017", "Nome impianto": "ET CAR SERVICE SUD", "Comune": "RHO", "idImpianto": 46011, "points": [{"type": "Feature", "properties": {}, "geometry": {"type": "Point", "coordinates": [9.041621482519416, 45.51462320631299]}}], "price": 1.799, "ultima_rilevazione": "16/04/2022 07:23:42"}, {"Gestore": "ESSO DI MARCHETTO GIANFRANCO", "Bandiera": "Esso", "Tipo impianto": "Altro", "Indirizzo": "VIA GALLARATE 392 20151", "Nome impianto": "ESSO di Marchetto Gianfranco", "Comune": "MILANO", "idImpianto": 21197, "points": [{"type": "Feature", "properties": {}, "geometry": {"type": "Point", "coordinates": [9.1065073584748, 45.50488064752391]}}], "price": 1.769, "ultima_rilevazione": "16/04/2022 07:43:01"}, {"Gestore": "IP SERVICES S.R.L.", "Bandiera": "Api-Ip", "Tipo impianto": "Altro", "Indirizzo": "VIA MILANO 75 20021", "Nome impianto": "MI BOLLATE", "Comune": "BOLLATE", "idImpianto": 17687, "points": [{"type": "Feature", "properties": {}, "geometry": {"type": "Point", "coordinates": [9.104994635581988, 45.53660751505031]}}], "price": 1.729, "ultima_rilevazione": "16/04/2022 12:02:48"}, {"Gestore": "IP SERVICES S.R.L.", "Bandiera": "Api-Ip", "Tipo impianto": "Altro", "Indirizzo": "Via Novara 451/1 20153", "Nome impianto": "Milano Via Novara", "Comune": "MILANO", "idImpianto": 24021, "points": [{"type": "Feature", "properties": {}, "geometry": {"type": "Point", "coordinates": [9.080338598811297, 45.48597388961089]}}], "price": 1.759, "ultima_rilevazione": "16/04/2022 12:04:03"}, {"Gestore": "IP SERVICES S.R.L.", "Bandiera": "Api-Ip", "Tipo impianto": "Altro", "Indirizzo": "via Lainate ang. via Diaz  20017", "Nome impianto": "Rho via Lainate", "Comune": "RHO", "idImpianto": 36451, "points": [{"type": "Feature", "properties": {}, "geometry": {"type": "Point", "coordinates": [9.036739021539688, 45.53643383759013]}}], "price": 1.779, "ultima_rilevazione": "16/04/2022 12:04:56"}, {"Gestore": "T.D.M. S.R.L.", "Bandiera": "Tamoil", "Tipo impianto": "Altro", "Indirizzo": "Via Uruguay angolo Via delle Ande  4 20151", "Nome impianto": "2391", "Comune": "MILANO", "idImpianto": 33859, "points": [{"type": "Feature", "properties": {}, "geometry": {"type": "Point", "coordinates": [9.124250047885198, 45.49462245388579]}}], "price": 1.789, "ultima_rilevazione": "16/04/2022 13:04:07"}, {"Gestore": "T.D.M. S.R.L.", "Bandiera": "Tamoil", "Tipo impianto": "Altro", "Indirizzo": "Via Grassi  20157", "Nome impianto": "8053", "Comune": "MILANO", "idImpianto": 35639, "points": [{"type": "Feature", "properties": {}, "geometry": {"type": "Point", "coordinates": [9.128024652600288, 45.51190589544868]}}], "price": 1.799, "ultima_rilevazione": "16/04/2022 13:06:11"}, {"Gestore": "ENI FUEL S.P.A.", "Bandiera": "Agip Eni", "Tipo impianto": "Altro", "Indirizzo": "GARIBALDI / BRERA  20010", "Nome impianto": "57560 \u2013 Cornaredo", "Comune": "CORNAREDO", "idImpianto": 49789, "points": [{"type": "Feature", "properties": {}, "geometry": {"type": "Point", "coordinates": [9.026622191118353, 45.49735782137639]}}], "price": 1.769, "ultima_rilevazione": "17/04/2022 00:16:08"}], "5": [{"Gestore": "VIRCIGLIO ROBERTO", "Bandiera": "Tamoil", "Tipo impianto": "Altro", "Indirizzo": "VIA VARESINA 16 20156", "Nome impianto": "TAMOIL", "Comune": "MILANO", "idImpianto": 26585, "points": [{"type": "Feature", "properties": {}, "geometry": {"type": "Point", "coordinates": [9.147988682548304, 45.49524914690538]}}], "price": 1.0, "ultima_rilevazione": "16/12/2021 11:16:10"}, {"Gestore": "MEOLA CHIARA MARIA", "Bandiera": "Sommese Petroli", "Tipo impianto": "Altro", "Indirizzo": "piazzale santorre di santarosa 2 20156", "Nome impianto": "POMPA BIANCA", "Comune": "MILANO", "idImpianto": 29891, "points": [{"type": "Feature", "properties": {}, "geometry": {"type": "Point", "coordinates": [9.13970558619326, 45.50035452509578]}}], "price": 1.859, "ultima_rilevazione": "03/03/2022 19:03:43"}, {"Gestore": "NUOVA SIDAP  S.R.L.", "Bandiera": "Q8", "Tipo impianto": "Altro", "Indirizzo": "Via Sandro Pertini 331/11 20152", "Nome impianto": "MILANO PERTINI OIL", "Comune": "MILANO", "idImpianto": 45207, "points": [{"type": "Feature", "properties": {}, "geometry": {"type": "Point", "coordinates": [9.072222709655762, 45.45678067793206]}}], "price": 1.764, "ultima_rilevazione": "16/04/2022 07:24:05"}, {"Gestore": "SCALI ROSSELLA", "Bandiera": "Agip Eni", "Tipo impianto": "Altro", "Indirizzo": "via vialba 34 20026", "Nome impianto": "AGIP ", "Comune": "NOVATE MILANESE", "idImpianto": 11327, "points": [{"type": "Feature", "properties": {}, "geometry": {"type": "Point", "coordinates": [9.134978950023651, 45.5289443807462]}}], "price": 1.769, "ultima_rilevazione": "08/04/2022 08:06:21"}, {"Gestore": "SERVIZI & GESTIONI ITALIA S.R.L.", "Bandiera": "Q8", "Tipo impianto": "Altro", "Indirizzo": "VIA S.GIUSTO 66 20153", "Nome impianto": "MILANO VIA S.GIUSTO 66", "Comune": "MILANO", "idImpianto": 8725, "points": [{"type": "Feature", "properties": {}, "geometry": {"type": "Point", "coordinates": [9.11729386686477, 45.47182559595421]}}], "price": 1.769, "ultima_rilevazione": "11/04/2022 00:34:24"}, {"Gestore": "SERVIZI & GESTIONI ITALIA S.R.L.", "Bandiera": "Q8", "Tipo impianto": "Altro", "Indirizzo": "VIA NOVARA 82 20147", "Nome impianto": "MILANO-VIA NOVARA 82", "Comune": "MILANO", "idImpianto": 11664, "points": [{"type": "Feature", "properties": {}, "geometry": {"type": "Point", "coordinates": [9.121613818454762, 45.47161880932868]}}], "price": 1.779, "ultima_rilevazione": "11/04/2022 00:34:26"}, {"Gestore": "SERVIZI & GESTIONI ITALIA S.R.L.", "Bandiera": "Q8", "Tipo impianto": "Altro", "Indirizzo": "SS. 33 DEL SEMPIONE KM.15+660 S/N 20017", "Nome impianto": "RHO-SS. 33 DEL SEMPIONE KM.15+660", "Comune": "RHO", "idImpianto": 11686, "points": [{"type": "Feature", "properties": {}, "geometry": {"type": "Point", "coordinates": [9.02422338161466, 45.540303757278025]}}], "price": 1.789, "ultima_rilevazione": "11/04/2022 00:34:31"}, {"Gestore": "CUSITEX DI CIRRINCIONE DOMENICO E C. S.N.C.", "Bandiera": "Esso", "Tipo impianto": "Altro", "Indirizzo": "VIA G. VERDI  20021", "Nome impianto": "via verdi", "Comune": "BOLLATE", "idImpianto": 8741, "points": [{"type": "Feature", "properties": {}, "geometry": {"type": "Point", "coordinates": [9.112526178359984, 45.54750564381035]}}], "price": 1.796, "ultima_rilevazione": "11/04/2022 06:45:28"}, {"Gestore": "MC SERVIZI S.A.S. DI FERTONANI CHIARA E C.", "Bandiera": "Api-Ip", "Tipo impianto": "Altro", "Indirizzo": "VIA PER PASSIRANA   20020", "Nome impianto": "MC SERVIZI SAS", "Comune": "ARESE", "idImpianto": 37165, "points": [{"type": "Feature", "properties": {}, "geometry": {"type": "Point", "coordinates": [9.052507728338242, 45.55435987700847]}}], "price": 1.834, "ultima_rilevazione": "11/04/2022 10:50:19"}, {"Gestore": "SERVIZI & GESTIONI ITALIA srl", "Bandiera": "Q8", "Tipo impianto": "Altro", "Indirizzo": "VIA BOVISASCA SNC 20026", "Nome impianto": "NOVATE VIA BOVISASCA", "Comune": "NOVATE MILANESE", "idImpianto": 6440, "points": [{"type": "Feature", "properties": {}, "geometry": {"type": "Point", "coordinates": [9.150898711045102, 45.5207109449471]}}], "price": 1.739, "ultima_rilevazione": "11/04/2022 14:04:40"}, {"Gestore": "villoresi di vitale gaetano &c. snc", "Bandiera": "Esso", "Tipo impianto": "Autostradale", "Indirizzo": "Autostrada A8-A9 MILANO-LAGHI, Km. 7+600, dir. Sud 20020", "Nome impianto": "VILLORESI OVEST", "Comune": "LAINATE", "idImpianto": 3927, "points": [{"type": "Feature", "properties": {}, "geometry": {"type": "Point", "coordinates": [9.04014393386842, 45.55834880837939]}}], "price": 2.012, "ultima_rilevazione": "14/04/2022 09:00:12"}, {"Gestore": "CORNAREDO CARBURANTI S.R.L.", "Bandiera": "Repsol", "Tipo impianto": "Altro", "Indirizzo": "VIA MERENDI SNC 20010", "Nome impianto": "S/S CORNAREDO CARBURANTI S.R.L. - Cornaredo", "Comune": "CORNAREDO", "idImpianto": 7169, "points": [{"type": "Feature", "properties": {},