{"area_comune": "[{\"type\": \"Feature\", \"properties\": {}, \"geometry\": {\"type\": \"Polygon\", \"coordinates\": [[[7.543215268852942, 45.134543197246735], [7.548599569742713, 45.134481240535195], [7.5488300793418555, 45.132805370245606], [7.551476029862542, 45.13123667283458], [7.553825693417612, 45.130064727746394], [7.559957833751674, 45.13003421398874], [7.5646168796892646, 45.12746889205634], [7.581147513259129, 45.11382191660991], [7.591136616076448, 45.11787934222484], [7.6010814429172, 45.1229930430166], [7.607037458087529, 45.120257330295544], [7.60718629862683, 45.12000259799741], [7.592916603704472, 45.11348146583361], [7.580652662246153, 45.10746958000316], [7.576160761347501, 45.10380846985772], [7.574813694427815, 45.10074908940563], [7.564819377744969, 45.08813852913802], [7.563633326502065, 45.08811911733742], [7.5619336195510005, 45.08831377005967], [7.55902778852068, 45.08922230636323], [7.55212857689019, 45.09479261404851], [7.546607094652128, 45.09466395213145], [7.534686396481827, 45.10416143454792], [7.531303895359086, 45.10773215992334], [7.530082454207532, 45.11183020554958], [7.528886701138508, 45.11331358945317], [7.526197722951863, 45.11568236116797], [7.520602353085618, 45.118197988115305], [7.514334279634056, 45.11980892263097], [7.525508151639182, 45.12997262154367], [7.53522985822324, 45.134495051329736], [7.538055922724442, 45.1357554909669], [7.539525622711612, 45.136241492357684], [7.543215268852942, 45.134543197246735]]]}}]", "comune": "pianezza", "buffer_1": "[{\"type\": \"Feature\", \"properties\": {}, \"geometry\": {\"type\": \"Polygon\", \"coordinates\": [[[7.535781697261979, 45.14184552808256], [7.53683304333736, 45.142327819025134], [7.537946360338581, 45.14273454475514], [7.539110839258921, 45.143061755944665], [7.540315173655247, 45.14330627527674], [7.541547669546058, 45.14346572833945], [7.542796359098231, 45.14353856671541], [7.544049116991849, 45.14352408304069], [7.545293778325711, 45.14342241788596], [7.5465182569106455, 45.143234558392344], [7.547710662793944, 45.14296232867538], [7.548859417865748, 45.142608372090606], [7.549953368417503, 45.14217612553421], [7.550981893552899, 45.141669786029816], [7.583541937676426, 45.123883665526755], [7.603146798281904, 45.128536599144155], [7.604360599600771, 45.12877787658846], [7.605602197470989, 45.128932859490966], [7.606859378588174, 45.129000023235676], [7.608119776122877, 45.12897870706664], [7.609370991541513, 45.12886912059962], [7.610600716742102, 45.12867234175989], [7.611796855295002, 45.12839030616689], [7.612947641587738, 45.128025788070445], [7.614041756694324, 45.12758237302739], [7.61506843982249, 45.1270644225891], [7.616017594236951, 45.12647703134925], [7.61687988661255, 45.12582597677699], [7.617646838837369, 45.12511766233158], [7.618310911361755, 45.124359054421014], [7.618865577274293, 45.1235576138275], [7.619305386378474, 45.122721222277306], [7.619626018643995, 45.12185810487966], [7.6198243265124725, 45.12097674919986], [7.619898365648349, 45.12008582176465], [7.619847413840344, 45.11919408282204], [7.619671977876123, 45.11831030019532], [7.6193737883314325, 45.1174431630781], [7.618955782333919, 45.116601196618426], [7.618422074479719, 45.11579267813059], [7.6177779161968004, 45.11502555575747], [7.617029643961677, 45.114307370380914], [7.6161846168844916, 45.113645181545984], [7.615251144280527, 45.11304549812434], [7.614238403943078, 45.11251421439597], [7.590162758078281, 45.10114340377386], [7.575809141660848, 45.083622406569994], [7.575129967166238, 45.08287974163639], [7.57435115112797, 45.08218791159673], [7.573480223434832, 45.081553602200614], [7.572525603284797, 45.0809829431037], [7.57149651778995, 45.08048144869111], [7.570402912814424, 45.080053964847735], [7.569255356905921, 45.079704622187315], [7.56806493924662, 45.07943679618949], [7.566843162605563, 45.079253074627616], [7.565601832321628, 45.07915523260012], [7.564352942383478, 45.07914421540479], [7.563108559700077, 45.07922012942054], [7.561880707672314, 45.079382241083515], [7.56068125018284, 45.07962898396799], [7.5595217771172045, 45.079957973903355], [7.558413492515041, 45.08036603198235], [7.557367106425326, 45.080849215239645], [7.556392731504905, 45.08140285470591], [7.505909103119169, 45.11306957506158], [7.5050046139021385, 45.113695936391004], [7.504192523407977, 45.11438285548302], [7.503480877882919, 45.11512352912744], [7.502876729604059, 45.115910621474704], [7.502386066931746, 45.1167363366346], [7.502013754860594, 45.11759249583949], [7.501763486662944, 45.118470618410214], [7.501637747110071, 45.1193620057252], [7.50163778764306, 45.120257827362465], [7.501763613747659, 45.12114920856276], [7.502013984667222, 45.1220273181481], [7.50238642546574, 45.122883456024574], [7.502877251330545, 45.12370913940244], [7.503481603882463, 45.12449618687764], [7.504193499141406, 45.12523679954072], [7.505005886678822, 45.12592363830677], [7.505910719376104, 45.126549896698016], [7.506899033101486, 45.12710936835487], [7.535781697261979, 45.14184552808256]]]}}]", "buffer_3": "[{\"type\": \"Feature\", \"properties\": {}, \"geometry\": {\"type\": \"Polygon\", \"coordinates\": [[[7.5209088230357475, 45.156448637328836], [7.524063324261926, 45.1578958944544], [7.527403942475745, 45.15911641807912], [7.530898224809415, 45.16009834678167], [7.5345122191629095, 45.16083213716224], [7.538210805169142, 45.16131065696976], [7.541958036745367, 45.16152925472086], [7.54571749284086, 45.161485805118694], [7.549452632904255, 45.16118072982099], [7.553127153543829, 45.16061699334971], [7.556705342841158, 45.15980007418217], [7.560152428803054, 45.15873791130959], [7.563434918498397, 45.15744082679204], [7.566520924524355, 45.155921425076734], [7.588333186839896, 45.1440069919922], [7.59506409884831, 45.14560409119492], [7.598706507351509, 45.14632815283327], [7.602432411325743, 45.146793257668214], [7.606205127248305, 45.146994825715986], [7.609987508574654, 45.14693087169046], [7.613742313012734, 45.14660202465662], [7.617432570766859, 45.146011521835675], [7.621021950049032, 45.145165176622925], [7.624475116184637, 45.14407132113914], [7.627758080707609, 45.14274072389128], [7.630838536946842, 45.141186483369005], [7.63368617874923, 45.139423898643706], [7.6362729991634595, 45.137470318266246], [7.638573566120374, 45.135344968976206], [7.640565272387543, 45.13306876593465], [7.6422285573447954, 45.130664106374816], [7.643547098420381, 45.1281546487272], [7.644507970340929, 45.12556507941667], [7.645101770678416, 45.12292086964744], [7.645322710520474, 45.120248024586154], [7.645168669442613, 45.1175728274241], [7.644641214318389, 45.11492158084437], [7.6437455818626345, 45.11232034843987], [7.642490625159802, 45.1097946986234], [7.640888724780765, 45.10736945354033], [7.638955665433807, 45.10506844544064], [7.63671047942573, 45.10291428288857], [7.634175258524308, 45.10092812908743], [7.631374936110949, 45.09912949447491], [7.628337041789913, 45.097536045601544], [7.609176654258143, 45.08848857797055], [7.597783524705323, 45.07458691389533], [7.595745502430418, 45.07235928952639], [7.593408773163473, 45.070284198173965], [7.590795937367923, 45.06838168171609], [7.587932254631839, 45.06667011325335], [7.584845399409221, 45.06516602018979], [7.581565193801584, 45.063883925150144], [7.578123319951199, 45.06283620624511], [7.574553014800078, 45.06203297801057], [7.570888750126121, 45.06148199414875], [7.567165900898381, 45.06118857299182], [7.563420405096568, 45.0611555463926], [7.559688418214981, 45.061383232524726], [7.556005965717629, 45.061869432848745], [7.552408596728983, 45.06260945327151], [7.54893104223377, 45.063596149298476], [7.545606881019153, 45.064819994750174], [7.542468216524287, 45.06626917339275], [7.539545367665415, 45.06792969261352], [7.489064687072614, 45.09958906990838], [7.486351268217255, 45.101467736513655], [7.483914809031688, 45.10352807968728], [7.481779455627152, 45.10574970615528], [7.4799663812586, 45.10811062395449], [7.478493575837379, 45.110587459612915], [7.477375666607623, 45.113155689078134], [7.476623771805894, 45.115789880130265], [7.476245388809999, 45.11846394389986], [7.476244317952049, 45.121151393016405], [7.476620622825855, 45.12382560384199], [7.477370627562512, 45.12646008019984], [7.47848695118393, 45.12902871598592], [7.479958578775678, 45.13150605405748], [7.481770968851326, 45.13386753882408], [7.483906195914524, 45.13608976002283], [7.486343126866152, 45.138150685243495], [7.489057629555908, 45.140029878875666], [7.492022811444809, 45.14170870528229], [7.5209088230357475, 45.156448637328836]]]}}]", "buffer_5": "[{\"type\": \"Feature\", \"properties\": {}, \"geometry\": {\"type\": \"Polygon\", \"coordinates\": [[[7.506028301438688, 45.171049674234126], [7.511286574840908, 45.173462410460616], [7.516855384118752, 45.17549719443481], [7.52268059805935, 45.17713423467003], [7.528705575145326, 45.1783576063677], [7.534871717287705, 45.179155407375646], [7.5411190432393855, 45.17951987480698], [7.547386775941814, 45.17944746114474], [7.553613937902156, 45.17893886906378], [7.559739948608288, 45.17799904461685], [7.565705217965466, 45.17663712885061], [7.571451729782092, 45.17486636833621], [7.57692360944202, 45.17270398551197], [7.582067670075345, 45.170171010139356], [7.593488494107052, 45.163932952605656], [7.599260511035272, 45.1646534892959], [7.60555032700267, 45.164989564195004], [7.611856278944014, 45.16488296491313], [7.618116218389967, 45.16433474025867], [7.624268453044461, 45.16335029136279], [7.630252358965752, 45.16193931814781], [7.636008981872604, 45.16011572314692], [7.641481621456638, 45.15789747365317], [7.646616392772074, 45.15530642359865], [7.6513627590298015, 45.15236809697358], [7.655674030440315, 45.14911143498195], [7.659507824124927, 45.145568509494645], [7.66282648054134, 45.14177420569584], [7.665597432342369, 45.13776587712224], [7.667793522098735, 45.133582976564156], [7.66939326586167, 45.12926666652894], [7.670381060111492, 45.12485941316078], [7.670747330227413, 45.120404567661666], [7.670488619214305, 45.11594593937025], [7.669607616027349, 45.11152736472119], [7.6681131234387205, 45.10719227633465], [7.666019965985444, 45.10298327646746], [7.663348839118483, 45.098941719000045], [7.6601261012347575, 45.09510730403452], [7.656383510811107, 45.091517689042455], [7.65215791136811, 45.088208120326655], [7.647490867468246, 45.08521108835322], [7.642428255393899, 45.08255601026859], [7.62818216072486, 45.07583045782441], [7.619751048004175, 45.06554709444704], [7.616353514714818, 45.061835004639555], [7.612458499015093, 45.0583771835564], [7.6081036861954106, 45.05520700873225], [7.603331178774928, 45.052355075593525], [7.598187089291309, 45.04984890360822], [7.592721095390139, 45.047712672153985], [7.586985961481384, 45.04596698858603], [7.581037031514179, 45.04462869067757], [7.574931697664098, 45.0437106852799], [7.568728849927656, 45.04322182470743], [7.56248831177661, 45.0431668219987], [7.55627026713897, 45.04354620584062], [7.550134684044188, 45.04435631557344], [7.544140740296652, 45.045589336320205], [7.538346256524156, 45.04723337391079], [7.532807141886786, 45.04927256889999], [7.527576857626557, 45.051687248613796], [7.52270590348985, 45.05445411580231], [7.4722281817949785, 45.086106154322515], [7.46770589961859, 45.089236570024816], [7.4636448230773205, 45.09266978530777], [7.460085207835362, 45.09637183861491], [7.457062369863195, 45.10030610263859], [7.454606333565419, 45.104433645262645], [7.452741531294851, 45.108713613506765], [7.451486557347822, 45.11310363673836], [7.450853979032317, 45.11756024521734], [7.450850206865673, 45.122039299876036], [7.4514754253961, 45.1264964291114], [7.452723585556858, 45.13088746828213], [7.454582458858791, 45.1351688975613], [7.4570337531115785, 45.13929827379432], [7.460053288742805, 45.14323465205671], [7.4636112341633565, 45.14693899269318], [7.467672398014402, 45.15037454975027], [7.472196575532895, 45.15350723688853], [7.477138945695912, 45.15630596707505], [7.506028301438688, 45.171049674234126]]]}}]", "centroid": "[{\"type\": \"Feature\", \"properties\": {}, \"geometry\": {\"type\": \"Point\", \"coordinates\": [7.560063504612637, 45.11411482076336]}}]", "Diesel High Quality": {"1": [{"Gestore": "SERVIZI & GESTIONI ITALIA srl", "Bandiera": "Q8", "Tipo impianto": "Altro", "Indirizzo": "SP 24 LOC. STAZIONETTA SNC 10093", "Nome impianto": "COLLEGNO SP 24 LOC. STAZIONETTA", "Comune": "COLLEGNO", "idImpianto": 6393, "points": [{"type": "Feature", "properties": {}, "geometry": {"type": "Point", "coordinates": [7.577296793460846, 45.09582544231724]}}], "price": 1.685, "ultima_rilevazione": "27/06/2022 00:34:31"}, {"Gestore": "IP SERVICES S.R.L.", "Bandiera": "Api-Ip", "Tipo impianto": "Altro", "Indirizzo": "SP 24 KM 2+265  10044", "Nome impianto": "Pianezza", "Comune": "PIANEZZA", "idImpianto": 38966, "points": [{"type": "Feature", "properties": {}, "geometry": {"type": "Point", "coordinates": [7.56183385848999, 45.11204418338163]}}], "price": 1.985, "ultima_rilevazione": "26/06/2022 09:03:28"}], "3": [{"Gestore": "ALOISIO MARCO", "Bandiera": "Q8", "Tipo impianto": "Altro", "Indirizzo": "VIA CAVALLO 76 10078", "Nome impianto": "Q8 Aloisio ", "Comune": "VENARIA REALE", "idImpianto": 32526, "points": [{"type": "Feature", "properties": {}, "geometry": {"type": "Point", "coordinates": [7.626418769359589, 45.13998102537151]}}], "price": 2.149, "ultima_rilevazione": "20/06/2022 08:56:19"}, {"Gestore": "SABINO ALESSANDRO", "Bandiera": "Esso", "Tipo impianto": "Altro", "Indirizzo": "STRADA TORINO PIANEZZA 90 10093", "Nome impianto": "ESSO STAZIONE", "Comune": "COLLEGNO", "idImpianto": 50690, "points": [{"type": "Feature", "properties": {}, "geometry": {"type": "Point", "coordinates": [7.592963317790918, 45.09679353299372]}}], "price": 2.149, "ultima_rilevazione": "24/06/2022 07:42:29"}, {"Gestore": "IP SERVICES S.R.L.", "Bandiera": "Api-Ip", "Tipo impianto": "Altro", "Indirizzo": "Corso Pastrengo  10093", "Nome impianto": "Collegno", "Comune": "COLLEGNO", "idImpianto": 39188, "points": [{"type": "Feature", "properties": {}, "geometry": {"type": "Point", "coordinates": [7.581583145368995, 45.08086836392947]}}], "price": 2.009, "ultima_rilevazione": "26/06/2022 09:03:06"}, {"Gestore": "IP SERVICES S.R.L.", "Bandiera": "Api-Ip", "Tipo impianto": "Altro", "Indirizzo": "VIA ALPIGNANO 130 10040", "Nome impianto": "Val della Torre Torino", "Comune": "VAL DELLA TORRE", "idImpianto": 40045, "points": [{"type": "Feature", "properties": {}, "geometry": {"type": "Point", "coordinates": [7.488698735833168, 45.13203174257948]}}], "price": 1.985, "ultima_rilevazione": "26/06/2022 09:03:06"}, {"Gestore": "SERVIZI & GESTIONI ITALIA S.R.L.", "Bandiera": "Q8", "Tipo impianto": "Altro", "Indirizzo": "VIA PIANEZZA 385 10151", "Nome impianto": "TORINO VIA PIANEZZA 385", "Comune": "TORINO", "idImpianto": 48815, "points": [{"type": "Feature", "properties": {}, "geometry": {"type": "Point", "coordinates": [7.620992475463093, 45.09912497394853]}}], "price": 2.289, "ultima_rilevazione": "27/06/2022 00:34:32"}, {"Gestore": "SERVIZI & GESTIONI ITALIA S.R.L.", "Bandiera": "Q8", "Tipo impianto": "Altro", "Indirizzo": "VIA PIANEZZA 385 10151", "Nome impianto": "TORINO VIA PIANEZZA 385", "Comune": "TORINO", "idImpianto": 48815, "points": [{"type": "Feature", "properties": {}, "geometry": {"type": "Point", "coordinates": [7.620992475463093, 45.09912497394853]}}], "price": 2.309, "ultima_rilevazione": "27/06/2022 00:34:32"}], "5": [{"Gestore": "ROSELLI DAVIDE", "Bandiera": "Esso", "Tipo impianto": "Altro", "Indirizzo": "via lanzo  76 10071", "Nome impianto": "ESSO ", "Comune": "BORGARO TORINESE", "idImpianto": 48545, "points": [{"type": "Feature", "properties": {}, "geometry": {"type": "Point", "coordinates": [7.655568728836055, 45.14578362121748]}}], "price": 2.149, "ultima_rilevazione": "11/06/2022 11:31:05"}, {"Gestore": "TESORO MICHELE E DAVIDE SNC", "Bandiera": "Esso", "Tipo impianto": "Altro", "Indirizzo": "VIA STAMPINI 34/A 10148", "Nome impianto": "STAZIONE DI SERVIZIO ESSO DI TESORO M.E D.SNC", "Comune": "TORINO", "idImpianto": 44165, "points": [{"type": "Feature", "properties": {}, "geometry": {"type": "Point", "coordinates": [7.663632247885062, 45.10890661626722]}}], "price": 2.199, "ultima_rilevazione": "22/06/2022 07:31:50"}, {"Gestore": "ROCCA PAOLO", "Bandiera": "Esso", "Tipo impianto": "Altro", "Indirizzo": "CORSO FRANCIA 30/C 10098", "Nome impianto": "ESSO", "Comune": "RIVOLI", "idImpianto": 51120, "points": [{"type": "Feature", "properties": {}, "geometry": {"type": "Point", "coordinates": [7.524395030001623, 45.070333304163405]}}], "price": 2.159, "ultima_rilevazione": "22/06/2022 13:25:08"}, {"Gestore": "ARC S.N.C. DI ARROCCESE GIULIAN & C.", "Bandiera": "Esso", "Tipo impianto": "Altro", "Indirizzo": "STRADA COMUNALE DI ALTESSANO 138/A 10151", "Nome impianto": "STAZIONE ESSO ARC.SNC", "Comune": "TORINO", "idImpianto": 37645, "points": [{"type": "Feature", "properties": {}, "geometry": {"type": "Point", "coordinates": [7.645719944249777, 45.10944612290978]}}], "price": 2.159, "ultima_rilevazione": "24/06/2022 07:25:30"}, {"Gestore": "CAPPUCCI ALESSIO CARBURANTI & C. S.N.C.", "Bandiera": "Esso", "Tipo impianto": "Altro", "Indirizzo": "Via Sansovino 88/A 10151", "Nome impianto": "CAPPUCCI ALESSIO CARBURANTI & C. SNC", "Comune": "TORINO", "idImpianto": 45129, "points": [{"type": "Feature", "properties": {}, "geometry": {"type": "Point", "coordinates": [7.641423000123, 45.101915000123]}}], "price": 2.176, "ultima_rilevazione": "24/06/2022 10:24:51"}, {"Gestore": "IP SERVICES S.R.L.", "Bandiera": "Api-Ip", "Tipo impianto": "Altro", "Indirizzo": "c.so Torino 170 10095", "Nome impianto": "Grugliasco Corso Torino", "Comune": "GRUGLIASCO", "idImpianto": 38721, "points": [{"type": "Feature", "properties": {}, "geometry": {"type": "Point", "coordinates": [7.601460814476013, 45.06416035294209]}}], "price": 1.985, "ultima_rilevazione": "26/06/2022 09:03:07"}, {"Gestore": "IP SERVICES S.R.L.", "Bandiera": "Api-Ip", "Tipo impianto": "Altro", "Indirizzo": "CORSO TORINO  35/B 10098", "Nome impianto": "Rivoli corso Torino", "Comune": "RIVOLI", "idImpianto": 33456, "points": [{"type": "Feature", "properties": {}, "geometry": {"type": "Point", "coordinates": [7.5272876769304276, 45.07447469365621]}}], "price": 1.999, "ultima_rilevazione": "26/06/2022 09:03:35"}, {"Gestore": "IP SERVICES S.R.L.", "Bandiera": "Api-Ip", "Tipo impianto": "Altro", "Indirizzo": "Strada Altessano 106/A 10151", "Nome impianto": "Altessano Torino", "Comune": "TORINO", "idImpianto": 36452, "points": [{"type": "Feature", "properties": {}, "geometry": {"type": "Point", "coordinates": [7.645593881607056, 45.10782476295114]}}], "price": 2.009, "ultima_rilevazione": "26/06/2022 09:03:50"}, {"Gestore": "SERVIZI & GESTIONI ITALIA S.R.L.", "Bandiera": "Q8", "Tipo impianto": "Altro", "Indirizzo": "VIA COSSA 2 /PIAZZA MASSAUA  10146", "Nome impianto": "TORINO VIA COSSA 2 /PIAZZA MASSAUA", "Comune": "TORINO", "idImpianto": 49464, "points": [{"type": "Feature", "properties": {}, "geometry": {"type": "Point", "coordinates": [7.620107088954944, 45.07537412944328]}}], "price": 2.319, "ultima_rilevazione": "27/06/2022 00:34:32"}, {"Gestore": "SERVIZI & GESTIONI ITALIA S.R.L.", "Bandiera": "Q8", "Tipo impianto": "Altro", "Indirizzo": "CORSO TOSCANA 43/A 10149", "Nome impianto": "TORINO CORSO TOSCANA 43/A", "Comune": "TORINO", "idImpianto": 24636, "points": [{"type": "Feature", "properties": {}, "geometry": {"type": "Point", "coordinates": [7.656544368122923, 45.09699542168028]}}], "price": 2.289, "ultima_rilevazione": "27/06/2022 00:34:32"}, {"Gestore": "SERVIZI & GESTIONI ITALIA S.R.L.", "Bandiera": "Q8", "Tipo impianto": "Altro", "Indirizzo": "CORSO TOSCANA 43/A 10149", "Nome impianto": "TORINO CORSO TOSCANA 43/A", "Comune": "TORINO", "idImpianto": 24636, "points": [{"type": "Feature", "properties": {}, "geometry": {"type": "Point", "coordinates": [7.656544368122923, 45.09699542168028]}}], "price": 2.299, "ultima_rilevazione": "27/06/2022 00:34:32"}, {"Gestore": "SERVIZI & GESTIONI ITALIA S.R.L.", "Bandiera": "Q8", "Tipo impianto": "Altro", "Indirizzo": "STRAD PROV. TORINO-LANZO S/N 10071", "Nome impianto": "BORGARO TORINESE-STRAD PROV. TORINO-LANZO", "Comune": "BORGARO TORINESE", "idImpianto": 11873, "points": [{"type": "Feature", "properties": {}, "geometry": {"type": "Point", "coordinates": [7.655451720237693, 45.14140756768663]}}], "price": 2.309, "ultima_rilevazione": "27/06/2022 00:34:34"}, {"Gestore": "SERVIZI & GESTIONI ITALIA S.R.L.", "Bandiera": "Q8", "Tipo impianto": "Altro", "Indirizzo": "STRAD PROV. TORINO-LANZO S/N 10071", "Nome impianto": "BORGARO TORINESE-STRAD PROV. TORINO-LANZO", "Comune": "BORGARO TORINESE", "idImpianto": 11873, "points": [{"type": "Feature", "properties": {}, "geometry": {"type": "Point", "coordinates": [7.655451720237693, 45.14140756768663]}}], "price": 2.369, "ultima_rilevazione": "27/06/2022 00:34:34"}, {"Gestore": "SERVIZI & GESTIONI ITALIA S.R.L.", "Bandiera": "Q8", "Tipo impianto": "Altro", "Indirizzo": "VIA SANSOVINO/VIA MOLISE S/N 10151", "Nome impianto": "TORINO-VIA SANSOVINO/VIA MOLISE", "Comune": "TORINO", "idImpianto": 11863, "points": [{"type": "Feature", "properties": {}, "geometry": {"type": "Point", "coordinates": [7.63872682209012, 45.100830292288975]}}], "price": 2.319, "ultima_rilevazione": "27/06/2022 00:34:41"}, {"Gestore": "SERVIZI & GESTIONI ITALIA S.R.L.", "Bandiera": "Q8", "Tipo impianto": "Altro", "Indirizzo": "VIA SANSOVINO/VIA MOLISE S/N 10151", "Nome impianto": "TORINO-VIA SANSOVINO/VIA MOLISE", "Comune": "TORINO", "idImpianto": 11863, "points": [{"type": "Feature", "properties": {}, "geometry": {"type": "Point", "coordinates": [7.63872682209012, 45.100830292288975]}}], "price": 2.359, "ultima_rilevazione": "27/06/2022 00:34:41"}, {"Gestore": "SERVIZI & GESTIONI ITALIA S.R.L.", "Bandiera": "Q8", "Tipo impianto": "Altro", "Indirizzo": "VIA PAOLO VERONESE ANGOLO STRADA LANZO S/N 10148", "Nome impianto": "TORINO-VIA PAOLO VERONESE ANGOLO STRADA LA", "Comune": "TORINO", "idImpianto": 11864, "points": [{"type": "Feature", "properties": {}, "geometry": {"type": "Point", "coordinates": [7.660827987766197, 45.11157414810119]}}], "price": 2.319, "ultima_rilevazione": "27/06/2022 00:34:41"}, {"Gestore": "SERVIZI & GESTIONI ITALIA S.R.L.", "Bandiera": "Q8", "Tipo impianto": "Altro", "Indirizzo": "VIA PAOLO VERONESE ANGOLO STRADA LANZO S/N 10148", "Nome impianto": "TORINO-VIA PAOLO VERONESE ANGOLO STRADA LA", "Comune": "TORINO", "idImpianto": 11864, "points": [{"type": "Feature", "properties": {}, "geometry": {"type": "Point", "coordinates": [7.660827987766197, 45.11157414810119]}}], "price": 2.359, "ultima_rilevazione": "27/06/2022 00:34:41"}]}, "Blue Diesel": {"1": [{"Gestore": "FAMIREL S.N.C. DI FAMMILUME GENNARO E RELLA ANNARITA", "Bandiera": "Agip Eni", "Tipo impianto": "Altro", "Indirizzo": "VIA PIAVE 35 10044", "Nome impianto": "eni", "Comune": "PIANEZZA", "idImpianto": 38465, "points": [{"type": "Feature", "properties": {}, "geometry": {"type": "Point", "coordinates": [7.556098832016005, 45.09815772951559]}}], "price": 2.109, "ultima_rilevazione": "17/06/2022 19:08:58"}, {"Gestore": "FAMIREL S.N.C. DI FAMMILUME GENNARO E RELLA ANNARITA", "Bandiera": "Agip Eni", "Tipo impianto": "Altro", "Indirizzo": "VIA PIAVE 35 10044", "Nome impianto": "eni", "Comune": "PIANEZZA", "idImpianto": 38465, "points": [{"type": "Feature", "properties": {}, "geometry": {"type": "Point", "coordinates": [7.556098832016005, 45.09815772951559]}}], "price": 2.219, "ultima_rilevazione": "17/06/2022 19:08:58"}], "3": [{"Gestore": "D'ELIA GIOVANNI", "Bandiera": "Agip Eni", "Tipo impianto": "Altro", "Indirizzo": "CORSO SACCO E VANZETTI 9 10093", "Nome impianto": "eni 978", "Comune": "COLLEGNO", "idImpianto": 5581, "points": [{"type": "Feature", "properties": {}, "geometry": {"type": "Point", "coordinates": [7.618653774261475, 45.094546413684775]}}], "price": 2.124, "ultima_rilevazione": "22/06/2022 09:54:18"}, {"Gestore": "BIONDI ANTONIO", "Bandiera": "Agip Eni", "Tipo impianto": "Altro", "Indirizzo": "CORSO GARIBALDI 56 10078", "Nome impianto": "Eni di Biondi Antonio ", "Comune": "VENARIA REALE", "idImpianto": 36798, "points": [{"type": "Feature", "properties": {}, "geometry": {"type": "Point", "coordinates": [7.637437283992767, 45.12662925718583]}}], "price": 2.189, "ultima_rilevazione": "22/06/2022 15:43:34"}, {"Gestore": "BIONDI ANTONIO", "Bandiera": "Agip Eni", "Tipo impianto": "Altro", "Indirizzo": "CORSO GARIBALDI 56 10078", "Nome impianto": "Eni di Biondi Antonio ", "Comune": "VENARIA REALE", "idImpianto": 36798, "points": [{"type": "Feature", "properties": {}, "geometry": {"type": "Point", "coordinates": [7.637437283992767, 45.12662925718583]}}], "price": 2.259, "ultima_rilevazione": "22/06/2022 15:43:34"}, {"Gestore": "MAGLIONE S.N.C. DI MAGLIONE DAVIDE E C.", "Bandiera": "Agip Eni", "Tipo impianto": "Autostradale", "Indirizzo": "Autostrada A55 TANG.LE DI TORINO, Km. 0+900, dir. Sud ", "Nome impianto": "RIVOLI", "Comune": "RIVOLI", "idImpianto": 3807, "points": [{"type": "Feature", "properties": {}, "geometry": {"type": "Point", "coordinates": [7.515726685523987, 45.08370580351621]}}], "price": 2.204, "ultima_rilevazione": "23/06/2022 06:45:36"}, {"Gestore": "MAGLIONE S.N.C. DI MAGLIONE DAVIDE E C.", "Bandiera": "Agip Eni", "Tipo impianto": "Autostradale", "Indirizzo": "Autostrada A55 TANG.LE DI TORINO, Km. 0+900, dir. Sud ", "Nome impianto": "RIVOLI", "Comune": "RIVOLI", "idImpianto": 3807, "points": [{"type": "Feature", "properties": {}, "geometry": {"type": "Point", "coordinates": [7.515726685523987, 45.08370580351621]}}], "price": 2.292, "ultima_rilevazione": "23/06/2022 06:45:36"}, {"Gestore": "MAGEA S.N.C. DI ANTONICELLI EROS & GUGLIOTTA MARIA ANTONIA", "Bandiera": "Agip Eni", "Tipo impianto": "Strada Statale", "Indirizzo": "24 del Monginevro, Km. 16+760, CASELETTE 10091", "Nome impianto": "STAZIONE ENI MAGEA", "Comune": "ALPIGNANO", "idImpianto": 43114, "points": [{"type": "Feature", "properties": {}, "geometry": {"type": "Point", "coordinates": [7.504751417272701, 45.10476516983302]}}], "price": 2.129, "ultima_rilevazione": "27/06/2022 06:55:24"}], "5": [{"Gestore": "BREAKSTATION DI COZZULA S.", "Bandiera": "Agip Eni", "Tipo impianto": "Altro", "Indirizzo": "C.SO PRIMO LEVI  160/A 10098", "Nome impianto": "BREAKSTATION di COZZULA S.", "Comune": "RIVOLI", "idImpianto": 41455, "points": [{"type": "Feature", "properties": {}, "geometry": {"type": "Point", "coordinates": [7.5242601335048676, 45.0610411908136]}}], "price": 2.124, "ultima_rilevazione": "22/06/2022 06:52:28"}, {"Gestore": "BREAKSTATION DI COZZULA S.", "Bandiera": "Agip Eni", "Tipo impianto": "Altro", "Indirizzo": "C.SO PRIMO LEVI  160/A 10098", "Nome impianto": "BREAKSTATION di COZZULA S.", "Comune": "RIVOLI", "idImpianto": 41455, "points": [{"type": "Feature", "properties": {}, "geometry": {"type": "Point", "coordinates": [7.5242601335048676, 45.0610411908136]}}], "price": 2.234, "ultima_rilevazione": "22/06/2022 06:52:28"}, {"Gestore": "MURDOCCO MASSIMO", "Bandiera": "Agip Eni", "Tipo impianto": "Altro", "Indirizzo": "VIA SERVAIS 32/A 10146", "Nome impianto": "ENI 52935", "Comune": "TORINO", "idImpianto": 45680, "points": [{"type": "Feature", "properties": {}, "geometry": {"type": "Point", "coordinates": [7.6361654454036625, 45.08368297157411]}}], "price": 2.184, "ultima_rilevazione": "22/06/2022 07:01:05"}, {"Gestore": "BELLOTTI S.N.C. DI BELLOTTI FILIPPO E DAVIDE", "Bandiera": "Agip Eni", "Tipo impianto": "Altro", "Indirizzo": "corso allamano 160 a, 10098", "Nome impianto": "bellotti snc", "Comune": "RIVOLI", "idImpianto": 18813, "points": [{"type": "Feature", "properties": {}, "geometry": {"type": "Point", "coordinates": [7.557070255279541, 45.05783773413975]}}], "price": 2.129, "ultima_rilevazione": "22/06/2022 09:02:14"}, {"Gestore": "SAMA SNC DI POMO MAURO E LUCCO BOSSU' SARA", "Bandiera": "Agip Eni", "Tipo impianto": "Altro", "Indirizzo": "Corso Francia  401 10142", "Nome impianto": "Stazione di servizio Eni", "Comune": "TORINO", "idImpianto": 40126, "points": [{"type": "Feature", "properties": {}, "geometry": {"type": "Point", "coordinates": [7.60634026636194, 45.07366980061131]}}], "price": 2.234, "ultima_rilevazione": "22/06/2022 12:30:47"}, {"Gestore": "SAMA SNC DI POMO MAURO E LUCCO BOSSU' SARA", "Bandiera": "Agip Eni", "Tipo impianto": "Altro", "Indirizzo": "Corso Francia  401 10142", "Nome impianto": "Stazione di servizio Eni", "Comune": "TORINO", "idImpianto": 40126, "points": [{"type": "Feature", "properties": {}, "geometry": {"type": "Point", "coordinates": [7.60634026636194, 45.07366980061131]}}], "price": 2.124, "ultima_rilevazione": "22/06/2022 12:30:47"}, {"Gestore": "SA.ME.F. DI SARDO MICHAELA, MEOTTO GIANPIERO & C. - S.N.C.", "Bandiera": "Agip Eni", "Tipo impianto": "Altro", "Indirizzo": "CORSO DE GASPERI 101/A 10098", "Nome impianto": "SA.ME.F.", "Comune": "RIVOLI", "idImpianto": 6849, "points": [{"type": "Feature", "properties": {}, "geometry": {"type": "Point", "coordinates": [7.506170498672418, 45.07734771733064]}}], "price": 2.234, "ultima_rilevazione": "22/06/2022 14:18:37"}, {"Gestore": "SA.ME.F. DI SARDO MICHAELA, MEOTTO GIANPIERO & C. - S.N.C.", "Bandiera": "Agip Eni", "Tipo impianto": "Altro", "Indirizzo": "CORSO DE GASPERI 101/A 10098", "Nome impianto": "SA.ME.F.", "Comune": "RIVOLI", "idImpianto": 6849, "points": [{"type": "Feature", "properties": {}, "geometry": {"type": "Point", "coordinates": [7.506170498672418, 45.07734771733064]}}], "price": 2.124, "ultima_rilevazione": "22/06/2022 14:18:37"}]}, "Gasolio High Quality": {"1": [{"Gestore": "ROCCATI GIULIANA", "Bandiera": "Esso", "Tipo impianto": "Strada Statale", "Indirizzo": "Statale 24 del Monginevro, Km. 12+538, dir. Susa Monginevro 10044", "Nome impianto": "Esso", "Comune": "PIANEZZA", "idImpianto": 8359, "points": [{"type": "Feature", "properties": {}, "geometry": {"type": "Point", "coordinates": [7.553480789065361, 45.10047137246544]}}], "price": 2.149, "ultima_rilevazione": "21/06/2022 17:58:01"}], "3": [{"Gestore": "MURATORE S.A.S. DI MURATORE WALTER E C.", "Bandiera": "Esso", "Tipo impianto": "Altro", "Indirizzo": "CORSO FRANCIA 191 10098", "Nome impianto": "ESSO", "Comune": "RIVOLI", "idImpianto": 17599, "points": [{"type": "Feature", "properties": {}, "geometry": {"type": "Point", "coordinates": [7.550315889549211, 45.07181180777596]}}], "price": 2.159, "ultima_rilevazione": "22/06/2022 07:28:57"}, {"Gestore": "M.A. SERVICE S.N.C. DI DI GENNARO MARCO & GESUALDO ALESSANDRO", "Bandiera": "Api-Ip", "Tipo impianto": "Altro", "Indirizzo": "CORSO TOGLIATTI 12 10093", "Nome impianto": "totalerg", "Comune": "COLLEGNO", "idImpianto": 40157, "points": [{"type": "Feature", "properties": {}, "geometry": {"type": "Point", "coordinates": [7.564465139881122, 45.073229163995215]}}], "price": 2.099, "ultima_rilevazione": "23/06/2022 17:01:43"}, {"Gestore": "SCARAFIA FABRIZIO S.A.S. DI FABRIZIO SCARAFIA & C.", "Bandiera": "Esso", "Tipo impianto": "Altro", "Indirizzo": "VIA LUPO 98 10024", "Nome impianto": "STAZIONE DI SERVIZIO ESSO SCARAFIA FABRIZIO", "Comune": "GRUGLIASCO", "idImpianto": 32614, "points": [{"type": "Feature", "properties": {}, "geometry": {"type": "Point", "coordinates": [7.579118036245745, 45.06540391138897]}}], "price": 2.209, "ultima_rilevazione": "24/06/2022 06:31:28"}, {"Gestore": "ECONOMY S.R.L.", "Bandiera": "Economysrl", "Tipo impianto": "Altro", "Indirizzo": "VIA XXX APRILE 25 10093", "Nome impianto": "Economy - Collegno", "Comune": "COLLEGNO", "idImpianto": 47153, "points": [{"type": "Feature", "properties": {}, "geometry": {"type": "Point", "coordinates": [7.574864000123, 45.082282000123]}}], "price": 2.089, "ultima_rilevazione": "24/06/2022 19:00:04"}], "5": [{"Gestore": "ROSELLI MICHELE", "Bandiera": "Esso", "Tipo impianto": "Altro", "Indirizzo": "VIA SERVAIS 210/7 10146", "Nome impianto": "STAZIONE DI SERVIZIO ESSO EXPRESS", "Comune": "TORINO", "idImpianto": 37535, "points": [{"type": "Feature", "properties": {}, "geometry": {"type": "Point", "coordinates": [7.614164119643419, 45.08702061254925]}}], "price": 2.159, "ultima_rilevazione": "21/06/2022 08:14:45"}, {"Gestore": "CIRILLO AUTORIPARAZIONI 2 S.A.S. DI CIRILLO PIETRO & C.", "Bandiera": "Esso", "Tipo impianto": "Altro", "Indirizzo": "CORSO FRANCIA 462 10143", "Nome impianto": "ESSO", "Comune": "TORINO", "idImpianto": 40065, "points": [{"type": "Feature", "properties": {}, "geometry": {"type": "Point", "coordinates": [7.606014273610754, 45.07428687878568]}}], "price": 2.199, "ultima_rilevazione": "21/06/2022 08:47:12"}, {"Gestore": "CAPPUCCI ALESSIO CARBURANTI & C. S.N.C.", "Bandiera": "Esso", "Tipo impianto": "Altro", "Indirizzo": "VIA MICHELE LESSONA 84/A 10145", "Nome impianto": "CAPPUCCI CARBURANTI VIA LESSONA", "Comune": "TORINO", "idImpianto": 24311, "points": [{"type": "Feature", "properties": {}, "geometry": {"type": "Point", "coordinates": [7.640396490178318, 45.08350879449111]}}], "price": 2.186, "ultima_rilevazione": "25/06/2022 07:59:33"}]}, "Benzina": {"1": [{"Gestore": "FAMIREL S.N.C. DI FAMMILUME GENNARO E RELLA ANNARITA", "Bandiera": "Agip Eni", "Tipo impianto": "Altro", "Indirizzo": "VIA PIAVE 35 10044", "Nome impianto": "eni", "Comune": "PIANEZZA", "idImpianto": 38465, "points": [{"type": "Feature", "properties": {}, "geometry": {"type": "Point", "coordinates": [7.556098832016005, 45.09815772951559]}}], "price": 2.069, "ultima_rilevazione": "17/06/2022 19:08:58"}, {"Gestore": "SED S.N.C. DI DAVIDE E STEFANO MONTAGONO", "Bandiera": "Api-Ip", "Tipo impianto": "Altro", "Indirizzo": "VIA VENARIA 8 10091", "Nome impianto": "IP Italiana Petroli", "Comune": "ALPIGNANO", "idImpianto": 43361, "points": [{"type": "Feature", "properties": {}, "geometry": {"type": "Point", "coordinates": [7.534227084655754, 45.10202250519849]}}], "price": 2.089, "ultima_rilevazione": "20/06/2022 10:11:15"}, {"Gestore": "ECONOMY S.R.L.", "Bandiera": "Api-Ip", "Tipo impianto": "Altro", "Indirizzo": "CORSO MACHIAVELLI 230  ANG. DON SAPINO  10078", "Nome impianto": "Economy S.r.l - Venaria ", "Comune": "VENARIA REALE", "idImpianto": 25023, "points": [{"type": "Feature", "properties": {}, "geometry": {"type": "Point", "coordinates": [7.618852257728577, 45.12220737086037]}}], "price": 2.059, "ultima_rilevazione": "21/06/2022 15:02:29"}, {"Gestore": "ROCCATI GIULIANA", "Bandiera": "Esso", "Tipo impianto": "Strada Statale", "Indirizzo": "Statale 24 del Monginevro, Km. 12+538, dir. Susa Monginevro 10044", "Nome impianto": "Esso", "Comune": "PIANEZZA", "idImpianto": 8359, "points": [{"type": "Feature", "properties": {}, "geometry": {"type": "Point", "coordinates": [7.553480789065361, 45.10047137246544]}}], "price": 2.069, "ultima_rilevazione": "21/06/2022 17:58:01"}, {"Gestore": "NECCHIO ADRIANO", "Bandiera": "Esso", "Tipo impianto": "Altro", "Indirizzo": "VIA VAL DELLA TORRE 210 10091", "Nome impianto": "DISTRIBUTORE ESSO", "Comune": "ALPIGNANO", "idImpianto": 7872, "points": [{"type": "Feature", "properties": {}, "geometry": {"type": "Point", "coordinates": [7.505966126918793, 45.11918184652125]}}], "price": 2.054, "ultima_rilevazione": "23/06/2022 18:37:28"}, {"Gestore": "IP SERVICES S.R.L.", "Bandiera": "Api-Ip", "Tipo impianto": "Altro", "Indirizzo": "VIA TORINO  10044", "Nome impianto": "PIANEZZA VIA TORINO", "Comune": "PIANEZZA", "idImpianto": 21859, "points": [{"type": "Feature", "properties": {}, "geometry": {"type": "Point", "coordinates": [7.574412077665329, 45.104513747653854]}}], "price": 2.049, "ultima_rilevazione": "26/06/2022 09:02:32"}, {"Gestore": "IP SERVICES S.R.L.", "Bandiera": "Api-Ip", "Tipo impianto": "Altro", "Indirizzo": "VIA TORINO -  OVEST  10044", "Nome impianto": "PIANEZZA VIA TORINO -  OVEST", "Comune": "PIANEZZA", "idImpianto": 21862, "points": [{"type": "Feature", "properties": {}, "geometry": {"type": "Point", "coordinates": [7.573900446295738, 45.10443063852144]}}], "price": 2.049, "ultima_rilevazione": "26/06/2022 09:02:32"}, {"Gestore": "IP SERVICES S.R.L.", "Bandiera": "Api-Ip", "Tipo impianto": "Altro", "Indirizzo": "SP 24 KM 2+265  10044", "Nome impianto": "Pianezza", "Comune": "PIANEZZA", "idImpianto": 38966, "points": [{"type": "Feature", "properties": {}, "geometry": {"type": "Point", "coordinates": [7.56183385848999, 45.11204418338163]}}], "price": 2.059, "ultima_rilevazione": "26/06/2022 09:03:28"}, {"Gestore": "T.D.M. S.R.L.", "Bandiera": "Tamoil", "Tipo impianto": "Altro", "Indirizzo": "SP.176 DA KM. 0+600 A KM. 0+660 LATO SX 12 10040", "Nome impianto": "7767", "Comune": "DRUENTO", "idImpianto": 47138, "points": [{"type": "Feature", "properties": {}, "geometry": {"type": "Point", "coordinates": [7.590820481852423, 45.11816769770197]}}], "price": 2.049, "ultima_rilevazione": "26/06/2022 13:54:05"}, {"Gestore": "SERVIZI & GESTIONI ITALIA S.R.L.", "Bandiera": "Q8", "Tipo impianto": "Altro", "Indirizzo": "S.P. TO/DRUENTO KM 10+400  10040", "Nome impianto": "DRUENTO S.P. TO/DRUENTO KM 10+400", "Comune": "DRUENTO", "idImpianto": 22253, "points": [{"type": "Feature", "properties": {}, "geometry": {"type": "Point", "coordinates": [7.598684669380987, 45.12217330018168]}}], "price": 2.039, "ultima_rilevazione": "27/06/2022 00:34:29"}, {"Gestore": "SERVIZI & GESTIONI ITALIA srl", "Bandiera": "Q8", "Tipo impianto": "Altro", "Indirizzo": "SP 24 LOC. STAZIONETTA SNC 10093", "Nome impianto": "COLLEGNO SP 24 LOC. STAZIONETTA", "Comune": "COLLEGNO", "idImpianto": 6393, "points": [{"type": "Feature", "properties": {}, "geometry": {"type": "Point", "coordinates": [7.577296793460846, 45.09582544231724]}}], "price": 2.059, "ultima_rilevazione": "27/06/2022 00:34:31"}], "3": [{"Gestore": "ALOISIO MARCO", "Bandiera": "Q8", "Tipo impianto": "Altro", "Indirizzo": "VIA CAVALLO 76 10078", "Nome impianto": "Q8 Aloisio ", "Comune": "VENARIA REALE", "idImpianto": 32526, "points": [{"type": "Feature", "properties": {}, "geometry": {"type": "Point", "coordinates": [7.626418769359589, 45.13998102537151]}}], "price": 2.079, "ultima_rilevazione": "20/06/2022 08:56:19"}, {"Gestore": "MURATORE S.A.S. DI MURATORE WALTER E C.", "Bandiera": "Esso", "Tipo impianto": "Altro", "Indirizzo": "CORSO FRANCIA 191 10098", "Nome impianto": "ESSO", "Comune": "RIVOLI", "idImpianto": 17599, "points": [{"type": "Feature", "properties": {}, "geometry": {"type": "Point", "coordinates": [7.550315889549211, 45.07181180777596]}}], "price": 2.049, "ultima_rilevazione": "22/06/2022 07:28:57"}, {"Gestore": "D'ELIA GIOVANNI", "Bandiera": "Agip Eni", "Tipo impianto": "Altro", "Indirizzo": "CORSO SACCO E VANZETTI 9 10093", "Nome impianto": "eni 978", "Comune": "COLLEGNO", "idImpianto": 5581, "points": [{"type": "Feature", "properties": {}, "geometry": {"type": "Point", "coordinates": [7.618653774261475, 45.094546413684775]}}], "price": 2.084, "ultima_rilevazione": "22/06/2022 09:54:18"}, {"Gestore": "BIONDI ANTONIO", "Bandiera": "Agip Eni", "Tipo impianto": "Altro", "Indirizzo": "CORSO GARIBALDI 56 10078", "Nome impianto": "Eni di Biondi Antonio ", "Comune": "VENARIA REALE", "idImpianto": 36798, "points": [{"type": "Feature", "properties": {}, "geometry": {"type": "Point", "coordinates": [7.637437283992767, 45.12662925718583]}}], "price": 2.109, "ultima_rilevazione": "22/06/2022 15:43:34"}, {"Gestore": "MAGLIONE S.N.C. DI MAGLIONE DAVIDE E C.", "Bandiera": "Agip Eni", "Tipo impianto": "Autostradale", "Indirizzo": "Autostrada A55 TANG.LE DI TORINO, Km. 0+900, dir. Sud ", "Nome impianto": "RIVOLI", "Comune": "RIVOLI", "idImpianto": 3807, "points": [{"type": "Feature", "properties": {}, "geometry": {"type": "Point", "coordinates": [7.515726685523987, 45.08370580351621]}}], "price": 2.142, "ultima_rilevazione": "23/06/2022 06:45:36"}, {"Gestore": "ECONOMY S.R.L.", "Bandiera": "Api-Ip", "Tipo impianto": "Altro", "Indirizzo": "S. P. Alpignano-Rivoli 57 10091", "Nome impianto": "Economy Alpignano", "Comune": "ALPIGNANO", "idImpianto": 36991, "points": [{"type": "Feature", "properties": {}, "geometry": {"type": "Point", "coordinates": [7.523226141929626, 45.087480092461526]}}], "price": 2.049, "ultima_rilevazione": "23/06/2022 07:41:55"}, {"Gestore": "PETROLTERMICA COMAC - OLCEA S.P.A.", "Bandiera": "Pompe Bianche", "Tipo impianto": "Altro", "Indirizzo": "CORSO FLEMING 35 10040", "Nome impianto": "Petroltermica Druento", "Comune": "DRUENTO", "idImpianto": 21492, "points": [{"type": "Feature", "properties": {}, "geometry": {"type": "Point", "coordinates": [7.586854845285416, 45.13065020682192]}}], "price": 2.049, "ultima_rilevazione": "23/06/2022 08:32:20"}, {"Gestore": "GAS STATION S.R.L.", "Bandiera": "Repsol", "Tipo impianto": "Altro", "Indirizzo": "CORSO FRANCIA 204 10098", "Nome impianto": "Gas Station Rivoli-C.so Francia 204", "Comune": "RIVOLI", "idImpianto": 40186, "points": [{"type": "Feature", "properties": {}, "geometry": {"type": "Point", "coordinates": [7.54812240600586, 45.0713346893347]}}], "price": 2.039, "ultima_rilevazione": "23/06/2022 11:52:13"}, {"Gestore": "M.A. SERVICE S.N.C. DI DI GENNARO MARCO & GESUALDO ALESSANDRO", "Bandiera": "Api-Ip", "Tipo impianto": "Altro", "Indirizzo": "CORSO TOGLIATTI 12 10093", "Nome impianto": "totalerg", "Comune": "COLLEGNO", "idImpianto": 40157, "points": [{"type": "Feature", "properties": {}, "geometry": {"type": "Point", "coordinates": [7.564465139881122, 45.073229163995215]}}], "price": 2.119, "ultima_rilevazione": "23/06/2022 17:01:43"}, {"Gestore": "SCARAFIA FABRIZIO S.A.S. DI FABRIZIO SCARAFIA & C.", "Bandiera": "Esso", "Tipo impianto": "Altro", "Indirizzo": "VIA LUPO 98 10024", "Nome impianto": "STAZIONE DI SERVIZIO ESSO SCARAFIA FABRIZIO", "Comune": "GRUGLIASCO", "idImpianto": 32614, "points": [{"type": "Feature", "properties": {}, "geometry": {"type": "Point", "coordinates": [7.579118036245745, 45.06540391138897]}}], "price": 2.039, "ultima_rilevazione": "24/06/2022 06:31:28"}, {"Gestore": "SABINO ALESSANDRO", "Bandiera": "Esso", "Tipo impianto": "Altro", "Indirizzo": "STRADA TORINO PIANEZZA 90 10093", "Nome impianto": "ESSO STAZIONE", "Comune": "COLLEGNO", "idImpianto": 50690, "points": [{"type": "Feature", "properties": {}, "geometry": {"type": "Point", "coordinates": [7.592963317790918, 45.09679353299372]}}], "price": 2.069, "ultima_rilevazione": "24/06/2022 07:42:29"}, {"Gestore": "GIODA AGOSTINO S.R.L.", "Bandiera": "Pompe Bianche", "Tipo impianto": "Altro", "Indirizzo": "CORSO GARIBALDI 164 10078", "Nome impianto": "GIODA AGOSTINO SRL - DISTRIBUTORE", "Comune": "VENARIA REALE", "idImpianto": 24038, "points": [{"type": "Feature", "properties": {}, "geometry": {"type": "Point", "coordinates": [7.643681466579437, 45.11874065836433]}}], "price": 2.039, "ultima_rilevazione": "24/06/2022 12:23:54"}, {"Gestore": "GIODA AGOSTINO S.R.L.", "Bandiera": "Pompe Bianche", "Tipo impianto": "Altro", "Indirizzo": "CORSO GARIBALDI  153 10078", "Nome impianto": "GIODA AGOSTINO SRL -G.P.L.", "Comune": "VENARIA REALE", "idImpianto": 31773, "points": [{"type": "Feature", "properties": {}, "geometry": {"type": "Point", "coordinates": [7.643968462944031, 45.12084187352116]}}], "price": 2.039, "ultima_rilevazione": "24/06/2022 12:23:59"}, {"Gestore": "ECONOMY S.R.L.", "Bandiera": "Economysrl", "Tipo impianto": "Altro", "Indirizzo": "VIA XXX APRILE 25 10093", "Nome impianto": "Economy - Collegno", "Comune": "COLLEGNO", "idImpianto": 47153, "points": [{"type": "Feature", "properties": {}, "geometry": {"type": "Point", "coordinates": [7.574864000123, 45.082282000123]}}], "price": 2.039, "ultima_rilevazione": "24/06/2022 19:00:04"}, {"Gestore": "NUOVA SIDAP  S.R.L.", "Bandiera": "Api-Ip", "Tipo impianto": "Autostradale", "Indirizzo": "A55 TANG.LE DI TORINO, Km. 1+900, ovest 10098", "Nome impianto": "RIVOLI NORD", "Comune": "RIVOLI", "idImpianto": 25612, "points": [{"type": "Feature", "properties": {}, "geometry": {"type": "Point", "coordinates": [7.526997327804565, 45.08449363357934]}}], "price": 2.289, "ultima_rilevazione": "26/06/2022 08:42:44"}, {"Gestore": "IP SERVICES S.R.L.", "Bandiera": "Api-Ip", "Tipo impianto": "Altro", "Indirizzo": "VIA DON CAUSTICO 31 10095", "Nome impianto": "GRUGLIASCO - DON CAUSTICO", "Comune": "GRUGLIASCO", "idImpianto": 24658, "points": [{"type": "Feature", "properties": {}, "geometry": {"type": "Point", "coordinates": [7.570384489583944, 45.06390473622926]}}], "price": 2.039, "ultima_rilevazione": "26/06/2022 09:01:03"}, {"Gestore": "IP SERVICES S.R.L.", "Bandiera": "Api-Ip", "Tipo impianto": "Altro", "Indirizzo": "Corso Pastrengo  10093", "Nome impianto": "Collegno", "Comune": "COLLEGNO", "idImpianto": 39188, "points": [{"type": "Feature", "properties": {}, "geometry": {"type": "Point", "coordinates": [7.581583145368995, 45.08086836392947]}}], "price": 2.079, "ultima_rilevazione": "26/06/2022 09:03:06"}, {"Gestore": "IP SERVICES S.R.L.", "Bandiera": "Api-Ip", "Tipo impianto": "Altro", "Indirizzo": "VIA ALPIGNANO 130 10040", "Nome impianto": "Val della Torre Torino", "Comune": "VAL DELLA TORRE", "idImpianto": 40045, "points": [{"type": "Feature", "properties": {}, "geometry": {"type": "Point", "coordinates": [7.488698735833168, 45.13203174257948]}}], "price": 2.069, "ultima_rilevazione": "26/06/2022 09:03:06"}, {"Gestore": "T.D.M. S.R.L.", "Bandiera": "Tamoil", "Tipo impianto": "Altro", "Indirizzo": "VIA LAMARMORA 116 10095", "Nome impianto": "6216", "Comune": "GRUGLIASCO", "idImpianto": 47654, "points": [{"type": "Feature", "properties": {}, "geometry": {"type": "Point", "coordinates": [7.584867654536902, 45.06561292532808]}}], "price": 2.019, "ultima_rilevazione": "26/06/2022 13:54:03"}, {"Gestore": "T.D.M. S.R.L.", "Bandiera": "Tamoil", "Tipo impianto": "Altro", "Indirizzo": "CORSO SUSA 4 10040", "Nome impianto": "8013", "Comune": "CASELETTE", "idImpianto": 44380, "points": [{"type": "Feature", "properties": {}, "geometry": {"type": "Point", "coordinates": [7.498976959940592, 45.10741854063976]}}], "price": 2.059, "ultima_rilevazione": "27/06/2022 06:56:05"}, {"Gestore": "SERVIZI & GESTIONI ITALIA S.R.L.", "Bandiera": "Q8", "Tipo impianto": "Altro", "Indirizzo": "VIA PIANEZZA 385 10151", "Nome impianto": "TORINO VIA PIANEZZA 385", "Comune": "TORINO", "idImpianto": 48815, "points": [{"type": "Feature", "properties": {}, "geometry": {"type": "Point", "coordinates": [7.620992475463093, 45.09912497394853]}}], "price": 2.009, "ultima_rilevazione": "27/06/2022 00:34:32"}, {"Gestore": "MAGEA S.N.C. DI ANTONICELLI EROS & GUGLIOTTA MARIA ANTONIA", "Bandiera": "Agip Eni", "Tipo impianto": "Strada Statale", "Indirizzo": "24 del Monginevro, Km. 16+760, CASELETTE 10091", "Nome impianto": "STAZIONE ENI MAGEA", "Comune": "ALPIGNANO", "idImpianto": 43114, "points": [{"type": "Feature", "properties": {}, "geometry": {"type": "Point", "coordinates": [7.504751417272701, 45.10476516983302]}}], "price": 2.089, "ultima_rilevazione": "27/06/2022 06:55:24"}], "5": [{"Gestore": "BRESCIANINI PIETRO", "Bandiera": "Socogas", "Tipo impianto": "Altro", "Indirizzo": "Corso C.Allamano 37 10095", "Nome impianto": "SOCOGAS SPA", "Comune": "GRUGLIASCO", "idImpianto": 36909, "points": [{"type": "Feature", "properties": {}, "geometry": {"type": "Point", "coordinates": [7.588460147380829, 45.05240008664385]}}], "price": 1.719, "ultima_rilevazione": "07/12/2021 18:32:07"}, {"Gestore": "ROSELLI DAVIDE", "Bandiera": "Esso", "Tipo impianto": "Altro", "Indirizzo": "via lanzo  76 10071", "Nome impianto": "ESSO ", "Comune": "BORGARO TORINESE", "idImpianto": 48545, "points": [{"type": "Feature", "properties": {}, "geometry": {"type": "Point", "coordinates": [7.655568728836055, 45.14578362121748]}}], "price": 2.069, "ultima_rilevazione": "11/06/2022 11:31:05"}, {"Gestore": "CIRILLO AUTORIPARAZIONI S.A.S. DI CIRILLO PIETRO & C.", "Bandiera": "Esso", "Tipo impianto": "Altro", "Indirizzo": "VIA PIETRO COSSA 175/A 10146", "Nome impianto": "ESSO ", "Comune": "TORINO", "idImpianto": 40049, "points": [{"type": "Feature", "properties": {}, "geometry": {"type": "Point", "coordinates": [7.625419901188707, 45.08620538125764]}}], "price": 2.059, "ultima_rilevazione": "17/06/2022 08:37:14"}, {"Gestore": "TOFFEE DI LAURICELLA MARCO & C. S.N.C.", "Bandiera": "Api-Ip", "Tipo impianto": "Altro", "Indirizzo": "Via San Gillio 50 10040", "Nome impianto": "Italiana Petroli", "Comune": "GIVOLETTO", "idImpianto": 49396, "points": [{"type": "Feature", "properties": {}, "geometry": {"type": "Point", "coordinates": [7.5033806153961535, 45.1559432314448]}}], "price": 2.069, "ultima_rilevazione": "20/06/2022 20:46:52"}, {"Gestore": "SERVIZI & GESTIONI ITALIA S.R.L.", "Bandiera": "Q8", "Tipo impianto": "Altro", "Indirizzo": "VIA P.COSSA 195/a 10145", "Nome impianto": "TORINO VIA P.COSSA 195/A", "Comune": "TORINO", "idImpianto": 32482, "points": [{"type": "Feature", "properties": {}, "geometry": {"type": "Point", "coordinates": [7.626372706745883, 45.087588804279456]}}], "price": 2.019, "ultima_rilevazione": "21/06/2022 01:38:13"}, {"Gestore": "ROSELLI MICHELE", "Bandiera": "Esso", "Tipo impianto": "Altro", "Indirizzo": "VIA SERVAIS 210/7 10146", "Nome impianto": "STAZIONE DI SERVIZIO ESSO EXPRESS", "Comune": "TORINO", "idImpianto": 37535, "points": [{"type": "Feature", "properties": {}, "geometry": {"type": "Point", "coordinates": [7.614164119643419, 45.08702061254925]}}], "price": 2.029, "ultima_rilevazione": "21/06/2022 08:14:45"}, {"Gestore": "CIRILLO AUTORIPARAZIONI 2 S.A.S. DI CIRILLO PIETRO & C.", "Bandiera": "Esso", "Tipo impianto": "Altro", "Indirizzo": "CORSO FRANCIA 462 10143", "Nome impianto": "ESSO", "Comune": "TORINO", "idImpianto": 40065, "points": [{"type": "Feature", "properties": {}, "geometry": {"type": "Point", "coordinates": [7.606014273610754, 45.07428687878568]}}], "price": 2.079, "ultima_rilevazione": "21/06/2022 08:47:12"}, {"Gestore": "CENTRO CALOR S.R.L.", "Bandiera": "Pompe Bianche", "Tipo impianto": "Altro", "Indirizzo": "STRADA PROVINCIALE 175 KM 3 + 937  10098", "Nome impianto": "CENTRO CALOR OLICARB RIVOLI", "Comune": "RIVOLI", "idImpianto": 37607, "points": [{"type": "Feature", "properties": {}, "geometry": {"type": "Point", "coordinates": [7.563905864953995, 45.04660489294732]}}], "price": 2.039, "ultima_rilevazione": "21/06/2022 17:10:26"}, {"Gestore": "GA.VER. S.A.S. DI GAETA MARIO & C.", "Bandiera": "Api-Ip", "Tipo impianto": "Altro", "Indirizzo": "VIA PIETRO COSSA 80/A, 10146", "Nome impianto": "stazione di servizio totalerg", "Comune": "TORINO", "idImpianto": 9122, "points": [{"type": "Feature", "properties": {}, "geometry": {"type": "Point", "coordinates": [7.623943090438843, 45.081012662519285]}}], "price": 2.079, "ultima_rilevazione": "21/06/2022 19:01:44"}, {"Gestore": "BREAKSTATION DI COZZULA S.", "Bandiera": "Agip Eni", "Tipo impianto": "Altro", "Indirizzo": "C.SO PRIMO LEVI  160/A 10098", "Nome impianto": "BREAKSTATION di COZZULA S.", "Comune": "RIVOLI", "idImpianto": 41455, "points": [{"type": "Feature", "properties": {}, "geometry": {"type": "Point", "coordinates": [7.5242601335048676, 45.0610411908136]}}], "price": 2.084, "ultima_rilevazione": "22/06/2022 06:52:28"}, {"Gestore": "MURDOCCO MASSIMO", "Bandiera": "Agip Eni", "Tipo impianto": "Altro", "Indirizzo": "VIA SERVAIS 32/A 10146", "Nome impianto": "ENI 52935", "Comune": "TORINO", "idImpianto": 45680, "points": [{"type": "Feature", "properties": {}, "geometry": {"type": "Point", "coordinates": [7.6361654454036625, 45.08368297157411]}}], "price": 2.104, "ultima_rilevazione": "22/06/2022 07:01:05"}, {"Gestore": "TESORO MICHELE E DAVIDE SNC", "Bandiera": "Esso", "Tipo impianto": "Altro", "Indirizzo": "VIA STAMPINI 34/A 10148", "Nome impianto": "STAZIONE DI SERVIZIO ESSO DI TESORO M.E D.SNC", "Comune": "TORINO", "idImpianto": 44165, "points": [{"type": "Feature", "properties": {}, "geometry": {"type": "Point", "coordinates": [7.663632247885062, 45.10890661626722]}}], "price": 2.059, "ultima_rilevazione": "22/06/2022 07:31:50"}, {"Gestore": "BELLOTTI S.N.C. DI BELLOTTI FILIPPO E DAVIDE", "Bandiera": "Agip Eni", "Tipo impianto": "Altro", "Indirizzo": "corso allamano 160 a, 10098", "Nome impianto": "bellotti snc", "Comune": "RIVOLI", "idImpianto": 18813, "points": [{"type": "Feature", "properties": {}, "geometry": {"type": "Point", "coordinates": [7.557070255279541, 45.05783773413975]}}], "price": 2.089, "ultima_rilevazione": "22/06/2022 09:02:14"}, {"Gestore": "CASCINO ANGELO", "Bandiera": "Costantin", "Tipo impianto": "Altro", "Indirizzo": "strada del gerbido  25  10095", "Nome impianto": "COSTANTIN", "Comune": "GRUGLIASCO", "idImpianto": 51316, "points": [{"type": "Feature", "properties": {}, "geometry": {"type": "Point", "coordinates": [7.590878866186144, 45.05687961354991]}}], "price": 2.039, "ultima_rilevazione": "22/06/2022 09:09:26"}, {"Gestore": "SAMA SNC DI POMO MAURO E LUCCO BOSSU' SARA", "Bandiera": "Agip Eni", "Tipo impianto": "Altro", "Indirizzo": "Corso Francia  401 10142", "Nome impianto": "Stazione di servizio Eni", "Comune": "TORINO", "idImpianto": 40126, "points": [{"type": "Feature", "properties": {}, "geometry": {"type": "Point", "coordinates": [7.60634026636194, 45.07366980061131]}}], "price": 2.084, "ultima_rilevazione": "22/06/2022 12:30:47"}, {"Gestore": "ROCCA PAOLO", "Bandiera": "Esso", "Tipo impianto": "Altro", "Indirizzo": "CORSO FRANCIA 30/C 10098", "Nome impianto": "ESSO", "Comune": "RIVOLI", "idImpianto": 51120, "points": [{"type": "Feature", "properties": {}, "geometry": {"type": "Point", "coordinates": [7.524395030001623, 45.070333304163405]}}], "price": 2.049, "ultima_rilevazione": "22/06/2022 13:25:08"}, {"Gestore": "SA.ME.F. DI SARDO MICHAELA, MEOTTO GIANPIERO & C. - S.N.C.", "Bandiera": "Agip Eni", "Tipo impianto": "Altro", "Indirizzo": "CORSO DE GASPERI 101/A 10098", "Nome impianto": "SA.ME.F.", "Comune": "RIVOLI", "idImpianto": 6849, "points": [{"type": "Feature", "properties": {}, "geometry": {"type": "Point", "coordinates": [7.506170498672418, 45.07734771733064]}}], "price": 2.084, "ultima_rilevazione": "22/06/2022 14:18:37"}, {"Gestore": "EUROPAM S.R.L.", "Bandiera": "Europam", "Tipo impianto": "Altro", "Indirizzo": "VIA DE SANCTIS 94 10142", "Nome impianto": "EUROPAM - TORINO DE SANCTIS", "Comune": "TORINO", "idImpianto": 44848, "points": [{"type": "Feature", "properties": {}, "geometry": {"type": "Point", "coordinates": [7.620728264383274, 45.0670921066774]}}], "price": 2.057, "ultima_rilevazione": "22/06/2022 18:27:11"}, {"Gestore": "MASSARO ANTONIO", "Bandiera": "Api-Ip", "Tipo impianto": "Altro", "Indirizzo": "VIA VEROLENGO 170/A 10149", "Nome impianto": "stazione di servizio totalerg 2", "Comune": "TORINO", "idImpianto": 40412, "points": [{"type": "Feature", "properties": {}, "geometry": {"type": "Point", "coordinates": [7.653329372406006, 45.09513774310146]}}], "price": 2.069, "ultima_rilevazione": "22/06/2022 18:35:02"}, {"Gestore": "MASSARO ANTONIO", "Bandiera": "Api-Ip", "Tipo impianto": "Altro", "Indirizzo": "CORSO POTENZA ANG. V. VEROLENGO SN 10149", "Nome impianto": "Stazione di servizio Totalerg", "Comune": "TORINO", "idImpianto": 40413, "points": [{"type": "Feature", "properties": {}, "geometry": {"type": "Point", "coordinates": [7.6574720442295074, 45.095448837219045]}}], "price": 2.069, "ultima_rilevazione": "22/06/2022 18:35:56"}, {"Gestore": "ZULLO MICHELE", "Bandiera": "Europam", "Tipo impianto": "Altro", "Indirizzo": "VIA PIETRO COSSA 102 B 10146", "Nome impianto": "EUROPAM P.COSSA", "Comune": "TORINO", "idImpianto": 42646, "points": [{"type": "Feature", "properties": {}, "geometry": {"type": "Point", "coordinates": [7.624495668122904, 45.08235991224021]}}], "price": 2.057, "ultima_rilevazione": "23/06/2022 11:30:27"}, {"Gestore": "ARC S.N.C. DI ARROCCESE GIULIAN & C.", "Bandiera": "Esso", "Tipo impianto": "Altro", "Indirizzo": "STRADA COMUNALE DI ALTESSANO 138/A 10151", "Nome impianto": "STAZIONE ESSO ARC.SNC", "Comune": "TORINO", "idImpianto": 37645, "points": [{"type": "Feature", "properties": {}, "geometry": {"type": "Point", "coordinates": [7.645719944249777, 45.10944612290978]}}], "price": 2.049, "ultima_rilevazione": "24/06/2022 07:25:30"}, {"Gestore": "CAPPUCCI ALESSIO CARBURANTI & C. S.N.C.", "Bandiera": "Esso", "Tipo impianto": "Altro", "Indirizzo": "Via Sansovino 88/A 10151", "Nome impianto": "CAPPUCCI ALESSIO CARBURANTI & C. SNC", "Comune": "TORINO", "idImpianto": 45129, "points": [{"type": "Feature", "properties": {}, "geometry": {"type": "Point", "coordinates": [7.641423000123, 45.101915000123]}}], "price": 2.036, "ultima_rilevazione": "24/06/2022 10:24:51"}, {"Gestore": "SERVIZI & GESTIONI ITALIA S.R.L.", "Bandiera": "Q8", "Tipo impianto": "Altro", "Indirizzo": " SP 175 DEL DOJRONE KM 4  10098", "Nome impianto": "RIVOLI -  SP 175 DEL DOJRONE KM 4", "Comune": "RIVOLI", "idImpianto": 31850, "points": [{"type": "Feature", "properties": {}, "geometry": {"type": "Point", "coordinates": [7.563552010224839, 45.04734257894287]}}], "price": 2.039, "ultima_rilevazione": "25/06/2022 01:08:21"}, {"Gestore": "CAPPUCCI ALESSIO CARBURANTI & C. S.N.C.", "Bandiera": "Esso", "Tipo impianto": "Altro", "Indirizzo": "VIA MICHELE LESSONA 84/A 10145", "Nome impianto": "CAPPUCCI CARBURANTI VIA LESSONA", "Comune": "TORINO", "idImpianto": 24311, "points": [{"type": "Feature", "properties": {}, "geometry": {"type": "Point", "coordinates": [7.640396490178318, 45.08350879449111]}}], "price": 2.056, "ultima_rilevazione": "25/06/2022 07:59:33"}, {"Gestore": "IP SERVICES S.R.L.", "Bandiera": "Api-Ip", "Tipo impianto": "Altro", "Indirizzo": "CORSO ALLAMANO 195 10098", "Nome impianto": "RIVOLI - ALLAMANO ", "Comune": "RIVOLI", "idImpianto": 22127, "points": [{"type": "Feature", "properties": {}, "geometry": {"type": "Point", "coordinates": [7.563323562179562, 45.05592331375058]}}], "price": 2.069, "ultima_rilevazione": "26/06/2022 09:01:05"}, {"Gestore": "IP SERVICES S.R.L.", "Bandiera": "Api-Ip", "Tipo impianto": "Altro", "Indirizzo": "TORINO - AEROPORTO S.P. 325/A Km 8  10156", "Nome impianto": "TORINO - AEROPORTO S.P. 325/A Km 8", "Comune": "TORINO", "idImpianto": 22300, "points": [{"type": "Feature", "properties": {}, "geometry": {"type": "Point", "coordinates": [7.656681224536896, 45.13215865911113]}}], "price": 2.099, "ultima_rilevazione": "26/06/2022 09:01:06"}, {"Gestore": "IP SERVICES S.R.L.", "Bandiera": "Api-Ip", "Tipo impianto": "Altro", "Indirizzo": "VIA COSSA 150  10146", "Nome impianto": "TORINO - COSSA 150", "Comune": "TORINO", "idImpianto": 22301, "points": [{"type": "Feature", "properties": {}, "geometry": {"type": "Point", "coordinates": [7.6236160932541, 45.08156590969744]}}], "price": 2.019, "ultima_rilevazione": "26/06/2022 09:01:06"}, {"Gestore": "IP SERVICES S.R.L.", "Bandiera": "Api-Ip", "Tipo impianto": "Altro", "Indirizzo": "VIA PIETRO COSSA 107 10146", "Nome impianto": "TORINO - VIA PIETRO COSSA ", "Comune": "TORINO", "idImpianto": 21851, "points": [{"type": "Feature", "properties": {}, "geometry": {"type": "Point", "coordinates": [7.625824898147584, 45.08557348717841]}}], "price": 2.019, "ultima_rilevazione": "26/06/2022 09:01:18"}, {"Gestore": "IP SERVICES S.R.L.", "Bandiera": "Api-Ip", "Tipo impianto": "Altro", "Indirizzo": "CORSO FRANCIA 31 10098", "Nome impianto": "RIVOLI - CORSO FRANCIA 31", "Comune": "RIVOLI", "idImpianto": 32348, "points": [{"type": "Feature", "properties": {}, "geometry": {"type": "Point", "coordinates": [7.531989341163921, 45.07114826098073]}}], "price": 2.069, "ultima_rilevazione": "26/06/2022 09:02:07"}, {"Gestore": "IP SERVICES S.R.L.", "Bandiera": "Api-Ip", "Tipo impianto": "Altro", "Indirizzo": "c.so Torino 170 10095", "Nome impianto": "Grugliasco Corso Torino", "Comune": "GRUGLIASCO", "idImpianto": 38721, "points": [{"type": "Feature", "properties": {}, "geometry": {"type": "Point", "coordinates": [7.601460814476013, 45.06416035294209]}}], "price": 2.049, "ultima_rilevazione": "26/06/2022 09:03:07"}, {"Gestore": "IP SERVICES S.R.L.", "Bandiera": "Api-Ip", "Tipo impianto": "Altro", "Indirizzo": "CORSO TORINO  35/B 10098", "Nome impianto": "Rivoli corso Torino", "Comune": "RIVOLI", "idImpianto": 33456, "points": [{"type": "Feature", "properties": {}, "geometry": {"type": "Point", "coordinates": [7.5272876769304276, 45.07447469365621]}}], "price": 2.039, "ultima_rilevazione": "26/06/2022 09:03:35"}, {"Gestore": "IP SERVICES S.R.L.", "Bandiera": "Api-Ip", "Tipo impianto": "Altro", "Indirizzo": "Strada Altessano 106/A 10151", "Nome impianto": "Altessano Torino", "Comune": "TORINO", "idImpianto": 36452, "points": [{"type": "Feature", "properties": {}, "geometry": {"type": "Point", "coordinates": [7.645593881607056, 45.10782476295114]}}], "price": 2.049, "ultima_rilevazione": "26/06/2022 09:03:50"}, {"Gestore": "EUROPACAR SOCIETA' COOPERATIVA", "Bandiera": "Tamoil", "Tipo impianto": "Altro", "Indirizzo": "via reiss romoli 314/a 10148", "Nome impianto": "TAMOIL", "Comune": "TORINO", "idImpianto": 34708, "points": [{"type": "Feature", "properties": {}, "geometry": {"type": "Point", "coordinates": [7.666633464396, 45.11127310711178]}}], "price": 2.059, "ultima_rilevazione": "26/06/2022 09:48:08"}, {"Gestore": "STAZIONE DI SERVIZIO S.N.C. DI SALOMONI ADRIANO E C.", "Bandiera": "Tamoil", "Tipo impianto": "Altro", "Indirizzo": "CORSO BERNARDINO TELESIO 71/A 10146", "Nome impianto": "STAZIONE DI SERVIZIO TAMOIL DI SALOMONI A. ", "Comune": "TORINO", "idImpianto": 21320, "points": [{"type": "Feature", "properties": {}, "geometry": {"type": "Point", "coordinates": [7.6273500490738115, 45.08073269066767]}}], "price": 2.029, "ultima_rilevazione": "26/06/2022 12:20:07"}, {"Gestore": "T.D.M. S.R.L.", "Bandiera": "Tamoil", "Tipo impianto": "Altro", "Indirizzo": "Corso Marche  10146", "Nome impianto": "8257", "Comune": "TORINO", "idImpianto": 35461, "points": [{"type": "Feature", "properties": {}, "geometry": {"type": "Point", "coordinates": [7.614338099956512, 45.07532942847123]}}], "price": 2.029, "ultima_rilevazione": "26/06/2022 13:56:05"}, {"Gestore": "EUROPACAR SOCIETA' COOPERATIVA", "Bandiera": "Tamoil", "Tipo impianto": "Altro", "Indirizzo": "Via Sansovino 44/A 10151", "Nome impianto": "TAMOIL", "Comune": "TORINO", "idImpianto": 33529, "points": [{"type": "Feature", "properties": {}, "geometry": {"type": "Point", "coordinates": [7.637332072352592, 45.099368380781925]}}], "price": 2.019, "ultima_rilevazione": "26/06/2022 15:06:06"}, {"Gestore": "EUROPACAR SOCIETA' COOPERATIVA", "Bandiera": "Tamoil", "Tipo impianto": "Altro", "Indirizzo": "Via Sansovino 44/A 10151", "Nome impianto": "TAMOIL", "Comune": "TORINO", "idImpianto": 33529, "points": [{"type": "Feature", "properties": {}, "geometry": {"type": "Point", "coordinates": [7.637332072352592, 45.099368380781925]}}], "price": 1.719, "ultima_rilevazione": "26/06/2022 15:06:06"}, {"Gestore": "SERVIZI & GESTIONI ITALIA S.R.L.", "Bandiera": "Q8", "Tipo impianto": "Altro", "Indirizzo": "VIA LANZO 18 10071", "Nome impianto": "BORGARO TORINESE VIA LANZO 18", "Comune": "BORGARO TORINESE", "idImpianto": 24891, "points": [{"type": "Feature", "properties": {}, "geometry": {"type": "Point", "coordinates": [7.65623984603269, 45.13680709766655]}}], "price": 2.059, "ultima_rilevazione": "27/06/2022 00:34:32"}, {"Gestore": "SERVIZI & GESTIONI ITALIA S.R.L.", "Bandiera": "Q8", "Tipo impianto": "Altro", "Indirizzo": "VIA COSSA 2 /PIAZZA MASSAUA  10146", "Nome impianto": "TORINO VIA COSSA 2 /PIAZZA MASSAUA", "Comune": "TORINO", "idImpianto": 49464, "points": [{"type": "Feature", "properties": {}, "geometry": {"type": "Point", "coordinates": [7.620107088954944, 45.07537412944328]}}], "price": 2.029, "ultima_rilevazione": "27/06/2022 00:34:32"}, {"Gestore": "SERVIZI & GESTIONI ITALIA S.R.L.", "Bandiera": "Q8", "Tipo impianto": "Altro", "Indirizzo": "CORSO TOSCANA 43/A 10149", "Nome impianto": "TORINO CORSO TOSCANA 43/A", "Comune": "TORINO", "idImpianto": 24636, "points": [{"type": "Feature", "properties": {}, "geometry": {"type": "Point", "coordinates": [7.656544368122923, 45.09699542168028]}}], "price": 1.999, "ultima_rilevazione": "27/06/2022 00:34:32"}, {"Gestore": "SERVIZI & GESTIONI ITALIA S.R.L.", "Bandiera": "Q8", "Tipo impianto": "Altro", "Indirizzo": "STRAD PROV. TORINO-LANZO S/N 10071", "Nome impianto": "BORGARO TORINESE-STRAD PROV. TORINO-LANZO", "Comune": "BORGARO TORINESE", "idImpianto": 11873, "points": [{"type": "Feature", "properties": {}, "geometry": {"type": "Point", "coordinates": [7.655451720237693, 45.14140756768663]}}], "price": 2.069, "ultima_rilevazione": "27/06/2022 00:34:34"}, {"Gestore": "SERVIZI & GESTIONI ITALIA S.R.L.", "Bandiera": "Q8", "Tipo impianto": "Altro", "Indirizzo": "VIA SUSA  IPER 299 ", "Nome impianto": "RIVOLI-VIA SUSA 299 IPER", "Comune": "RIVOLI", "idImpianto": 11868, "points": [{"type": "Feature", "properties": {}, "geometry": {"type": "Point", "coordinates": [7.49885708465581, 45.08322840777434]}}], "price": 1.999, "ultima_rilevazione": "27/06/2022 00:34:37"}, {"Gestore": "SERVIZI & GESTIONI ITALIA S.R.L.", "Bandiera": "Q8", "Tipo impianto": "Altro", "Indirizzo": "VIA RIVALTA 16 10098", "Nome impianto": "RIVOLI-VIA RIVALTA 16", "Comune": "RIVOLI", "idImpianto": 11870, "points": [{"type": "Feature", "properties": {}, "geometry": {"type": "Point", "coordinates": [7.518519941139175, 45.060955356538784]}}], "price": 2.089, "ultima_rilevazione": "27/06/2022 00:34:37"}, {"Gestore": "SERVIZI & GESTIONI ITALIA S.R.L.", "Bandiera": "Q8", "Tipo impianto": "Altro", "Indirizzo": "STRADA DEL FORNAS  10098", "Nome impianto": "RIVOLI STRADA DEL FORNAS", "Comune": "RIVOLI", "idImpianto": 42857, "points": [{"type": "Feature", "properties": {}, "geometry": {"type": "Point", "coordinates": [7.498030601188702, 45.08164003271217]}}], "price": 1.999, "ultima_rilevazione": "27/06/2022 00:34:37"}, {"Gestore": "SERVIZI & GESTIONI ITALIA S.R.L.", "Bandiera": "Q8", "Tipo impianto": "Altro", "Indirizzo": "VIA SANSOVINO/VIA MOLISE S/N 10151", "Nome impianto": "TORINO-VIA SANSOVINO/VIA MOLISE", "Comune": "TORINO", "idImpianto": 11863, "points": [{"type": "Feature", "properties": {}, "geometry": {"type": "Point", "coordinates": [7.63872682209012, 45.100830292288975]}}], "price": 2.059, "ultima_rilevazione": "27/06/2022 00:34:41"}, {"Gestore": "SERVIZI & GESTIONI ITALIA S.R.L.", "Bandiera": "Q8", "Tipo impianto": "Altro", "Indirizzo": "VIA PAOLO VERONESE ANGOLO STRADA LANZO S/N 10148", "Nome impianto": "TORINO-VIA PAOLO VERONESE ANGOLO STRADA LA", "Comune": "TORINO", "idImpianto": 11864, "points": [{"type": "Feature", "properties": {}, "geometry": {"type": "Point", "coordinates": [7.660827987766197, 45.11157414810119]}}], "price": 2.059, "ultima_rilevazione": "27/06/2022 00:34:41"}, {"Gestore": "SERVIZI & GESTIONI ITALIA srl", "Bandiera": "Q8", "Tipo impianto": "Altro", "Indirizzo": "VIA SANSOVINO 153 10151", "Nome impianto": "TORINO SANSOVINO 153", "Comune": "TORINO", "idImpianto": 6394, "points": [{"type": "Feature", "properties": {}, "geometry": {"type": "Point", "coordinates": [7.6470275484794, 45.105801503882]}}], "price": 2.049, "ultima_rilevazione": "27/06/2022 00:37:35"}, {"Gestore": "SERVIZI & GESTIONI ITALIA S.R.L.", "Bandiera": "Q8", "Tipo impianto": "Altro", "Indirizzo": "CORSO GROSSETO ANGOLO VIA SANSOVINO 338 10151", "Nome impianto": "TORINO-CORSO GROSSETO 338 ANGOLO VIA SANSO", "Comune": "TORINO", "idImpianto": 11857, "points": [{"type": "Feature", "properties": {}, "geometry": {"type": "Point", "coordinates": [7.649496152114807, 45.10650445294046]}}], "price": 2.049, "ultima_rilevazione": "27/06/2022 00:37:36"}, {"Gestore": "IPERSTAROIL S.R.L.", "Bandiera": "Auchan", "Tipo impianto": "Altro", "Indirizzo": "CORSO GARIBALDI 235 10078", "Nome impianto": "Venaria Reale", "Comune": "VENARIA REALE", "idImpianto": 50302, "points": [{"type": "Feature", "properties": {}, "geometry": {"type": "Point", "coordinates": [7.647516714462441, 45.11478182586455]}}], "price": 2.029, "ultima_rilevazione": "27/06/2022 05:06:08"}, {"Gestore": "ARAMU GIANCARLO", "Bandiera": "Api-Ip", "Tipo impianto": "Altro", "Indirizzo": "STRADA AEROPORTO 6 10148", "Nome impianto": "TotalErg", "Comune": "TORINO", "idImpianto": 26728, "points": [{"type": "Feature", "properties": {}, "geometry": {"type": "Point", "coordinates": [7.663553563982418, 45.11208314758517]}}], "price": 2.119, "ultima_rilevazione": "27/06/2022 07:20:05"}]}, "null": {}, "GPL": {"1": [{"Gestore": "IP SERVICES S.R.L.", "Bandiera": "Api-Ip", "Tipo impianto": "Altro", "Indirizzo": "SP 24 KM 2+265  10044", "Nome impianto": "Pianezza", "Comune": "PIANEZZA", "idImpianto": 38966, "points": [{"type": "Feature", "properties": {}, "geometry": {"type": "Point", "coordinates": [7.56183385848999, 45.11204418338163]}}], "price": 0.819, "ultima_rilevazione": "26/06/2022 09:03:28"}, {"Gestore": "SERVIZI & GESTIONI ITALIA S.R.L.", "Bandiera": "Q8", "Tipo impianto": "Altro", "Indirizzo": "S.P. TO/DRUENTO KM 10+400  10040", "Nome impianto": "DRUENTO S.P. TO/DRUENTO KM 10+400", "Comune": "DRUENTO", "idImpianto": 22253, "points": [{"type": "Feature", "properties": {}, "geometry": {"type": "Point", "coordinates": [7.598684669380987, 45.12217330018168]}}], "price": 0.828, "ultima_rilevazione": "27/06/2022 00:34:29"}], "3": [{"Gestore": "CILSERVICE GAS S.R.L.", "Bandiera": "Socogas", "Tipo impianto": "Altro", "Indirizzo": "via Terracini 43 10093", "Nome impianto": "SOGOGAS", "Comune": "COLLEGNO", "idImpianto": 31341, "points": [{"type": "Feature", "properties": {}, "geometry": {"type": "Point", "coordinates": [7.597465664148331, 45.07943711892751]}}], "price": 0.799, "ultima_rilevazione": "20/06/2022 14:46:58"}, {"Gestore": "DE LUCA ANTONIO", "Bandiera": "Api-Ip", "Tipo impianto": "Altro", "Indirizzo": "STRADA STATALE 24 KM 7+879, 10040  10040", "Nome impianto": "_IP", "Comune": "COLLEGNO", "idImpianto": 4884, "points": [{"type": "Feature", "properties": {}, "geometry": {"type": "Point", "coordinates": [7.608423829078674, 45.09892339421623]}}], "price": 0.8, "ultima_rilevazione": "23/06/2022 07:51:54"}, {"Gestore": "PETROLTERMICA COMAC - OLCEA S.P.A.", "Bandiera": "Pompe Bianche", "Tipo impianto": "Altro", "Indirizzo": "CORSO FLEMING 35 10040", "Nome impianto": "Petroltermica Druento", "Comune": "DRUENTO", "idImpianto": 21492, "points": [{"type": "Feature", "properties": {}, "geometry": {"type": "Point", "coordinates": [7.586854845285416, 45.13065020682192]}}], "price": 0.829, "ultima_rilevazione": "23/06/2022 08:32:20"}, {"Gestore": "SABINO ALESSANDRO", "Bandiera": "Esso", "Tipo impianto": "Altro", "Indirizzo": "STRADA TORINO PIANEZZA 90 10093", "Nome impianto": "ESSO STAZIONE", "Comune": "COLLEGNO", "idImpianto": 50690, "points": [{"type": "Feature", "properties": {}, "geometry": {"type": "Point", "coordinates": [7.592963317790918, 45.09679353299372]}}], "price": 0.849, "ultima_rilevazione": "24/06/2022 07:42:29"}, {"Gestore": "GIODA AGOSTINO S.R.L.", "Bandiera": "Pompe Bianche", "Tipo impianto": "Altro", "Indirizzo": "CORSO GARIBALDI  153 10078", "Nome impianto": "GIODA AGOSTINO SRL -G.P.L.", "Comune": "VENARIA REALE", "idImpianto": 31773, "points": [{"type": "Feature", "properties": {}, "geometry": {"type": "Point", "coordinates": [7.643968462944031, 45.12084187352116]}}], "price": 0.819, "ultima_rilevazione": "24/06/2022 12:23:59"}, {"Gestore": "IP SERVICES S.R.L.", "Bandiera": "Api-Ip", "Tipo impianto": "Altro", "Indirizzo": "VIA ALPIGNANO 130 10040", "Nome impianto": "Val della Torre Torino", "Comune": "VAL DELLA TORRE", "idImpianto": 40045, "points": [{"type": "Feature", "properties": {}, "geometry": {"type": "Point", "coordinates": [7.488698735833168, 45.13203174257948]}}], "price": 0.829, "ultima_rilevazione": "26/06/2022 09:03:06"}, {"Gestore": "SERVIZI & GESTIONI ITALIA S.R.L.", "Bandiera": "Q8", "Tipo impianto": "Altro", "Indirizzo": "VIA PIANEZZA 385 10151", "Nome impianto": "TORINO VIA PIANEZZA 385", "Comune": "TORINO", "idImpianto": 48815, "points": [{"type": "Feature", "properties": {}, "geometry": {"type": "Point", "coordinates": [7.620992475463093, 45.09912497394853]}}], "price": 0.848, "ultima_rilevazione": "27/06/2022 00:34:32"}, {"Gestore": "MAGEA S.N.C. DI ANTONICELLI EROS & GUGLIOTTA MARIA ANTONIA", "Bandiera": "Agip Eni", "Tipo impianto": "Strada Statale", "Indirizzo": "24 del Monginevro, Km. 16+760, CASELETTE 10091", "Nome impianto": "STAZIONE ENI MAGEA", "Comune": "ALPIGNANO", "idImpianto": 43114, "points": [{"type": "Feature", "properties": {}, "geometry": {"type": "Point", "coordinates": [7.504751417272701, 45.10476516983302]}}], "price": 0.817, "ultima_rilevazione": "27/06/2022 06:55:24"}], "5": [{"Gestore": "BRESCIANINI PIETRO", "Bandiera": "Socogas", "Tipo impianto": "Altro", "Indirizzo": "STRADA GERBIDO 64 10095", "Nome impianto": "Socogas", "Comune": "GRUGLIASCO", "idImpianto": 24530, "points": [{"type": "Feature", "properties": {}, "geometry": {"type": "Point", "coordinates": [7.596670813491755, 45.0535528823739]}}], "price": 0.839, "ultima_rilevazione": "07/12/2021 18:31:43"}, {"Gestore": "MDS DI MONTAGONO DAVIDE", "Bandiera": "Socogas", "Tipo impianto": "Altro", "Indirizzo": "CORSO ALLAMANO 195 10098", "Nome impianto": "SOCOGAS", "Comune": "RIVOLI", "idImpianto": 39763, "points": [{"type": "Feature", "properties": {}, "geometry": {"type": "Point", "coordinates": [7.563539743423462, 45.05610216937418]}}], "price": 0.799, "ultima_rilevazione": "15/06/2022 10:32:18"}, {"Gestore": "CENTRO CALOR S.R.L.", "Bandiera": "Pompe Bianche", "Tipo impianto": "Altro", "Indirizzo": "STRADA PROVINCIALE 175 KM 3 + 937  10098", "Nome impianto": "CENTRO CALOR OLICARB RIVOLI", "Comune": "RIVOLI", "idImpianto": 37607, "points": [{"type": "Feature", "properties": {}, "geometry": {"type": "Point", "coordinates": [7.563905864953995, 45.04660489294732]}}], "price": 0.789, "ultima_rilevazione": "21/06/2022 17:10:26"}, {"Gestore": "CASCINO ANGELO", "Bandiera": "Costantin", "Tipo impianto": "Altro", "Indirizzo": "strada del gerbido  25  10095", "Nome impianto": "COSTANTIN", "Comune": "GRUGLIASCO", "idImpianto": 51316, "points": [{"type": "Feature", "properties": {}, "geometry": {"type": "Point", "coordinates": [7.590878866186144, 45.05687961354991]}}], "price": 0.819, "ultima_rilevazione": "22/06/2022 09:09:26"}, {"Gestore": "CATANIA ANTONINO", "Bandiera": "Socogas", "Tipo impianto": "Altro", "Indirizzo": "CORSO SUSA 400 10098", "Nome impianto": "CATANIA ANTONINO", "Comune": "RIVOLI", "idImpianto": 30893, "points": [{"type": "Feature", "properties": {}, "geometry": {"type": "Point", "coordinates": [7.483022511005402, 45.08616243367062]}}], "price": 0.799, "ultima_rilevazione": "22/06/2022 12:35:31"}, {"Gestore": "ARC S.N.C. DI ARROCCESE GIULIAN & C.", "Bandiera": "Esso", "Tipo impianto": "Altro", "Indirizzo": "STRADA COMUNALE DI ALTESSANO 138/A 10151", "Nome impianto": "STAZIONE ESSO ARC.SNC", "Comune": "TORINO", "idImpianto": 37645, "points": [{"type": "Feature", "properties": {}, "geometry": {"type": "Point", "coordinates": [7.645719944249777, 45.10944612290978]}}], "price": 0.849, "ultima_rilevazione": "24/06/2022 07:25:30"}, {"Gestore": "SERVIZI & GESTIONI ITALIA S.R.L.", "Bandiera": "Q8", "Tipo impianto": "Altro", "Indirizzo": " SP 175 DEL DOJRONE KM 4  10098", "Nome impianto": "RIVOLI -  SP 175 DEL DOJRONE KM 4", "Comune": "RIVOLI", "idImpianto": 31850, "points": [{"type": "Feature", "properties": {}, "geometry": {"type": "Point", "coordinates": [7.563552010224839, 45.04734257894287]}}], "price": 0.789, "ultima_rilevazione": "25/06/2022 01:08:21"}, {"Gestore": "IP SERVICES S.R.L.", "Bandiera": "Api-Ip", "Tipo impianto": "Altro", "Indirizzo": "c.so Torino 170 10095", "Nome impianto": "Grugliasco Corso Torino", "Comune": "GRUGLIASCO", "idImpianto": 38721, "points": [{"type": "Feature", "properties": {}, "geometry": {"type": "Point", "coordinates": [7.601460814476013, 45.06416035294209]}}], "price": 0.789, "ultima_rilevazione": "26/06/2022 09:03:07"}]}, "Gasolio": {"1": [{"Gestore": "FAMIREL S.N.C. DI FAMMILUME GENNARO E RELLA ANNARITA", "Bandiera": "Agip Eni", "Tipo impianto": "Altro", "Indirizzo": "VIA PIAVE 35 10044", "Nome impianto": "eni", "Comune": "PIANEZZA", "idImpianto": 38465, "points": [{"type": "Feature", "properties": {}, "geometry": {"type": "Point", "coordinates": [7.556098832016005, 45.09815772951559]}}], "price": 2.009, "ultima_rilevazione": "17/06/2022 19:08:58"}, {"Gestore": "SED S.N.C. DI DAVIDE E STEFANO MONTAGONO", "Bandiera": "Api-Ip", "Tipo impianto": "Altro", "Indirizzo": "VIA VENARIA 8 10091", "Nome impianto": "IP Italiana Petroli", "Comune": "ALPIGNANO", "idImpianto": 43361, "points": [{"type": "Feature", "properties": {}, "geometry": {"type": "Point", "coordinates": [7.534227084655754, 45.10202250519849]}}], "price": 2.029, "ultima_rilevazione": "20/06/2022 10:11:15"}, {"Gestore": "ECONOMY S.R.L.", "Bandiera": "Api-Ip", "Tipo impianto": "Altro", "Indirizzo": "CORSO MACHIAVELLI 230  ANG. DON SAPINO  10078", "Nome impianto": "Economy S.r.l - Venaria ", "Comune": "VENARIA REALE", "idImpianto": 25023, "points": [{"type": "Feature", "properties": {}, "geometry": {"type": "Point", "coordinates": [7.618852257728577, 45.12220737086037]}}], "price": 2.079, "ultima_rilevazione": "21/06/2022 15:02:29"}, {"Gestore": "ROCCATI GIULIANA", "Bandiera": "Esso", "Tipo impianto": "Strada Statale", "Indirizzo": "Statale 24 del Monginevro, Km. 12+538, dir. Susa Monginevro 10044", "Nome impianto": "Esso", "Comune": "PIANEZZA", "idImpianto": 8359, "points": [{"type": "Feature", "properties": {}, "geometry": {"type": "Point", "coordinates": [7.553480789065361, 45.10047137246544]}}], "price": 1.999, "ultima_rilevazione": "21/06/2022 17:58:01"}, {"Gestore": "NECCHIO ADRIANO", "Bandiera": "Esso", "Tipo impianto": "Altro", "Indirizzo": "VIA VAL DELLA TORRE 210 10091", "Nome impianto": "DISTRIBUTORE ESSO", "Comune": "ALPIGNANO", "idImpianto": 7872, "points": [{"type": "Feature", "properties": {}, "geometry": {"type": "Point", "coordinates": [7.505966126918793, 45.11918184652125]}}], "price": 2.114, "ultima_rilevazione": "23/06/2022 18:37:28"}, {"Gestore": "IP SERVICES S.R.L.", "Bandiera": "Api-Ip", "Tipo impianto": "Altro", "Indirizzo": "VIA TORINO  10044", "Nome impianto": "PIANEZZA VIA TORINO", "Comune": "PIANEZZA", "idImpianto": 21859, "points": [{"type": "Feature", "properties": {}, "geometry": {"type": "Point", "coordinates": [7.574412077665329, 45.104513747653854]}}], "price": 2.009, "ultima_rilevazione": "26/06/2022 09:02:32"}, {"Gestore": "IP SERVICES S.R.L.", "Bandiera": "Api-Ip", "Tipo impianto": "Altro", "Indirizzo": "VIA TORINO -  OVEST  10044", "Nome impianto": "PIANEZZA VIA TORINO -  OVEST", "Comune": "PIANEZZA", "idImpianto": 21862, "points": [{"type": "Feature", "properties": {}, "geometry": {"type": "Point", "coordinates": [7.573900446295738, 45.10443063852144]}}], "price": 2.009, "ultima_rilevazione": "26/06/2022 09:02:32"}, {"Gestore": "IP SERVICES S.R.L.", "Bandiera": "Api-Ip", "Tipo impianto": "Altro", "Indirizzo": "SP 24 KM 2+265  10044", "Nome impianto": "Pianezza", "Comune": "PIANEZZA", "idImpianto": 38966, "points": [{"type": "Feature", "properties": {}, "geometry": {"type": "Point", "coordinates": [7.56183385848999, 45.11204418338163]}}], "price": 1.999, "ultima_rilevazione": "26/06/2022 09:03:28"}, {"Gestore": "T.D.M. S.R.L.", "Bandiera": "Tamoil", "Tipo impianto": "Altro", "Indirizzo": "SP.176 DA KM. 0+600 A KM. 0+660 LATO SX 12 10040", "Nome impianto": "7767", "Comune": "DRUENTO", "idImpianto": 47138, "points": [{"type": "Feature", "properties": {}, "geometry": {"type": "Point", "coordinates": [7.590820481852423, 45.11816769770197]}}], "price": 2.029, "ultima_rilevazione": "26/06/2022 13:54:05"}, {"Gestore": "SERVIZI & GESTIONI ITALIA S.R.L.", "Bandiera": "Q8", "Tipo impianto": "Altro", "Indirizzo": "S.P. TO/DRUENTO KM 10+400  10040", "Nome impianto": "DRUENTO S.P. TO/DRUENTO KM 10+400", "Comune": "DRUENTO", "idImpianto": 22253, "points": [{"type": "Feature", "properties": {}, "geometry": {"type": "Point", "coordinates": [7.598684669380987, 45.12217330018168]}}], "price": 2.025, "ultima_rilevazione": "27/06/2022 00:34:29"}, {"Gestore": "SERVIZI & GESTIONI ITALIA srl", "Bandiera": "Q8", "Tipo impianto": "Altro", "Indirizzo": "SP 24 LOC. STAZIONETTA SNC 10093", "Nome impianto": "COLLEGNO SP 24 LOC. STAZIONETTA", "Comune": "COLLEGNO", "idImpianto": 6393, "points": [{"type": "Feature", "properties": {}, "geometry": {"type": "Point", "coordinates": [7.577296793460846, 45.09582544231724]}}], "price": 1.989, "ultima_rilevazione": "27/06/2022 00:34:31"}], "3": [{"Gestore": "ALOISIO MARCO", "Bandiera": "Q8", "Tipo impianto": "Altro", "Indirizzo": "VIA CAVALLO 76 10078", "Nome impianto": "Q8 Aloisio ", "Comune": "VENARIA REALE", "idImpianto": 32526, "points": [{"type": "Feature", "properties": {}, "geometry": {"type": "Point", "coordinates": [7.626418769359589, 45.13998102537151]}}], "price": 2.029, "ultima_rilevazione": "20/06/2022 08:56:19"}, {"Gestore": "MURATORE S.A.S. DI MURATORE WALTER E C.", "Bandiera": "Esso", "Tipo impianto": "Altro", "Indirizzo": "CORSO FRANCIA 191 10098", "Nome impianto": "ESSO", "Comune": "RIVOLI", "idImpianto": 17599, "points": [{"type": "Feature", "properties": {}, "geometry": {"type": "Point", "coordinates": [7.550315889549211, 45.07181180777596]}}], "price": 2.009, "ultima_rilevazione": "22/06/2022 07:28:57"}, {"Gestore": "D'ELIA GIOVANNI", "Bandiera": "Agip Eni", "Tipo impianto": "Altro", "Indirizzo": "CORSO SACCO E VANZETTI 9 10093", "Nome impianto": "eni 978", "Comune": "COLLEGNO", "idImpianto": 5581, "points": [{"type": "Feature", "properties": {}, "geometry": {"type": "Point", "coordinates": [7.618653774261475, 45.094546413684775]}}], "price": 2.024, "ultima_rilevazione": "22/06/2022 09:54:18"}, {"Gestore": "BIONDI ANTONIO", "Bandiera": "Agip Eni", "Tipo impianto": "Altro", "Indirizzo": "CORSO GARIBALDI 56 10078", "Nome impianto": "Eni di Biondi Antonio ", "Comune": "VENARIA REALE", "idImpianto": 36798, "points": [{"type": "Feature", "properties": {}, "geometry": {"type": "Point", "coordinates": [7.637437283992767, 45.12662925718583]}}], "price": 2.089, "ultima_rilevazione": "22/06/2022 15:43:34"}, {"Gestore": "MAGLIONE S.N.C. DI MAGLIONE DAVIDE E C.", "Bandiera": "Agip Eni", "Tipo impianto": "Autostradale", "Indirizzo": "Autostrada A55 TANG.LE DI TORINO, Km. 0+900, dir. Sud ", "Nome impianto": "RIVOLI", "Comune": "RIVOLI", "idImpianto": 3807, "points": [{"type": "Feature", "properties": {}, "geometry": {"type": "Point", "coordinates": [7.515726685523987, 45.08370580351621]}}], "price": 2.104, "ultima_rilevazione": "23/06/2022 06:45:36"}, {"Gestore": "ECONOMY S.R.L.", "Bandiera": "Api-Ip", "Tipo impianto": "Altro", "Indirizzo": "S. P. Alpignano-Rivoli 57 10091", "Nome impianto": "Economy Alpignano", "Comune": "ALPIGNANO", "idImpianto": 36991, "points": [{"type": "Feature", "properties": {}, "geometry": {"type": "Point", "coordinates": [7.523226141929626, 45.087480092461526]}}], "price": 2.059, "ultima_rilevazione": "23/06/2022 07:41:55"}, {"Gestore": "PETROLTERMICA COMAC - OLCEA S.P.A.", "Bandiera": "Pompe Bianche", "Tipo impianto": "Altro", "Indirizzo": "CORSO FLEMING 35 10040", "Nome impianto": "Petroltermica Druento", "Comune": "DRUENTO", "idImpianto": 21492, "points": [{"type": "Feature", "properties": {}, "geometry": {"type": "Point", "coordinates": [7.586854845285416, 45.13065020682192]}}], "price": 2.039, "ultima_rilevazione": "23/06/2022 08:32:20"}, {"Gestore": "GAS STATION S.R.L.", "Bandiera": "Repsol", "Tipo impianto": "Altro", "Indirizzo": "CORSO FRANCIA 204 10098", "Nome impianto": "Gas Station Rivoli-C.so Francia 204", "Comune": "RIVOLI", "idImpianto": 40186, "points": [{"type": "Feature", "properties": {}, "geometry": {"type": "Point", "coordinates": [7.54812240600586, 45.0713346893347]}}], "price": 1.999, "ultima_rilevazione": "23/06/2022 11:52:13"}, {"Gestore": "M.A. SERVICE S.N.C. DI DI GENNARO MARCO & GESUALDO ALESSANDRO", "Bandiera": "Api-Ip", "Tipo impianto": "Altro", "Indirizzo": "CORSO TOGLIATTI 12 10093", "Nome impianto": "totalerg", "Comune": "COLLEGNO", "idImpianto": 40157, "points": [{"type": "Feature", "properties": {}, "geometry": {"type": "Point", "coordinates": [7.564465139881122, 45.073229163995215]}}], "price": 2.099, "ultima_rilevazione": "23/06/2022 17:01:43"}, {"Gestore": "SCARAFIA FABRIZIO S.A.S. DI FABRIZIO SCARAFIA & C.", "Bandiera": "Esso", "Tipo impianto": "Altro", "Indirizzo": "VIA LUPO 98 10024", "Nome impianto": "STAZIONE DI SERVIZIO ESSO SCARAFIA FABRIZIO", "Comune": "GRUGLIASCO", "idImpianto": 32614, "points": [{"type": "Feature", "properties": {}, "geometry": {"type": "Point", "coordinates": [7.579118036245745, 45.06540391138897]}}], "price": 2.059, "ultima_rilevazione": "24/06/2022 06:31:28"}, {"Gestore": "SABINO ALESSANDRO", "Bandiera": "Esso", "Tipo impianto": "Altro", "Indirizzo": "STRADA TORINO PIANEZZA 90 10093", "Nome impianto": "ESSO STAZIONE", "Comune": "COLLEGNO", "idImpianto": 50690, "points": [{"type": "Feature", "properties": {}, "geometry": {"type": "Point", "coordinates": [7.592963317790918, 45.09679353299372]}}], "price": 1.999, "ultima_rilevazione": "24/06/2022 07:42:29"}, {"Gestore": "GIODA AGOSTINO S.R.L.", "Bandiera": "Pompe Bianche", "Tipo impianto": "Altro", "Indirizzo": "CORSO GARIBALDI 164 10078", "Nome impianto": "GIODA AGOSTINO SRL - DISTRIBUTORE", "Comune": "VENARIA REALE", "idImpianto": 24038, "points": [{"type": "Feature", "properties": {}, "geometry": {"type": "Point", "coordinates": [7.643681466579437, 45.11874065836433]}}], "price": 1.989, "ultima_rilevazione": "24/06/2022 12:23:54"}, {"Gestore": "GIODA AGOSTINO S.R.L.", "Bandiera": "Pompe Bianche", "Tipo impianto": "Altro", "Indirizzo": "CORSO GARIBALDI  153 10078", "Nome impianto": "GIODA AGOSTINO SRL -G.P.L.", "Comune": "VENARIA REALE", "idImpianto": 31773, "points": [{"type": "Feature", "properties": {}, "geometry": {"type": "Point", "coordinates": [7.643968462944031, 45.12084187352116]}}], "price": 1.989, "ultima_rilevazione": "24/06/2022 12:23:59"}, {"Gestore": "ECONOMY S.R.L.", "Bandiera": "Economysrl", "Tipo impianto": "Altro", "Indirizzo": "VIA XXX APRILE 25 10093", "Nome impianto": "Economy - Collegno", "Comune": "COLLEGNO", "idImpianto": 47153, "points": [{"type": "Feature", "properties": {}, "geometry": {"type": "Point", "coordinates": [7.574864000123, 45.082282000123]}}], "price": 1.999, "ultima_rilevazione": "24/06/2022 19:00:04"}, {"Gestore": "NUOVA SIDAP  S.R.L.", "Bandiera": "Api-Ip", "Tipo impianto": "Autostradale", "Indirizzo": "A55 TANG.LE DI TORINO, Km. 1+900, ovest 10098", "Nome impianto": "RIVOLI NORD", "Comune": "RIVOLI", "idImpianto": 25612, "points": [{"type": "Feature", "properties": {}, "geometry": {"type": "Point", "coordinates": [7.526997327804565, 45.08449363357934]}}], "price": 2.301, "ultima_rilevazione": "26/06/2022 08:42:44"}, {"Gestore": "IP SERVICES S.R.L.", "Bandiera": "Api-Ip", "Tipo impianto": "Altro", "Indirizzo": "VIA DON CAUSTICO 31 10095", "Nome impianto": "GRUGLIASCO - DON CAUSTICO", "Comune": "GRUGLIASCO", "idImpianto": 24658, "points": [{"type": "Feature", "properties": {}, "geometry": {"type": "Point", "coordinates": [7.570384489583944, 45.06390473622926]}}], "price": 2.009, "ultima_rilevazione": "26/06/2022 09:01:03"}, {"Gestore": "IP SERVICES S.R.L.", "Bandiera": "Api-Ip", "Tipo impianto": "Altro", "Indirizzo": "Corso Pastrengo  10093", "Nome impianto": "Collegno", "Comune": "COLLEGNO", "idImpianto": 39188, "points": [{"type": "Feature", "properties": {}, "geometry": {"type": "Point", "coordinates": [7.581583145368995, 45.08086836392947]}}], "price": 2.009, "ultima_rilevazione": "26/06/2022 09:03:06"}, {"Gestore": "IP SERVICES S.R.L.", "Bandiera": "Api-Ip", "Tipo impianto": "Altro", "Indirizzo": "VIA ALPIGNANO 130 10040", "Nome impianto": "Val della Torre Torino", "Comune": "VAL DELLA TORRE", "idImpianto": 40045, "points": [{"type": "Feature", "properties": {}, "geometry": {"type": "Point", "coordinates": [7.488698735833168, 45.13203174257948]}}], "price": 1.999, "ultima_rilevazione": "26/06/2022 09:03:06"}, {"Gestore": "T.D.M. S.R.L.", "Bandiera": "Tamoil", "Tipo impianto": "Altro", "Indirizzo": "VIA LAMARMORA 116 10095", "Nome impianto": "6216", "Comune": "GRUGLIASCO", "idImpianto": 47654, "points": [{"type": "Feature", "properties": {}, "geometry": {"type": "Point", "coordinates": [7.584867654536902, 45.06561292532808]}}], "price": 2.039, "ultima_rilevazione": "26/06/2022 13:54:03"}, {"Gestore": "T.D.M. S.R.L.", "Bandiera": "Tamoil", "Tipo impianto": "Altro", "Indirizzo": "CORSO SUSA 4 10040", "Nome impianto": "8013", "Comune": "CASELETTE", "idImpianto": 44380, "points": [{"type": "Feature", "properties": {}, "geometry": {"type": "Point", "coordinates": [7.498976959940592, 45.10741854063976]}}], "price": 2.039, "ultima_rilevazione": "27/06/2022 06:56:05"}, {"Gestore": "SERVIZI & GESTIONI ITALIA S.R.L.", "Bandiera": "Q8", "Tipo impianto": "Altro", "Indirizzo": "VIA PIANEZZA 385 10151", "Nome impianto": "TORINO VIA PIANEZZA 385", "Comune": "TORINO", "idImpianto": 48815, "points": [{"type": "Feature", "properties": {}, "geometry": {"type": "Point", "coordinates": [7.620992475463093, 45.09912497394853]}}], "price": 1.989, "ultima_rilevazione": "27/06/2022 00:34:32"}, {"Gestore": "MAGEA S.N.C. DI ANTONICELLI EROS & GUGLIOTTA MARIA ANTONIA", "Bandiera": "Agip Eni", "Tipo impianto": "Strada Statale", "Indirizzo": "24 del Monginevro, Km. 16+760, CASELETTE 10091", "Nome impianto": "STAZIONE ENI MAGEA", "Comune": "ALPIGNANO", "idImpianto": 43114, "points": [{"type": "Feature", "properties": {}, "geometry": {"type": "Point", "coordinates": [7.504751417272701, 45.10476516983302]}}], "price": 2.029, "ultima_rilevazione": "27/06/2022 06:55:24"}], "5": [{"Gestore": "BRESCIANINI PIETRO", "Bandiera": "Socogas", "Tipo impianto": "Altro", "Indirizzo": "Corso C.Allamano 37 10095", "Nome impianto": "SOCOGAS SPA", "Comune": "GRUGLIASCO", "idImpianto": 36909, "points": [{"type": "Feature", "properties": {}, "geometry": {"type": "Point", "coordinates": [7.588460147380829, 45.05240008664385]}}], "price": 1.559, "ultima_rilevazione": "07/12/2021 18:32:07"}, {"Gestore": "ROSELLI DAVIDE", "Bandiera": "Esso", "Tipo impianto": "Altro", "Indirizzo": "via lanzo  76 10071", "Nome impianto": "ESSO ", "Comune": "BORGARO TORINESE", "idImpianto": 48545, "points": [{"type": "Feature", "properties": {}, "geometry": {"type": "Point", "coordinates": [7.655568728836055, 45.14578362121748]}}], "price": 1.999, "ultima_rilevazione": "11/06/2022 11:31:05"}, {"Gestore": "CIRILLO AUTORIPARAZIONI S.A.S. DI CIRILLO PIETRO & C.", "Bandiera": "Esso", "Tipo impianto": "Altro", "Indirizzo": "VIA PIETRO COSSA 175/A 10146", "Nome impianto": "ESSO ", "Comune": "TORINO", "idImpianto": 40049, "points": [{"type": "Feature", "properties": {}, "geometry": {"type": "Point", "coordinates": [7.625419901188707, 45.08620538125764]}}], "price": 2.009, "ultima_rilevazione": "17/06/2022 08:37:14"}, {"Gestore": "TOFFEE DI LAURICELLA MARCO & C. S.N.C.", "Bandiera": "Api-Ip", "Tipo impianto": "Altro", "Indirizzo": "Via San Gillio 50 10040", "Nome impianto": "Italiana Petroli", "Comune": "GIVOLETTO", "idImpianto": 49396, "points": [{"type": "Feature", "properties": {}, "geometry": {"type": "Point", "coordinates": [7.5033806153961535, 45.1559432314448]}}], "price": 1.999, "ultima_rilevazione": "20/06/2022 20:46:52"}, {"Gestore": "SERVIZI & GESTIONI ITALIA S.R.L.", "Bandiera": "Q8", "Tipo impianto": "Altro", "Indirizzo": "VIA P.COSSA 195/a 10145", "Nome impianto": "TORINO VIA P.COSSA 195/A", "Comune": "TORINO", "idImpianto": 32482, "points": [{"type": "Feature", "properties": {}, "geometry": {"type": "Point", "coordinates": [7.626372706745883, 45.087588804279456]}}], "price": 2.009, "ultima_rilevazione": "21/06/2022 01:38:13"}, {"Gestore": "ROSELLI MICHELE", "Bandiera": "Esso", "Tipo impianto": "Altro", "Indirizzo": "VIA SERVAIS 210/7 10146", "Nome impianto": "STAZIONE DI SERVIZIO ESSO EXPRESS", "Comune": "TORINO", "idImpianto": 37535, "points": [{"type": "Feature", "properties": {}, "geometry": {"type": "Point", "coordinates": [7.614164119643419, 45.08702061254925]}}], "price": 2.009, "ultima_rilevazione": "21/06/2022 08:14:45"}, {"Gestore": "CIRILLO AUTORIPARAZIONI 2 S.A.S. DI CIRILLO PIETRO & C.", "Bandiera": "Esso", "Tipo impianto": "Altro", "Indirizzo": "CORSO FRANCIA 462 10143", "Nome impianto": "ESSO", "Comune": "TORINO", "idImpianto": 40065, "points": [{"type": "Feature", "properties": {}, "geometry": {"type": "Point", "coordinates": [7.606014273610754, 45.07428687878568]}}], "price": 2.039, "ultima_rilevazione": "21/06/2022 08:47:12"}, {"Gestore": "CENTRO CALOR S.R.L.", "Bandiera": "Pompe Bianche", "Tipo impianto": "Altro", "Indirizzo": "STRADA PROVINCIALE 175 KM 3 + 937  10098", "Nome impianto": "CENTRO CALOR OLICARB RIVOLI", "Comune": "RIVOLI", "idImpianto": 37607, "points": [{"type": "Feature", "properties": {}, "geometry": {"type": "Point", "coordinates": [7.563905864953995, 45.04660489294732]}}], "price": 1.999, "ultima_rilevazione": "21/06/2022 17:10:26"}, {"Gestore": "GA.VER. S.A.S. DI GAETA MARIO & C.", "Bandiera": "Api-Ip", "Tipo impianto": "Altro", "Indirizzo": "VIA PIETRO COSSA 80/A, 10146", "Nome impianto": "stazione di servizio totalerg", "Comune": "TORINO", "idImpianto": 9122, "points": [{"type": "Feature", "properties": {}, "geometry": {"type": "Point", "coordinates": [7.623943090438843, 45.081012662519285]}}], "price": 2.039, "ultima_rilevazione": "21/06/2022 19:01:44"}, {"Gestore": "BREAKSTATION DI COZZULA S.", "Bandiera": "Agip Eni", "Tipo impianto": "Altro", "Indirizzo": "C.SO PRIMO LEVI  160/A 10098", "Nome impianto": "BREAKSTATION di COZZULA S.", "Comune": "RIVOLI", "idImpianto": 41455, "points": [{"type": "Feature", "properties": {}, "geometry": {"type": "Point", "coordinates": [7.5242601335048676, 45.0610411908136]}}], "price": 2.024, "ultima_rilevazione": "22/06/2022 06:52:28"}, {"Gestore": "MURDOCCO MASSIMO", "Bandiera": "Agip Eni", "Tipo impianto": "Altro", "Indirizzo": "VIA SERVAIS 32/A 10146", "Nome impianto": "ENI 52935", "Comune": "TORINO", "idImpianto": 45680, "points": [{"type": "Feature", "properties": {}, "geometry": {"type": "Point", "coordinates": [7.6361654454036625, 45.08368297157411]}}], "price": 2.084, "ultima_rilevazione": "22/06/2022 07:01:05"}, {"Gestore": "TESORO MICHELE E DAVIDE SNC", "Bandiera": "Esso", "Tipo impianto": "Altro", "Indirizzo": "VIA STAMPINI 34/A 10148", "Nome impianto": "STAZIONE DI SERVIZIO ESSO DI TESORO M.E D.SNC", "Comune": "TORINO", "idImpianto": 44165, "points": [{"type": "Feature", "properties": {}, "geometry": {"type": "Point", "coordinates": [7.663632247885062, 45.10890661626722]}}], "price": 2.049, "ultima_rilevazione": "22/06/2022 07:31:50"}, {"Gestore": "BELLOTTI S.N.C. DI BELLOTTI FILIPPO E DAVIDE", "Bandiera": "Agip Eni", "Tipo impianto": "Altro", "Indirizzo": "corso allamano 160 a, 10098", "Nome impianto": "bellotti snc", "Comune": "RIVOLI", "idImpianto": 18813, "points": [{"type": "Feature", "properties": {}, "geometry": {"type": "Point", "coordinates": [7.557070255279541, 45.05783773413975]}}], "price": 2.029, "ultima_rilevazione": "22/06/2022 09:02:14"}, {"Gestore": "CASCINO ANGELO", "Bandiera": "Costantin", "Tipo impianto": "Altro", "Indirizzo": "strada del gerbido  25  10095", "Nome impianto": "COSTANTIN", "Comune": "GRUGLIASCO", "idImpianto": 51316, "points": [{"type": "Feature", "properties": {}, "geometry": {"type": "Point", "coordinates": [7.590878866186144, 45.05687961354991]}}], "price": 2.039, "ultima_rilevazione": "22/06/2022 09:09:26"}, {"Gestore": "SAMA SNC DI POMO MAURO E LUCCO BOSSU' SARA", "Bandiera": "Agip Eni", "Tipo impianto": "Altro", "Indirizzo": "Corso Francia  401 10142", "Nome impianto": "Stazione di servizio Eni", "Comune": "TORINO", "idImpianto": 40126, "points": [{"type": "Feature", "properties": {}, "geometry": {"type": "Point", "coordinates": [7.60634026636194, 45.07366980061131]}}], "price": 2.024, "ultima_rilevazione": "22/06/2022 12:30:47"}, {"Gestore": "ROCCA PAOLO", "Bandiera": "Esso", "Tipo impianto": "Altro", "Indirizzo": "CORSO FRANCIA 30/C 10098", "Nome impianto": "ESSO", "Comune": "RIVOLI", "idImpianto": 51120, "points": [{"type": "Feature", "properties": {}, "geometry": {"type": "Point", "coordinates": [7.524395030001623, 45.070333304163405]}}], "price": 2.009, "ultima_rilevazione": "22/06/2022 13:25:08"}, {"Gestore": "SA.ME.F. DI SARDO MICHAELA, MEOTTO GIANPIERO & C. - S.N.C.", "Bandiera": "Agip Eni", "Tipo impianto": "Altro", "Indirizzo": "CORSO DE GASPERI 101/A 10098", "Nome impianto": "SA.ME.F.", "Comune": "RIVOLI", "idImpianto": 6849, "points": [{"type": "Feature", "properties": {}, "geometry": {"type": "Point", "coordinates": [7.506170498672418, 45.07734771733064]}}], "price": 2.024, "ultima_rilevazione": "22/06/2022 14:18:37"}, {"Gestore": "EUROPAM S.R.L.", "Bandiera": "Europam", "Tipo impianto": "Altro", "Indirizzo": "VIA DE SANCTIS 94 10142", "Nome impianto": "EUROPAM - TORINO DE SANCTIS", "Comune": "TORINO", "idImpianto": 44848, "points": [{"type": "Feature", "properties": {}, "geometry": {"type": "Point", "coordinates": [7.620728264383274, 45.0670921066774]}}], "price": 2.027, "ultima_rilevazione": "22/06/2022 18:27:11"}, {"Gestore": "MASSARO ANTONIO", "Bandiera": "Api-Ip", "Tipo impianto": "Altro", "Indirizzo": "VIA VEROLENGO 170/A 10149", "Nome impianto": "stazione di servizio totalerg 2", "Comune": "TORINO", "idImpianto": 40412, "points": [{"type": "Feature", "properties": {}, "geometry": {"type": "Point", "coordinates": [7.653329372406006, 45.09513774310146]}}], "price": 2.039, "ultima_rilevazione": "22/06/2022 18:35:02"}, {"Gestore": "MASSARO ANTONIO", "Bandiera": "Api-Ip", "Tipo impianto": "Altro", "Indirizzo": "CORSO POTENZA ANG. V. VEROLENGO SN 10149", "Nome impianto": "Stazione di servizio Totalerg", "Comune": "TORINO", "idImpianto": 40413, "points": [{"type": "Feature", "properties": {}, "geometry": {"type": "Point", "coordinates": [7.6574720442295074, 45.095448837219045]}}], "price": 2.039, "ultima_rilevazione": "22/06/2022 18:35:56"}, {"Gestore": "ZULLO MICHELE", "Bandiera": "Europam", "Tipo impianto": "Altro", "Indirizzo": "VIA PIETRO COSSA 102 B 10146", "Nome impianto": "EUROPAM P.COSSA", "Comune": "TORINO", "idImpianto": 42646, "points": [{"type": "Feature", "properties": {}, "geometry": {"type": "Point", "coordinates": [7.624495668122904, 45.08235991224021]}}], "price": 2.027, "ultima_rilevazione": "23/06/2022 11:30:27"}, {"Gestore": "ARC S.N.C. DI ARROCCESE GIULIAN & C.", "Bandiera": "Esso", "Tipo impianto": "Altro", "Indirizzo": "STRADA COMUNALE DI ALTESSANO 138/A 10151", "Nome impianto": "STAZIONE ESSO ARC.SNC", "Comune": "TORINO", "idImpianto": 37645, "points": [{"type": "Feature", "properties": {}, "geometry": {"type": "Point", "coordinates": [7.645719944249777, 45.10944612290978]}}], "price": 2.009, "ultima_rilevazione": "24/06/2022 07:25:30"}, {"Gestore": "CAPPUCCI ALESSIO CARBURANTI & C. S.N.C.", "Bandiera": "Esso", "Tipo impianto": "Altro", "Indirizzo": "Via Sansovino 88/A 10151", "Nome impianto": "CAPPUCCI ALESSIO CARBURANTI & C. SNC", "Comune": "TORINO", "idImpianto": 45129, "points": [{"type": "Feature", "properties": {}, "geometry": {"type": "Point", "coordinates": [7.641423000123, 45.101915000123]}}], "price": 2.026, "ultima_rilevazione": "24/06/2022 10:24:51"}, {"Gestore": "SERVIZI & GESTIONI ITALIA S.R.L.", "Bandiera": "Q8", "Tipo impianto": "Altro", "Indirizzo": " SP 175 DEL DOJRONE KM 4  10098", "Nome impianto": "RIVOLI -  SP 175 DEL DOJRONE KM 4", "Comune": "RIVOLI", "idImpianto": 31850, "points": [{"type": "Feature", "properties": {}, "geometry": {"type": "Point", "coordinates": [7.563552010224839, 45.04734257894287]}}], "price": 2.019, "ultima_rilevazione": "25/06/2022 01:08:21"}, {"Gestore": "CAPPUCCI ALESSIO CARBURANTI & C. S.N.C.", "Bandiera": "Esso", "Tipo impianto": "Altro", "Indirizzo": "VIA MICHELE LESSONA 84/A 10145", "Nome impianto": "CAPPUCCI CARBURANTI VIA LESSONA", "Comune": "TORINO", "idImpianto": 24311, "points": [{"type": "Feature", "properties": {},