{"area_comune": "[{\"type\": \"Feature\", \"properties\": {}, \"geometry\": {\"type\": \"Polygon\", \"coordinates\": [[[14.503827088440266, 40.76941534422573], [14.507269989771185, 40.7692471934204], [14.509061870071928, 40.768901734649106], [14.50941923619645, 40.76865956360741], [14.509756015131648, 40.7679277501254], [14.511026249061613, 40.76423445572708], [14.510613691692129, 40.76397963616023], [14.50860396306716, 40.76334668300131], [14.509132361307726, 40.76084573017544], [14.510983429673963, 40.75729566305759], [14.514320902599307, 40.74634639670562], [14.513823914358795, 40.744776788981746], [14.510534807804946, 40.744142145389546], [14.506186057723458, 40.74274341123238], [14.505434007110361, 40.740528801826834], [14.506555944146045, 40.73917924081635], [14.508493787500313, 40.737760053424765], [14.509682401348302, 40.73765173265521], [14.512544803422918, 40.73806827511479], [14.514249850466017, 40.73815763251636], [14.51751213068398, 40.73799846383351], [14.51964324819401, 40.73707981169396], [14.5204874546493, 40.73478577735068], [14.51509151149855, 40.73331186995522], [14.511702666376841, 40.73189433319448], [14.498007630287312, 40.722453260064526], [14.494827178926663, 40.72719193881471], [14.494049881936284, 40.72804376466645], [14.493563380202527, 40.72835956793201], [14.487717033430894, 40.7294127314121], [14.482342514597267, 40.735335956911975], [14.481851776754075, 40.736024654742785], [14.481552884557365, 40.73924013478498], [14.47921189800417, 40.74180480737511], [14.476244789553286, 40.748585367408666], [14.47554194595331, 40.75068039300431], [14.475762730058065, 40.75117852738034], [14.475756186637591, 40.7520880795736], [14.47408019714528, 40.75574631325495], [14.473399418513557, 40.756481660118205], [14.47536250556754, 40.75804844948751], [14.4820957497278, 40.76417807366558], [14.483474394601359, 40.765057640403455], [14.487665235317147, 40.76705890577762], [14.493041661015745, 40.769003432062235], [14.495228732896965, 40.76960567658398], [14.502536890526127, 40.76996305786453], [14.503827088440266, 40.76941534422573]]]}}]", "comune": "pompei", "buffer_1": "[{\"type\": \"Feature\", \"properties\": {}, \"geometry\": {\"type\": \"Polygon\", \"coordinates\": [[[14.498061668024977, 40.777258464578516], [14.499088775210398, 40.77764636197526], [14.500160512216189, 40.77795674883798], [14.501266784378906, 40.77818670176619], [14.502397171419945, 40.778334054991916], [14.503541025708254, 40.77839742079436], [14.504687572674765, 40.77837620257707], [14.505826012427141, 40.77827060048394], [14.50694562160179, 40.77808160950127], [14.508035854488051, 40.777811010064006], [14.509086442466458, 40.77746135125601], [14.510087490819474, 40.77703592676342], [14.511029571998465, 40.776538743809645], [14.511903814464878, 40.77597448536603], [14.512701986266404, 40.7753484659966], [14.513416572559494, 40.7746665817548], [14.514040846347829, 40.773935254606236], [14.514568931771416, 40.77316137190329], [14.51499585935228, 40.77235222148346], [14.525486029847178, 40.74928247886627], [14.525814038528438, 40.74842507459742], [14.526028509496976, 40.747547142837114], [14.526127328731505, 40.74665735612516], [14.526109524785351, 40.745764503749264], [14.52597527819759, 40.74487740492471], [14.525725919525582, 40.744004821692485], [14.52536391602547, 40.74315537239558], [14.525279598862719, 40.743008972716176], [14.525784445649267, 40.74281631209233], [14.52678920482079, 40.74238491447524], [14.527733822450289, 40.74188101404816], [14.52860928550886, 40.74130941981501], [14.529407241577449, 40.74067558662093], [14.530120078542224, 40.739985563047], [14.530740997194115, 40.73924593364183], [14.531264076040687, 40.73846375604376], [14.531684327714137, 40.737646493595975], [14.531997746440494, 40.73680194409922], [14.532201346121388, 40.7359381653835], [14.532293188670181, 40.73506339841059], [14.53227240233799, 40.73418598864123], [14.532139189860912, 40.73331430641833], [14.53189482635726, 40.73245666712516], [14.531541647001257, 40.73162125188009], [14.531083024596875, 40.73081602952325], [14.530523337271518, 40.730048680638205], [14.529867926602517, 40.72932652433157], [14.529123046580043, 40.72865644846711], [14.528295803896178, 40.72804484401756], [14.527394090131612, 40.72749754415818], [14.504915749517354, 40.715166294813905], [14.503929381520088, 40.71467985978701], [14.50288435458401, 40.714270442371735], [14.501791020797294, 40.713942098202445], [14.500660210268547, 40.71369807983893], [14.499503123958002, 40.713540804576176], [14.49833122285381, 40.71347183051812], [14.497156114585083, 40.71349184115147], [14.495989438588134, 40.71360063857223], [14.49484275095646, 40.71379714543151], [14.493727410108125, 40.714079415582546], [14.492654464396638, 40.71444465332404], [14.491634542772479, 40.71488924105131], [14.490677749573313, 40.71540877504253], [14.489793564480902, 40.71599810902874], [14.488990748632903, 40.716651405117595], [14.488277257818064, 40.717362191569904], [14.487660163614597, 40.71812342685849], [14.46304776512941, 40.752149858438194], [14.462541229014816, 40.752938694743875], [14.462138327250097, 40.75376135538915], [14.461842909447489, 40.754609988346644], [14.461657799646748, 40.75547649336372], [14.461584769203217, 40.75635259926313], [14.461624519713494, 40.757229942887435], [14.461776676148071, 40.758100148934204], [14.462039790262924, 40.75895490991976], [14.462411354263923, 40.75978606550738], [14.462887824599704, 40.760585680442], [14.46346465566151, 40.76134612034575], [14.464136343073015, 40.76206012464914], [14.464896476160904, 40.762720875959666], [14.465737799107984, 40.763322065202956], [14.466652280206784, 40.76385795191289], [14.467631188552845, 40.76432341909185], [14.498061668024977, 40.777258464578516]]]}}]", "buffer_3": "[{\"type\": \"Feature\", \"properties\": {}, \"geometry\": {\"type\": \"Polygon\", \"coordinates\": [[[14.486526947405928, 40.79294408020039], [14.4896088938138, 40.79410801683733], [14.492824852108946, 40.7950393671282], [14.496144510203033, 40.79572935372938], [14.499536575609088, 40.79617147452281], [14.502969071421287, 40.796361564042115], [14.506409638839264, 40.79629783279144], [14.509825843334127, 40.7959808840824], [14.513185481517334, 40.79541370823189], [14.516456885767349, 40.79460165417932], [14.519609223692619, 40.793552378799426], [14.5226127895625, 40.79227577439988], [14.525439284919818, 40.790783875102136], [14.52806208569854, 40.78909074300444], [14.53045649330633, 40.787212335219365], [14.53259996729306, 40.78516635305856], [14.534472337410357, 40.78297207480606], [14.536055993072248, 40.780650173676044], [14.537336048450527, 40.77822252268856], [14.547818926853177, 40.755151191937195], [14.548802105862823, 40.75257883795804], [14.549321871152598, 40.75044810677383], [14.54938971728626, 40.75038240991708], [14.55125200744043, 40.74816322637569], [14.55282062875694, 40.745816443440056], [14.554080642592698, 40.74336446066267], [14.555020059877368, 40.7408306788817], [14.555629954280167, 40.738239276653886], [14.555904545999097, 40.73561497936953], [14.555841255425554, 40.73298282326048], [14.55544072622871, 40.73036791655624], [14.554706817697548, 40.727795200066744], [14.553646566471375, 40.725289209470866], [14.552270118078953, 40.72287384156982], [14.550590628989967, 40.720572126722885], [14.548624140156933, 40.718406009620224], [14.546389423289765, 40.71639614046607], [14.543907801355465, 40.71456167854354], [14.541202945030955, 40.71292011001357], [14.518727573175932, 40.70059139498181], [14.515768931362482, 40.69913239334587], [14.51263446886961, 40.69790439841969], [14.509355217523167, 40.69691956695022], [14.50596363801503, 40.696187648684145], [14.502493299566487, 40.695715890109334], [14.498978548785356, 40.6955089628885], [14.495454170939283, 40.6955689176849], [14.491955046938191, 40.6958951638331], [14.48851580935916, 40.69648447505652], [14.485170500856952, 40.69733102118071], [14.481952238282636, 40.6984264255377], [14.478892885781601, 40.69975984750763], [14.476022740060959, 40.701318089397404], [14.473370230905125, 40.703085726618916], [14.47096163987863, 40.705045259900075], [14.468820839986957, 40.70717728804567], [14.466969058871685, 40.70946069956079], [14.442348296222574, 40.743483192748634], [14.440828050868452, 40.74584945922982], [14.43961858658403, 40.74831725465513], [14.438731481083517, 40.75086303005176], [14.438175238917596, 40.7534624893736], [14.437955208904462, 40.756090821222585], [14.438073531584509, 40.758722935599636], [14.438529117256937, 40.76133370342917], [14.439317654865995, 40.76389819656937], [14.440431651709948, 40.766391926012666], [14.441860503648789, 40.7687910759933], [14.443590595190772, 40.77107273175434], [14.445605428546028, 40.77321509878361], [14.447885780450516, 40.77519771140703], [14.450409885288712, 40.77700162872717], [14.453153642781682, 40.778609616014556], [14.456090848261326, 40.78000630979797], [14.486526947405928, 40.79294408020039]]]}}]", "buffer_5": "[{\"type\": \"Feature\", \"properties\": {}, \"geometry\": {\"type\": \"Polygon\", \"coordinates\": [[[14.474987048951334, 40.80862886075739], [14.480124668045082, 40.81056916303236], [14.485485844703543, 40.81212173011866], [14.491020011890184, 40.813271921166034], [14.496674962622137, 40.81400889125533], [14.502397345263219, 40.81432569408122], [14.508133169874892, 40.814219347630456], [14.513828320705848, 40.81369086222665], [14.519429069837924, 40.812745230678736], [14.524882586996567, 40.8113913806386], [14.53013744057684, 40.80964208964045], [14.535144085031597, 40.80751386365595], [14.539855329914648, 40.80502678035177], [14.544226786066845, 40.80220429857569], [14.548217284674296, 40.799073035920856], [14.551789265211857, 40.795662516521254], [14.55490912860828, 40.792004891513336], [14.557547552327161, 40.78813463485368], [14.559679764446331, 40.78408821741257], [14.57015534440703, 40.76101530127594], [14.571568486978558, 40.75731464222553], [14.57176825092388, 40.75707648991854], [14.574381593043743, 40.75316476839759], [14.57648037956988, 40.74907780514552], [14.578044675908906, 40.74485461392917], [14.579059658200162, 40.74053550075273], [14.579515750925216, 40.73616167873212], [14.579408714155273, 40.73177487462157], [14.578739679761, 40.727416930756114], [14.577515136400981, 40.72312940620659], [14.575746863592254, 40.718953180938556], [14.573451815644741, 40.71492806672657], [14.570651956706174, 40.711092428500535], [14.567374048612429, 40.70748281969192], [14.563649393664987, 40.704133635007096], [14.55951353486091, 40.70107678388323], [14.55500591647731, 40.6983413876815], [14.532533515062298, 40.68601520486767], [14.52760321581746, 40.68358404074799], [14.522380141912409, 40.68153781092215], [14.516915972350287, 40.67989675975663], [14.511264758953981, 40.67867712365209], [14.505482394416319, 40.677890971128896], [14.49962606260096, 40.67754608390054], [14.493753676378267, 40.67764588008777], [14.487923308391412, 40.67818938032165], [14.482192620211745, 40.67917121707282], [14.47661829535989, 40.68058168712905], [14.471255481638556, 40.68240684672925], [14.466157248145596, 40.68462864845052], [14.461374062211481, 40.68722511854249], [14.456953291333779, 40.69017057301005], [14.45293873496444, 40.693435870368205], [14.449370190743316, 40.69698869863303], [14.446283059465719, 40.7007938937744], [14.421653944994343, 40.734812446649286], [14.419119142408059, 40.738755819757394], [14.417102104810883, 40.74286850082449], [14.415622176420397, 40.74711125343685], [14.414693585460476, 40.75144359207342], [14.414325304497938, 40.755824168004466], [14.414520960667536, 40.760211163735626], [14.415278796798775, 40.764562692242315], [14.416591683977382, 40.76883719718208], [14.418447185582098, 40.772993850250884], [14.420827672339042, 40.77699294186539], [14.423710487435718, 40.78079626140611], [14.427068160240495, 40.784367463347024], [14.430868666686145, 40.78767241572405], [14.43507573390346, 40.79067952755816], [14.43964918623862, 40.793360052045955], [14.444545329361436, 40.79568836256148], [14.474987048951334, 40.80862886075739]]]}}]", "centroid": "[{\"type\": \"Feature\", \"properties\": {}, \"geometry\": {\"type\": \"Point\", \"coordinates\": [14.49814349302082, 40.74641291849636]}}]", "Benzina": {"1": [{"Gestore": "CHIACCHIERA FRANCESCO", "Bandiera": "Agip Eni", "Tipo impianto": "Altro", "Indirizzo": "VIA VITTORIO VENETO 2 80058", "Nome impianto": "ENI spa", "Comune": "TORRE ANNUNZIATA", "idImpianto": 46634, "points": [{"type": "Feature", "properties": {}, "geometry": {"type": "Point", "coordinates": [14.465613216161728, 40.75009524376741]}}], "price": 2.214, "ultima_rilevazione": "18/05/2022 05:53:44"}, {"Gestore": "FRATELLI LONGOBARDI DI DEL GAUDIO NUNZIA & C. S.N.C.", "Bandiera": "Pompe Bianche", "Tipo impianto": "Altro", "Indirizzo": "VIA FONTANELLE 249 80045", "Nome impianto": "FRATELLI LONGOBARDI", "Comune": "POMPEI", "idImpianto": 33882, "points": [{"type": "Feature", "properties": {}, "geometry": {"type": "Point", "coordinates": [14.497255235910416, 40.723622169200425]}}], "price": 1.859, "ultima_rilevazione": "05/05/2022 11:33:34"}, {"Gestore": "SAVINELLI CARBURANTI S.A.S. DI MARCO SAVINELLI & C.", "Bandiera": "Esso", "Tipo impianto": "Autostradale", "Indirizzo": "A3 NAPOLI-SALERNO, Km. 20, sud 80058", "Nome impianto": "TORRE ANNUNZIATA OVEST", "Comune": "TORRE ANNUNZIATA", "idImpianto": 41777, "points": [{"type": "Feature", "properties": {}, "geometry": {"type": "Point", "coordinates": [14.472215473651886, 40.75156676184485]}}], "price": 1.899, "ultima_rilevazione": "10/05/2022 15:10:42"}, {"Gestore": "CASCONE CARBURANTI DI CINZIA SPINELLI S.A.S.", "Bandiera": "Q8", "Tipo impianto": "Altro", "Indirizzo": "STRADA PONTE DELLA PERSICA 100 80053", "Nome impianto": "Q8", "Comune": "CASTELLAMMARE DI STABIA", "idImpianto": 9595, "points": [{"type": "Feature", "properties": {}, "geometry": {"type": "Point", "coordinates": [14.485897421836851, 40.73187189266499]}}], "price": 1.829, "ultima_rilevazione": "11/05/2022 12:26:11"}, {"Gestore": "MERIDIONAL G.P.L. - S.R.L.", "Bandiera": "Pompe Bianche", "Tipo impianto": "Altro", "Indirizzo": "VIA SPINELLI 22 80045", "Nome impianto": "Meridional Gpl srl", "Comune": "POMPEI", "idImpianto": 9615, "points": [{"type": "Feature", "properties": {}, "geometry": {"type": "Point", "coordinates": [14.504981338977814, 40.76913387129056]}}], "price": 1.829, "ultima_rilevazione": "13/05/2022 10:14:19"}, {"Gestore": "SA.MO. PETROLI DI SALVATORE MOSCA", "Bandiera": "Pompe Bianche", "Tipo impianto": "Altro", "Indirizzo": "via ripuaria 75 80045", "Nome impianto": "m petroli", "Comune": "POMPEI", "idImpianto": 33087, "points": [{"type": "Feature", "properties": {}, "geometry": {"type": "Point", "coordinates": [14.499395071094568, 40.73940683796222]}}], "price": 1.855, "ultima_rilevazione": "13/05/2022 20:12:44"}, {"Gestore": "DELTA PETROLI S.R.L.", "Bandiera": "Api-Ip", "Tipo impianto": "Altro", "Indirizzo": "Via Tre Ponti snc 80045", "Nome impianto": "Delta Petroli S.r.l. (Pompei)", "Comune": "POMPEI", "idImpianto": 32071, "points": [{"type": "Feature", "properties": {}, "geometry": {"type": "Point", "coordinates": [14.506644308567047, 40.76120620819259]}}], "price": 1.874, "ultima_rilevazione": "14/05/2022 10:11:12"}, {"Gestore": "ANSOR DI CARMELA CELOTTO & C. S.N.C.", "Bandiera": "Pompe Bianche", "Tipo impianto": "Altro", "Indirizzo": "Via Vigna Sant'Antonio 18 80058", "Nome impianto": "Ansor snc ", "Comune": "TORRE ANNUNZIATA", "idImpianto": 23362, "points": [{"type": "Feature", "properties": {}, "geometry": {"type": "Point", "coordinates": [14.476697444915771, 40.7473041058179]}}], "price": 1.849, "ultima_rilevazione": "16/05/2022 10:52:56"}, {"Gestore": "AFIERO MICHELE", "Bandiera": "Loro", "Tipo impianto": "Altro", "Indirizzo": "VIA MARTIRI D'UNGHERIA 101 84018", "Nome impianto": "AFIERO MICHELE", "Comune": "SCAFATI", "idImpianto": 40883, "points": [{"type": "Feature", "properties": {}, "geometry": {"type": "Point", "coordinates": [14.52107514283989, 40.75196803180263]}}], "price": 1.835, "ultima_rilevazione": "16/05/2022 10:54:30"}, {"Gestore": "VELAR S.R.L.", "Bandiera": "Oceania", "Tipo impianto": "Altro", "Indirizzo": "VIA BOTTARO SNC 80058", "Nome impianto": "OCEANIA (TORRE)", "Comune": "TORRE ANNUNZIATA", "idImpianto": 46731, "points": [{"type": "Feature", "properties": {}, "geometry": {"type": "Point", "coordinates": [14.473502292261742, 40.7453950371418]}}], "price": 1.869, "ultima_rilevazione": "16/05/2022 22:28:47"}, {"Gestore": "SERVIZI & GESTIONI ITALIA S.R.L.", "Bandiera": "Q8", "Tipo impianto": "Altro", "Indirizzo": "S.S. 18 KM 24+623  80045", "Nome impianto": "POMPEI S.S. 18 KM 24+623", "Comune": "POMPEI", "idImpianto": 23138, "points": [{"type": "Feature", "properties": {}, "geometry": {"type": "Point", "coordinates": [14.49668714313043, 40.74617638697647]}}], "price": 1.874, "ultima_rilevazione": "18/05/2022 02:37:27"}, {"Gestore": "FEDERICO GIOVANNI", "Bandiera": "Energas", "Tipo impianto": "Altro", "Indirizzo": "VIA SETTETERMINI 14/18 80041", "Nome impianto": "Energas", "Comune": "BOSCOREALE", "idImpianto": 42635, "points": [{"type": "Feature", "properties": {}, "geometry": {"type": "Point", "coordinates": [14.471814588993766, 40.75835307443105]}}], "price": 1.899, "ultima_rilevazione": "18/05/2022 07:33:38"}, {"Gestore": "SANTA MARIA CARBURANTI S.R.L.", "Bandiera": "Pompe Bianche", "Tipo impianto": "Altro", "Indirizzo": "VIA CARRARA SNC 80050", "Nome impianto": "SANTA MARIA CARBURANTI SRL", "Comune": "SANTA MARIA LA CARITA'", "idImpianto": 47407, "points": [{"type": "Feature", "properties": {}, "geometry": {"type": "Point", "coordinates": [14.510791003704073, 40.73084384549661]}}], "price": 1.898, "ultima_rilevazione": "18/05/2022 09:16:15"}, {"Gestore": "LA MURA GROUP S.R.L.", "Bandiera": "Total Erg", "Tipo impianto": "Altro", "Indirizzo": "VIA SCAFATI 283 80050", "Nome impianto": "La Mura Group", "Comune": "SANTA MARIA LA CARITA'", "idImpianto": 27269, "points": [{"type": "Feature", "properties": {}, "geometry": {"type": "Point", "coordinates": [14.514097782208978, 40.73094364975582]}}], "price": 1.889, "ultima_rilevazione": "18/05/2022 11:22:12"}, {"Gestore": "BORRELLI SALVATORE", "Bandiera": "Pompe Bianche", "Tipo impianto": "Altro", "Indirizzo": "VIA VITTORIO VENETO 94/B", "Nome impianto": "BORRELLI SALVATORE", "Comune": "TORRE ANNUNZIATA", "idImpianto": 17557, "points": [{"type": "Feature", "properties": {}, "geometry": {"type": "Point", "coordinates": [14.462860591757249, 40.753032252449216]}}], "price": 1.889, "ultima_rilevazione": "18/05/2022 12:19:45"}, {"Gestore": "VINCENZO CASCONE S.R.L.", "Bandiera": "Pompe Bianche", "Tipo impianto": "Altro", "Indirizzo": "VIA SCAFATI 223 80050", "Nome impianto": "STAZIONE DI SERVIZIO CASCONE", "Comune": "SANTA MARIA LA CARITA'", "idImpianto": 40789, "points": [{"type": "Feature", "properties": {}, "geometry": {"type": "Point", "coordinates": [14.513311487102555, 40.72861658682665]}}], "price": 1.889, "ultima_rilevazione": "18/05/2022 13:47:15"}, {"Gestore": "AREA FELIX S.A.S. DI AMITRANO POLISTO", "Bandiera": "Api-Ip", "Tipo impianto": "Altro", "Indirizzo": "VIA PLINIO 101 80045", "Nome impianto": "IP Area Felix", "Comune": "POMPEI", "idImpianto": 42083, "points": [{"type": "Feature", "properties": {}, "geometry": {"type": "Point", "coordinates": [14.486825459215993, 40.74677174655304]}}], "price": 1.889, "ultima_rilevazione": "18/05/2022 15:41:56"}, {"Gestore": "2 G PETROLI S.R.L. SEMPLIFICATA", "Bandiera": "Pompe Bianche", "Tipo impianto": "Altro", "Indirizzo": "VIA G.B. CASCIELLO SNC 84018", "Nome impianto": "Eurogas", "Comune": "SCAFATI", "idImpianto": 46282, "points": [{"type": "Feature", "properties": {}, "geometry": {"type": "Point", "coordinates": [14.519029453570738, 40.76145869786863]}}], "price": 1.875, "ultima_rilevazione": "18/05/2022 16:07:39"}, {"Gestore": "ORGANIZZAZIONE SERVIZI AUTO - O.S.A. - S.P.A.", "Bandiera": "Esso", "Tipo impianto": "Altro", "Indirizzo": "VIA PASSANTI 267 84018", "Nome impianto": "ESSO SCAFATI", "Comune": "SCAFATI", "idImpianto": 50249, "points": [{"type": "Feature", "properties": {}, "geometry": {"type": "Point", "coordinates": [14.517707887191804, 40.76596745019975]}}], "price": 1.879, "ultima_rilevazione": "18/05/2022 16:08:49"}, {"Gestore": "ALIBERTI VITTORIO", "Bandiera": "Tamoil", "Tipo impianto": "Altro", "Indirizzo": "VIA LEPANTO 287 80045", "Nome impianto": "TAMOIL DI ALIBERTI VITTORIO", "Comune": "POMPEI", "idImpianto": 29276, "points": [{"type": "Feature", "properties": {}, "geometry": {"type": "Point", "coordinates": [14.511073976755142, 40.74999486560387]}}], "price": 1.928, "ultima_rilevazione": "18/05/2022 17:06:15"}, {"Gestore": "ALIBERTI VITTORIO", "Bandiera": "Tamoil", "Tipo impianto": "Altro", "Indirizzo": "VIA PASSANTI  107 80041", "Nome impianto": "TAMOIL DI ALIBERTI VITTORIO 4588", "Comune": "BOSCOREALE", "idImpianto": 12642, "points": [{"type": "Feature", "properties": {}, "geometry": {"type": "Point", "coordinates": [14.498139023780825, 40.77694806456933]}}], "price": 1.899, "ultima_rilevazione": "19/05/2022 07:06:11"}], "3": [{"Gestore": "EUROPA SERVICE SOCIETA' A RESPONSABILITA' LIMITATA", "Bandiera": "Q8", "Tipo impianto": "Altro", "Indirizzo": "viale europa 154 80053", "Nome impianto": "Q8 Europa Service", "Comune": "CASTELLAMMARE DI STABIA", "idImpianto": 43882, "points": [{"type": "Feature", "properties": {}, "geometry": {"type": "Point", "coordinates": [14.489071915344198, 40.70126796656399]}}], "price": 1.839, "ultima_rilevazione": "21/01/2022 08:22:32"}, {"Gestore": "CARBURANTE DI CASCONE NICOLA", "Bandiera": "Esso", "Tipo impianto": "Altro", "Indirizzo": "VIA DANTE ALIGHIERI 27 84018", "Nome impianto": "CARBURANTE DI CASCONE NICOLA", "Comune": "SCAFATI", "idImpianto": 45066, "points": [{"type": "Feature", "properties": {}, "geometry": {"type": "Point", "coordinates": [14.534445000123, 40.749389000123]}}], "price": 1.829, "ultima_rilevazione": "11/05/2022 08:31:58"}, {"Gestore": "SUMMA OIL SRL", "Bandiera": "Tamoil", "Tipo impianto": "Altro", "Indirizzo": "Via Provinciale Santa Maria la Carit\u00e0 snc 80057", "Nome impianto": "Summa Oil srl", "Comune": "SANT'ANTONIO ABATE", "idImpianto": 39043, "points": [{"type": "Feature", "properties": {}, "geometry": {"type": "Point", "coordinates": [14.532002583146095, 40.72025066060659]}}], "price": 1.999, "ultima_rilevazione": "12/05/2022 07:01:40"}, {"Gestore": "LA SUPREMA  - S.R.L.", "Bandiera": "Pompe Bianche", "Tipo impianto": "Altro", "Indirizzo": "VIA DEI GOTI 298 84012", "Nome impianto": "la suprema srl", "Comune": "ANGRI", "idImpianto": 42745, "points": [{"type": "Feature", "properties": {}, "geometry": {"type": "Point", "coordinates": [14.55362076686481, 40.72930309774013]}}], "price": 1.82, "ultima_rilevazione": "13/05/2022 06:57:01"}, {"Gestore": "COZZOLINO S.A.S. DI COZZOLINO LUIGI & C.", "Bandiera": "Api-Ip", "Tipo impianto": "Altro", "Indirizzo": "capitano g. rea   99 80040", "Nome impianto": "Cozzolino s.a.s.", "Comune": "TRECASE", "idImpianto": 41703, "points": [{"type": "Feature", "properties": {}, "geometry": {"type": "Point", "coordinates": [14.448880687310748, 40.77164441469695]}}], "price": 1.829, "ultima_rilevazione": "13/05/2022 07:31:35"}, {"Gestore": "ERBETTI ANTIMO", "Bandiera": "Api-Ip", "Tipo impianto": "Altro", "Indirizzo": "VIA SEPOLCRI S.N. 80042", "Nome impianto": "TOTALERG", "Comune": "BOSCOTRECASE", "idImpianto": 42809, "points": [{"type": "Feature", "properties": {}, "geometry": {"type": "Point", "coordinates": [14.455216974020004, 40.762702468546806]}}], "price": 1.829, "ultima_rilevazione": "13/05/2022 22:52:45"}, {"Gestore": "AUTOSTAZIONE CARPENTIERI FILIPPO", "Bandiera": "Loro", "Tipo impianto": "Altro", "Indirizzo": "VIA VITTORIO VENETO 360 80058", "Nome impianto": "mercato libero", "Comune": "TORRE ANNUNZIATA", "idImpianto": 44061, "points": [{"type": "Feature", "properties": {}, "geometry": {"type": "Point", "coordinates": [14.452028495084278, 40.75903786248801]}}], "price": 1.859, "ultima_rilevazione": "14/05/2022 07:21:20"}, {"Gestore": "DI PALMA GIUSEPPE VINCENZO", "Bandiera": "Tamoil", "Tipo impianto": "Altro", "Indirizzo": "VIA PASSANTI FLOCCO 262 80041", "Nome impianto": "TAMOIL DI DI PALMA GIUSEPPE VINCENZO", "Comune": "BOSCOREALE", "idImpianto": 14102, "points": [{"type": "Feature", "properties": {}, "geometry": {"type": "Point", "coordinates": [14.510054738928602, 40.783947231763015]}}], "price": 1.879, "ultima_rilevazione": "15/05/2022 12:45:26"}, {"Gestore": "G.P. CARBURANTI S.R.L.", "Bandiera": "Pompe Bianche", "Tipo impianto": "Altro", "Indirizzo": "Via A. De Gasperi 55 80053", "Nome impianto": "Atala Oil", "Comune": "CASTELLAMMARE DI STABIA", "idImpianto": 45205, "points": [{"type": "Feature", "properties": {}, "geometry": {"type": "Point", "coordinates": [14.483062982447109, 40.70279398192256]}}], "price": 1.999, "ultima_rilevazione": "16/05/2022 13:23:03"}, {"Gestore": "POLIMENO CARLO", "Bandiera": "Api-Ip", "Tipo impianto": "Altro", "Indirizzo": "VIA TENENTE LUIGI ROSSI 45 80042", "Nome impianto": "Api Ip", "Comune": "BOSCOTRECASE", "idImpianto": 40335, "points": [{"type": "Feature", "properties": {}, "geometry": {"type": "Point", "coordinates": [14.459966760747877, 40.76970186414686]}}], "price": 1.898, "ultima_rilevazione": "16/05/2022 15:33:46"}, {"Gestore": "G.B.L. SAS DI BUONO VINCENZO & C.", "Bandiera": "Api-Ip", "Tipo impianto": "Altro", "Indirizzo": "Nazionale Passanti 244 80040", "Nome impianto": "Stazione di servizio F.ll.i Buono", "Comune": "TERZIGNO", "idImpianto": 40678, "points": [{"type": "Feature", "properties": {}, "geometry": {"type": "Point", "coordinates": [14.487735740840437, 40.7753915960935]}}], "price": 1.819, "ultima_rilevazione": "16/05/2022 19:16:54"}, {"Gestore": "CA.VER. S.N.C. DI CACCIOPPOLI MAURIZIO E GIANLUCA", "Bandiera": "Agip Eni", "Tipo impianto": "Altro", "Indirizzo": "VIALE EUROPA 87 80053", "Nome impianto": "ENI", "Comune": "CASTELLAMMARE DI STABIA", "idImpianto": 32472, "points": [{"type": "Feature", "properties": {}, "geometry": {"type": "Point", "coordinates": [14.489392057717168, 40.70175169323834]}}], "price": 1.899, "ultima_rilevazione": "17/05/2022 07:22:38"}, {"Gestore": "LE SPOSE DI BIANCA DI ANNARUMMA BIANCA", "Bandiera": "Pompe Bianche", "Tipo impianto": "Altro", "Indirizzo": "VIA PALUDICELLA 30A 84012", "Nome impianto": "VISCARDI CARBURANTI METANO GPL", "Comune": "ANGRI", "idImpianto": 42811, "points": [{"type": "Feature", "properties": {}, "geometry": {"type": "Point", "coordinates": [14.548700884665209, 40.72987052231823]}}], "price": 1.889, "ultima_rilevazione": "17/05/2022 08:37:34"}, {"Gestore": "SERVIZI & GESTIONI ITALIA srl", "Bandiera": "Q8", "Tipo impianto": "Altro", "Indirizzo": "LOC.MADONNA DELLE GRAZIE 143 80054", "Nome impianto": "GRAGNANO LOC.MADONNA DELLE GRAZIE 143", "Comune": "GRAGNANO", "idImpianto": 6703, "points": [{"type": "Feature", "properties": {}, "geometry": {"type": "Point", "coordinates": [14.50821713313519, 40.70968946774899]}}], "price": 1.887, "ultima_rilevazione": "18/05/2022 02:37:28"}, {"Gestore": "SERVIZI & GESTIONI ITALIA srl", "Bandiera": "Q8", "Tipo impianto": "Altro", "Indirizzo": "SS 18 LC BAGNI SNC 84018", "Nome impianto": "SCAFATI SS 18 LC BAGNI", "Comune": "SCAFATI", "idImpianto": 6735, "points": [{"type": "Feature", "properties": {}, "geometry": {"type": "Point", "coordinates": [14.547430870534868, 40.7488283369454]}}], "price": 1.919, "ultima_rilevazione": "18/05/2022 02:37:35"}, {"Gestore": "SERVIZI & GESTIONI ITALIA srl", "Bandiera": "Q8", "Tipo impianto": "Altro", "Indirizzo": "VIA S.P.UNGARO SNC 84018", "Nome impianto": "SCAFATI VIA S.P.UNGARO", "Comune": "SCAFATI", "idImpianto": 6738, "points": [{"type": "Feature", "properties": {}, "geometry": {"type": "Point", "coordinates": [14.522836018420094, 40.7591448349824]}}], "price": 1.869, "ultima_rilevazione": "18/05/2022 02:37:35"}, {"Gestore": "SERVIZI & GESTIONI ITALIA S.R.L.", "Bandiera": "Q8", "Tipo impianto": "Altro", "Indirizzo": "VIA DEI PASTAI  ", "Nome impianto": "GRAGNANO VIA DEI PASTAI", "Comune": "GRAGNANO", "idImpianto": 20818, "points": [{"type": "Feature", "properties": {}, "geometry": {"type": "Point", "coordinates": [14.514175396329849, 40.70174512517942]}}], "price": 1.869, "ultima_rilevazione": "18/05/2022 02:37:47"}, {"Gestore": "CAVALLARO S.N.C. DI CAVALLARO FRANCESCO E CAVALLARO MASSIMO", "Bandiera": "Pompe Bianche", "Tipo impianto": "Altro", "Indirizzo": "via sant'antonio abate 86 84018", "Nome impianto": "distributore cavallaro", "Comune": "SCAFATI", "idImpianto": 42182, "points": [{"type": "Feature", "properties": {}, "geometry": {"type": "Point", "coordinates": [14.530619451555252, 40.74301494983108]}}], "price": 1.969, "ultima_rilevazione": "18/05/2022 06:58:47"}, {"Gestore": "SERVIZI & GESTIONI ITALIA srl", "Bandiera": "Q8", "Tipo impianto": "Altro", "Indirizzo": "SS.268 KM.27 IMP.Q8 SNC 80041", "Nome impianto": "BOSCOREALE SS.268 KM.27 IMP.Q8", "Comune": "BOSCOREALE", "idImpianto": 6706, "points": [{"type": "Feature", "properties": {}, "geometry": {"type": "Point", "coordinates": [14.49257675092622, 40.775989040825344]}}], "price": 1.854, "ultima_rilevazione": "18/05/2022 07:09:05"}, {"Gestore": "SERVIZI & GESTIONI ITALIA S.R.L.", "Bandiera": "Q8", "Tipo impianto": "Altro", "Indirizzo": "VIA NAPOLI 298 80053", "Nome impianto": "CASTELLAMMARE DI STABIA-VIA NAPOLI 298", "Comune": "CASTELLAMMARE DI STABIA", "idImpianto": 11740, "points": [{"type": "Feature", "properties": {}, "geometry": {"type": "Point", "coordinates": [14.479706705522515, 40.720025410796254]}}], "price": 1.874, "ultima_rilevazione": "18/05/2022 07:09:07"}, {"Gestore": "SERVIZI & GESTIONI ITALIA S.R.L.", "Bandiera": "Q8", "Tipo impianto": "Altro", "Indirizzo": "VIA MADONNA DELLE GRAZIE 238 80050", "Nome impianto": "SANTA MARIA LA CARITA'-VIA MADONNA DELLE GRAZIE 238", "Comune": "SANTA MARIA LA CARITA'", "idImpianto": 11728, "points": [{"type": "Feature", "properties": {}, "geometry": {"type": "Point", "coordinates": [14.50580728836053, 40.70934676337253]}}], "price": 1.919, "ultima_rilevazione": "18/05/2022 07:09:10"}, {"Gestore": "MI.SA. CARBURANTI S.R.L.", "Bandiera": "Agip Eni", "Tipo impianto": "Altro", "Indirizzo": "VIA DE GASPERI 47 84018", "Nome impianto": "MISA CARBURANTI SRL", "Comune": "SCAFATI", "idImpianto": 43176, "points": [{"type": "Feature", "properties": {}, "geometry": {"type": "Point", "coordinates": [14.52959227423969, 40.75511612456466]}}], "price": 1.914, "ultima_rilevazione": "18/05/2022 07:39:44"}, {"Gestore": "VIN.G S.A.S. DI VICIDOMINI LUCIA", "Bandiera": "Total Erg", "Tipo impianto": "Altro", "Indirizzo": "VIA STABIA SNC, 80057", "Nome impianto": "TOTAL ERG", "Comune": "SANT'ANTONIO ABATE", "idImpianto": 16934, "points": [{"type": "Feature", "properties": {}, "geometry": {"type": "Point", "coordinates": [14.531820682850594, 40.71421398059992]}}], "price": 1.819, "ultima_rilevazione": "18/05/2022 09:44:04"}, {"Gestore": "AR.CI PETROLI SAS DI CIVALE GIUSEPPE & C.", "Bandiera": "Repsol", "Tipo impianto": "Altro", "Indirizzo": "via Cardinal Prisco 83 80042", "Nome impianto": "AR.CI PETROLI SAS DI CIVALE GIUSEPPE & C.", "Comune": "BOSCOTRECASE", "idImpianto": 39975, "points": [{"type": "Feature", "properties": {}, "geometry": {"type": "Point", "coordinates": [14.46732119510648, 40.77272375051156]}}], "price": 1.879, "ultima_rilevazione": "18/05/2022 13:38:06"}, {"Gestore": "MASCOLO FRANCESCO", "Bandiera": "Agip Eni", "Tipo impianto": "Altro", "Indirizzo": "via scafati  80057", "Nome impianto": "Francesco Mascolo", "Comune": "SANT'ANTONIO ABATE", "idImpianto": 7854, "points": [{"type": "Feature", "properties": {}, "geometry": {"type": "Point", "coordinates": [14.539611649212702, 40.72706461128277]}}], "price": 1.919, "ultima_rilevazione": "18/05/2022 14:29:36"}, {"Gestore": "LETTIERI LUIGI", "Bandiera": "Pompe Bianche", "Tipo impianto": "Altro", "Indirizzo": "via nazionale  80042", "Nome impianto": "Energas", "Comune": "BOSCOTRECASE", "idImpianto": 31992, "points": [{"type": "Feature", "properties": {}, "geometry": {"type": "Point", "coordinates": [14.466066509485245, 40.7689204763078]}}], "price": 1.899, "ultima_rilevazione": "18/05/2022 15:07:31"}, {"Gestore": "IP SERVICES S.R.L.", "Bandiera": "Api-Ip", "Tipo impianto": "Altro", "Indirizzo": "VIA VENETO 114 80058", "Nome impianto": "TORRE ANNUNZIATA - VENETO", "Comune": "TORRE ANNUNZIATA", "idImpianto": 29700, "points": [{"type": "Feature", "properties": {}, "geometry": {"type": "Point", "coordinates": [14.461535626983618, 40.75435936372418]}}], "price": 1.899, "ultima_rilevazione": "18/05/2022 16:01:42"}], "5": [{"Gestore": "MANNA DI MASCOLO LUIGI E ANNARUMMA ALESSANDRO & C. S.N.C.", "Bandiera": "Agip Eni", "Tipo impianto": "Altro", "Indirizzo": "VIA ADRIANA 7 84012", "Nome impianto": "MANNA PETROLI", "Comune": "ANGRI", "idImpianto": 47739, "points": [{"type": "Feature", "properties": {}, "geometry": {"type": "Point", "coordinates": [14.577712763537724, 40.736205840818]}}], "price": 1.819, "ultima_rilevazione": "11/05/2022 09:16:40"}, {"Gestore": "GALASSO GIUSEPPINA", "Bandiera": "Pompe Bianche", "Tipo impianto": "Altro", "Indirizzo": "VIA NUOVA SAN MARZANO 98 80040", "Nome impianto": "GALASSO GIUSEPPINA", "Comune": "POGGIOMARINO", "idImpianto": 22356, "points": [{"type": "Feature", "properties": {}, "geometry": {"type": "Point", "coordinates": [14.545705318450814, 40.79643830714438]}}], "price": 1.859, "ultima_rilevazione": "12/05/2022 17:33:02"}, {"Gestore": "ROCAL S.R.L.", "Bandiera": "Pompe Bianche", "Tipo impianto": "Altro", "Indirizzo": "VIA SALICE 30 84012", "Nome impianto": "FERRI FUEL", "Comune": "ANGRI", "idImpianto": 45470, "points": [{"type": "Feature", "properties": {}, "geometry": {"type": "Point", "coordinates": [14.555597621551556, 40.74340303566079]}}], "price": 1.839, "ultima_rilevazione": "13/05/2022 09:58:46"}, {"Gestore": "TORTORA FILIPPO", "Bandiera": "Pompe Bianche", "Tipo impianto": "Altro", "Indirizzo": "VIALE PAPA GIOVANNI XXIII 145 84012", "Nome impianto": "ANGELINA PETROLI", "Comune": "ANGRI", "idImpianto": 32242, "points": [{"type": "Feature", "properties": {}, "geometry": {"type": "Point", "coordinates": [14.56538276580227, 40.74103632577491]}}], "price": 1.849, "ultima_rilevazione": "13/05/2022 17:58:17"}, {"Gestore": "PADOVANO LUIGI", "Bandiera": "Esso", "Tipo impianto": "Altro", "Indirizzo": "VIA DEI GOTI 87 84012", "Nome impianto": "PADOVANO LUIGI", "Comune": "ANGRI", "idImpianto": 45211, "points": [{"type": "Feature", "properties": {}, "geometry": {"type": "Point", "coordinates": [14.569725000123, 40.734039000123]}}], "price": 1.839, "ultima_rilevazione": "14/05/2022 13:37:41"}, {"Gestore": "POMPEANGAS - S.A.S. DI ALLEGRO CATELLO & C.", "Bandiera": "Pompe Bianche", "Tipo impianto": "Altro", "Indirizzo": "VIA SALICE 157 84012", "Nome impianto": "BREAK ZONE  - POMPEANGAS", "Comune": "ANGRI", "idImpianto": 16158, "points": [{"type": "Feature", "properties": {}, "geometry": {"type": "Point", "coordinates": [14.56152766942978, 40.74097687632511]}}], "price": 1.86, "ultima_rilevazione": "16/05/2022 09:19:04"}, {"Gestore": "ANSOR DI CARMELA CELOTTO & C. S.N.C.", "Bandiera": "Pompe Bianche", "Tipo impianto": "Altro", "Indirizzo": "C.so Umberto I 248 80059", "Nome impianto": "Ansor snc di Celotto Carmela & c", "Comune": "TORRE ANNUNZIATA", "idImpianto": 21618, "points": [{"type": "Feature", "properties": {}, "geometry": {"type": "Point", "coordinates": [14.432402774691582, 40.76035496018247]}}], "price": 1.859, "ultima_rilevazione": "16/05/2022 10:48:19"}, {"Gestore": "SALVO PETROLI S.A.S. DI PANARIELLO TERESA & C.", "Bandiera": "Pompe Bianche", "Tipo impianto": "Altro", "Indirizzo": "VIA PASSANTI FLOCCO snc  80040", "Nome impianto": "AR PETROLI pv2", "Comune": "POGGIOMARINO", "idImpianto": 46538, "points": [{"type": "Feature", "properties": {}, "geometry": {"type": "Point", "coordinates": [14.527478, 40.79289]}}], "price": 1.867, "ultima_rilevazione": "16/05/2022 15:48:17"}, {"Gestore": "TOP GOMME DI ALFANO FRANCESCO", "Bandiera": "Pompe Bianche", "Tipo impianto": "Altro", "Indirizzo": "via murelle 57 84012", "Nome impianto": "staroil", "Comune": "ANGRI", "idImpianto": 32268, "points": [{"type": "Feature", "properties": {}, "geometry": {"type": "Point", "coordinates": [14.572852095530491, 40.736616335057086]}}], "price": 1.839, "ultima_rilevazione": "16/05/2022 18:36:52"}, {"Gestore": "PAKO CARBURANTI S.R.L.", "Bandiera": "Pompe Bianche", "Tipo impianto": "Altro", "Indirizzo": "VIA MARRA 175 80041", "Nome impianto": "PAKO CARBURANTI", "Comune": "BOSCOREALE", "idImpianto": 47980, "points": [{"type": "Feature", "properties": {}, "geometry": {"type": "Point", "coordinates": [14.546382294477445, 40.78290918565107]}}], "price": 1.899, "ultima_rilevazione": "16/05/2022 20:01:26"}, {"Gestore": "PETROLCHIMICA SUD - S.R.L.", "Bandiera": "Pompe Bianche", "Tipo impianto": "Altro", "Indirizzo": "VIA CAMPIA SNC 84013", "Nome impianto": "ANGRI", "Comune": "ANGRI", "idImpianto": 35638, "points": [{"type": "Feature", "properties": {}, "geometry": {"type": "Point", "coordinates": [14.561990350484848, 40.73931612267616]}}], "price": 1.829, "ultima_rilevazione": "17/05/2022 10:42:08"}, {"Gestore": "COTICELLI SEBASTIANO", "Bandiera": "Tamoil", "Tipo impianto": "Strada Statale", "Indirizzo": "Statale 366 di Agerola, Km. 27.915, dir. amalfi 80054", "Nome impianto": "TAMOIL", "Comune": "GRAGNANO", "idImpianto": 17861, "points": [{"type": "Feature", "properties": {}, "geometry": {"type": "Point", "coordinates": [14.513602491882466, 40.68983172473408]}}], "price": 1.906, "ultima_rilevazione": "17/05/2022 11:26:42"}, {"Gestore": "SERVIZI & GESTIONI ITALIA srl", "Bandiera": "Q8", "Tipo impianto": "Altro", "Indirizzo": "VIA S.P.21 KM 2 SNC 84018", "Nome impianto": "SCAFATI VIA S.P.21 KM 2", "Comune": "SCAFATI", "idImpianto": 6739, "points": [{"type": "Feature", "properties": {}, "geometry": {"type": "Point", "coordinates": [14.54173958283809, 40.77428223475604]}}], "price": 1.899, "ultima_rilevazione": "18/05/2022 02:37:36"}, {"Gestore": "MENNELLA SALVATORE", "Bandiera": "Agip Eni", "Tipo impianto": "Altro", "Indirizzo": "LARGO LEOPARDI SNC 80059", "Nome impianto": "Eni SALVATORE MENNELLA", "Comune": "TORRE DEL GRECO", "idImpianto": 44388, "points": [{"type": "Feature", "properties": {}, "geometry": {"type": "Point", "coordinates": [14.417236000123, 40.765047000123]}}], "price": 1.919, "ultima_rilevazione": "18/05/2022 07:01:15"}, {"Gestore": "G. V. CARBURANTI S.A.S. DI CIARAVOLO MARIAROSARIA & C.", "Bandiera": "Esso", "Tipo impianto": "Altro", "Indirizzo": "Via Castellammare 120 80054", "Nome impianto": "Stazione Esso Gragnano", "Comune": "GRAGNANO", "idImpianto": 43246, "points": [{"type": "Feature", "properties": {}, "geometry": {"type": "Point", "coordinates": [14.505942105522536, 40.69418763269579]}}], "price": 1.849, "ultima_rilevazione": "18/05/2022 07:24:55"}, {"Gestore": "UP S.R.L.S.", "Bandiera": "UP", "Tipo impianto": "Altro", "Indirizzo": "VIA PIANO DEL PRINCIPE SNC 84040", "Nome impianto": "UP - POGGIOMARINO", "Comune": "POGGIOMARINO", "idImpianto": 46677, "points": [{"type": "Feature", "properties": {}, "geometry": {"type": "Point", "coordinates": [14.52587693044461, 40.80285799456114]}}], "price": 1.819, "ultima_rilevazione": "18/05/2022 13:26:57"}, {"Gestore": "OPLONTI FUEL S.A.S. DI OLIVIERO LUCIA", "Bandiera": "Agip Eni", "Tipo impianto": "Altro", "Indirizzo": "CORSO UMBERTO I 254 80058", "Nome impianto": "ENI", "Comune": "TORRE ANNUNZIATA", "idImpianto": 42939, "points": [{"type": "Feature", "properties": {}, "geometry": {"type": "Point", "coordinates": [14.43119745767217, 40.76070415810329]}}], "price": 1.919, "ultima_rilevazione": "18/05/2022 15:49:21"}, {"Gestore": "F.A.S. PETROLI S.A.S. DI SALVATORE FRANCO", "Bandiera": "Tamoil", "Tipo impianto": "Altro", "Indirizzo": "Via papa giovanni23 18 84012", "Nome impianto": "Distributore tamoil", "Comune": "ANGRI", "idImpianto": 42932, "points": [{"type": "Feature", "properties": {}, "geometry": {"type": "Point", "coordinates": [14.566300069940551, 40.73623133987071]}}], "price": 1.899, "ultima_rilevazione": "19/05/2022 05:56:06"}]}, "Gasolio": {"1": [{"Gestore": "CHIACCHIERA FRANCESCO", "Bandiera": "Agip Eni", "Tipo impianto": "Altro", "Indirizzo": "VIA VITTORIO VENETO 2 80058", "Nome impianto": "ENI spa", "Comune": "TORRE ANNUNZIATA", "idImpianto": 46634, "points": [{"type": "Feature", "properties": {}, "geometry": {"type": "Point", "coordinates": [14.465613216161728, 40.75009524376741]}}], "price": 2.184, "ultima_rilevazione": "18/05/2022 05:53:44"}, {"Gestore": "FRATELLI LONGOBARDI DI DEL GAUDIO NUNZIA & C. S.N.C.", "Bandiera": "Pompe Bianche", "Tipo impianto": "Altro", "Indirizzo": "VIA FONTANELLE 249 80045", "Nome impianto": "FRATELLI LONGOBARDI", "Comune": "POMPEI", "idImpianto": 33882, "points": [{"type": "Feature", "properties": {}, "geometry": {"type": "Point", "coordinates": [14.497255235910416, 40.723622169200425]}}], "price": 1.859, "ultima_rilevazione": "05/05/2022 11:33:34"}, {"Gestore": "SAVINELLI CARBURANTI S.A.S. DI MARCO SAVINELLI & C.", "Bandiera": "Esso", "Tipo impianto": "Autostradale", "Indirizzo": "A3 NAPOLI-SALERNO, Km. 20, sud 80058", "Nome impianto": "TORRE ANNUNZIATA OVEST", "Comune": "TORRE ANNUNZIATA", "idImpianto": 41777, "points": [{"type": "Feature", "properties": {}, "geometry": {"type": "Point", "coordinates": [14.472215473651886, 40.75156676184485]}}], "price": 1.919, "ultima_rilevazione": "10/05/2022 15:10:42"}, {"Gestore": "CASCONE CARBURANTI DI CINZIA SPINELLI S.A.S.", "Bandiera": "Q8", "Tipo impianto": "Altro", "Indirizzo": "STRADA PONTE DELLA PERSICA 100 80053", "Nome impianto": "Q8", "Comune": "CASTELLAMMARE DI STABIA", "idImpianto": 9595, "points": [{"type": "Feature", "properties": {}, "geometry": {"type": "Point", "coordinates": [14.485897421836851, 40.73187189266499]}}], "price": 1.799, "ultima_rilevazione": "11/05/2022 12:26:11"}, {"Gestore": "MERIDIONAL G.P.L. - S.R.L.", "Bandiera": "Pompe Bianche", "Tipo impianto": "Altro", "Indirizzo": "VIA SPINELLI 22 80045", "Nome impianto": "Meridional Gpl srl", "Comune": "POMPEI", "idImpianto": 9615, "points": [{"type": "Feature", "properties": {}, "geometry": {"type": "Point", "coordinates": [14.504981338977814, 40.76913387129056]}}], "price": 1.819, "ultima_rilevazione": "13/05/2022 10:14:19"}, {"Gestore": "SA.MO. PETROLI DI SALVATORE MOSCA", "Bandiera": "Pompe Bianche", "Tipo impianto": "Altro", "Indirizzo": "via ripuaria 75 80045", "Nome impianto": "m petroli", "Comune": "POMPEI", "idImpianto": 33087, "points": [{"type": "Feature", "properties": {}, "geometry": {"type": "Point", "coordinates": [14.499395071094568, 40.73940683796222]}}], "price": 1.865, "ultima_rilevazione": "13/05/2022 20:12:44"}, {"Gestore": "DELTA PETROLI S.R.L.", "Bandiera": "Api-Ip", "Tipo impianto": "Altro", "Indirizzo": "Via Tre Ponti snc 80045", "Nome impianto": "Delta Petroli S.r.l. (Pompei)", "Comune": "POMPEI", "idImpianto": 32071, "points": [{"type": "Feature", "properties": {}, "geometry": {"type": "Point", "coordinates": [14.506644308567047, 40.76120620819259]}}], "price": 1.782, "ultima_rilevazione": "14/05/2022 10:11:12"}, {"Gestore": "ANSOR DI CARMELA CELOTTO & C. S.N.C.", "Bandiera": "Pompe Bianche", "Tipo impianto": "Altro", "Indirizzo": "Via Vigna Sant'Antonio 18 80058", "Nome impianto": "Ansor snc ", "Comune": "TORRE ANNUNZIATA", "idImpianto": 23362, "points": [{"type": "Feature", "properties": {}, "geometry": {"type": "Point", "coordinates": [14.476697444915771, 40.7473041058179]}}], "price": 1.849, "ultima_rilevazione": "16/05/2022 10:52:56"}, {"Gestore": "AFIERO MICHELE", "Bandiera": "Loro", "Tipo impianto": "Altro", "Indirizzo": "VIA MARTIRI D'UNGHERIA 101 84018", "Nome impianto": "AFIERO MICHELE", "Comune": "SCAFATI", "idImpianto": 40883, "points": [{"type": "Feature", "properties": {}, "geometry": {"type": "Point", "coordinates": [14.52107514283989, 40.75196803180263]}}], "price": 1.772, "ultima_rilevazione": "16/05/2022 10:54:30"}, {"Gestore": "VELAR S.R.L.", "Bandiera": "Oceania", "Tipo impianto": "Altro", "Indirizzo": "VIA BOTTARO SNC 80058", "Nome impianto": "OCEANIA (TORRE)", "Comune": "TORRE ANNUNZIATA", "idImpianto": 46731, "points": [{"type": "Feature", "properties": {}, "geometry": {"type": "Point", "coordinates": [14.473502292261742, 40.7453950371418]}}], "price": 1.799, "ultima_rilevazione": "16/05/2022 22:28:47"}, {"Gestore": "SERVIZI & GESTIONI ITALIA S.R.L.", "Bandiera": "Q8", "Tipo impianto": "Altro", "Indirizzo": "S.S. 18 KM 24+623  80045", "Nome impianto": "POMPEI S.S. 18 KM 24+623", "Comune": "POMPEI", "idImpianto": 23138, "points": [{"type": "Feature", "properties": {}, "geometry": {"type": "Point", "coordinates": [14.49668714313043, 40.74617638697647]}}], "price": 1.804, "ultima_rilevazione": "18/05/2022 02:37:27"}, {"Gestore": "FEDERICO GIOVANNI", "Bandiera": "Energas", "Tipo impianto": "Altro", "Indirizzo": "VIA SETTETERMINI 14/18 80041", "Nome impianto": "Energas", "Comune": "BOSCOREALE", "idImpianto": 42635, "points": [{"type": "Feature", "properties": {}, "geometry": {"type": "Point", "coordinates": [14.471814588993766, 40.75835307443105]}}], "price": 1.899, "ultima_rilevazione": "18/05/2022 07:33:38"}, {"Gestore": "SANTA MARIA CARBURANTI S.R.L.", "Bandiera": "Pompe Bianche", "Tipo impianto": "Altro", "Indirizzo": "VIA CARRARA SNC 80050", "Nome impianto": "SANTA MARIA CARBURANTI SRL", "Comune": "SANTA MARIA LA CARITA'", "idImpianto": 47407, "points": [{"type": "Feature", "properties": {}, "geometry": {"type": "Point", "coordinates": [14.510791003704073, 40.73084384549661]}}], "price": 1.798, "ultima_rilevazione": "18/05/2022 09:16:15"}, {"Gestore": "LA MURA GROUP S.R.L.", "Bandiera": "Total Erg", "Tipo impianto": "Altro", "Indirizzo": "VIA SCAFATI 283 80050", "Nome impianto": "La Mura Group", "Comune": "SANTA MARIA LA CARITA'", "idImpianto": 27269, "points": [{"type": "Feature", "properties": {}, "geometry": {"type": "Point", "coordinates": [14.514097782208978, 40.73094364975582]}}], "price": 1.799, "ultima_rilevazione": "18/05/2022 11:22:12"}, {"Gestore": "BORRELLI SALVATORE", "Bandiera": "Pompe Bianche", "Tipo impianto": "Altro", "Indirizzo": "VIA VITTORIO VENETO 94/B", "Nome impianto": "BORRELLI SALVATORE", "Comune": "TORRE ANNUNZIATA", "idImpianto": 17557, "points": [{"type": "Feature", "properties": {}, "geometry": {"type": "Point", "coordinates": [14.462860591757249, 40.753032252449216]}}], "price": 1.899, "ultima_rilevazione": "18/05/2022 12:19:45"}, {"Gestore": "VINCENZO CASCONE S.R.L.", "Bandiera": "Pompe Bianche", "Tipo impianto": "Altro", "Indirizzo": "VIA SCAFATI 223 80050", "Nome impianto": "STAZIONE DI SERVIZIO CASCONE", "Comune": "SANTA MARIA LA CARITA'", "idImpianto": 40789, "points": [{"type": "Feature", "properties": {}, "geometry": {"type": "Point", "coordinates": [14.513311487102555, 40.72861658682665]}}], "price": 1.829, "ultima_rilevazione": "18/05/2022 13:47:15"}, {"Gestore": "AREA FELIX S.A.S. DI AMITRANO POLISTO", "Bandiera": "Api-Ip", "Tipo impianto": "Altro", "Indirizzo": "VIA PLINIO 101 80045", "Nome impianto": "IP Area Felix", "Comune": "POMPEI", "idImpianto": 42083, "points": [{"type": "Feature", "properties": {}, "geometry": {"type": "Point", "coordinates": [14.486825459215993, 40.74677174655304]}}], "price": 1.829, "ultima_rilevazione": "18/05/2022 15:41:56"}, {"Gestore": "2 G PETROLI S.R.L. SEMPLIFICATA", "Bandiera": "Pompe Bianche", "Tipo impianto": "Altro", "Indirizzo": "VIA G.B. CASCIELLO SNC 84018", "Nome impianto": "Eurogas", "Comune": "SCAFATI", "idImpianto": 46282, "points": [{"type": "Feature", "properties": {}, "geometry": {"type": "Point", "coordinates": [14.519029453570738, 40.76145869786863]}}], "price": 1.795, "ultima_rilevazione": "18/05/2022 16:07:39"}, {"Gestore": "ORGANIZZAZIONE SERVIZI AUTO - O.S.A. - S.P.A.", "Bandiera": "Esso", "Tipo impianto": "Altro", "Indirizzo": "VIA PASSANTI 267 84018", "Nome impianto": "ESSO SCAFATI", "Comune": "SCAFATI", "idImpianto": 50249, "points": [{"type": "Feature", "properties": {}, "geometry": {"type": "Point", "coordinates": [14.517707887191804, 40.76596745019975]}}], "price": 1.779, "ultima_rilevazione": "18/05/2022 16:08:49"}, {"Gestore": "ALIBERTI VITTORIO", "Bandiera": "Tamoil", "Tipo impianto": "Altro", "Indirizzo": "VIA LEPANTO 287 80045", "Nome impianto": "TAMOIL DI ALIBERTI VITTORIO", "Comune": "POMPEI", "idImpianto": 29276, "points": [{"type": "Feature", "properties": {}, "geometry": {"type": "Point", "coordinates": [14.511073976755142, 40.74999486560387]}}], "price": 1.798, "ultima_rilevazione": "18/05/2022 17:06:15"}, {"Gestore": "ALIBERTI VITTORIO", "Bandiera": "Tamoil", "Tipo impianto": "Altro", "Indirizzo": "VIA PASSANTI  107 80041", "Nome impianto": "TAMOIL DI ALIBERTI VITTORIO 4588", "Comune": "BOSCOREALE", "idImpianto": 12642, "points": [{"type": "Feature", "properties": {}, "geometry": {"type": "Point", "coordinates": [14.498139023780825, 40.77694806456933]}}], "price": 1.799, "ultima_rilevazione": "19/05/2022 07:06:11"}], "3": [{"Gestore": "EUROPA SERVICE SOCIETA' A RESPONSABILITA' LIMITATA", "Bandiera": "Q8", "Tipo impianto": "Altro", "Indirizzo": "viale europa 154 80053", "Nome impianto": "Q8 Europa Service", "Comune": "CASTELLAMMARE DI STABIA", "idImpianto": 43882, "points": [{"type": "Feature", "properties": {}, "geometry": {"type": "Point", "coordinates": [14.489071915344198, 40.70126796656399]}}], "price": 1.689, "ultima_rilevazione": "21/01/2022 08:22:32"}, {"Gestore": "CARBURANTE DI CASCONE NICOLA", "Bandiera": "Esso", "Tipo impianto": "Altro", "Indirizzo": "VIA DANTE ALIGHIERI 27 84018", "Nome impianto": "CARBURANTE DI CASCONE NICOLA", "Comune": "SCAFATI", "idImpianto": 45066, "points": [{"type": "Feature", "properties": {}, "geometry": {"type": "Point", "coordinates": [14.534445000123, 40.749389000123]}}], "price": 1.839, "ultima_rilevazione": "11/05/2022 08:31:58"}, {"Gestore": "SUMMA OIL SRL", "Bandiera": "Tamoil", "Tipo impianto": "Altro", "Indirizzo": "Via Provinciale Santa Maria la Carit\u00e0 snc 80057", "Nome impianto": "Summa Oil srl", "Comune": "SANT'ANTONIO ABATE", "idImpianto": 39043, "points": [{"type": "Feature", "properties": {}, "geometry": {"type": "Point", "coordinates": [14.532002583146095, 40.72025066060659]}}], "price": 1.875, "ultima_rilevazione": "12/05/2022 07:01:40"}, {"Gestore": "LA SUPREMA  - S.R.L.", "Bandiera": "Pompe Bianche", "Tipo impianto": "Altro", "Indirizzo": "VIA DEI GOTI 298 84012", "Nome impianto": "la suprema srl", "Comune": "ANGRI", "idImpianto": 42745, "points": [{"type": "Feature", "properties": {}, "geometry": {"type": "Point", "coordinates": [14.55362076686481, 40.72930309774013]}}], "price": 1.79, "ultima_rilevazione": "13/05/2022 06:57:01"}, {"Gestore": "COZZOLINO S.A.S. DI COZZOLINO LUIGI & C.", "Bandiera": "Api-Ip", "Tipo impianto": "Altro", "Indirizzo": "capitano g. rea   99 80040", "Nome impianto": "Cozzolino s.a.s.", "Comune": "TRECASE", "idImpianto": 41703, "points": [{"type": "Feature", "properties": {}, "geometry": {"type": "Point", "coordinates": [14.448880687310748, 40.77164441469695]}}], "price": 1.829, "ultima_rilevazione": "13/05/2022 07:31:35"}, {"Gestore": "ERBETTI ANTIMO", "Bandiera": "Api-Ip", "Tipo impianto": "Altro", "Indirizzo": "VIA SEPOLCRI S.N. 80042", "Nome impianto": "TOTALERG", "Comune": "BOSCOTRECASE", "idImpianto": 42809, "points": [{"type": "Feature", "properties": {}, "geometry": {"type": "Point", "coordinates": [14.455216974020004, 40.762702468546806]}}], "price": 1.829, "ultima_rilevazione": "13/05/2022 22:52:45"}, {"Gestore": "AUTOSTAZIONE CARPENTIERI FILIPPO", "Bandiera": "Loro", "Tipo impianto": "Altro", "Indirizzo": "VIA VITTORIO VENETO 360 80058", "Nome impianto": "mercato libero", "Comune": "TORRE ANNUNZIATA", "idImpianto": 44061, "points": [{"type": "Feature", "properties": {}, "geometry": {"type": "Point", "coordinates": [14.452028495084278, 40.75903786248801]}}], "price": 1.829, "ultima_rilevazione": "14/05/2022 07:21:20"}, {"Gestore": "DI PALMA GIUSEPPE VINCENZO", "Bandiera": "Tamoil", "Tipo impianto": "Altro", "Indirizzo": "VIA PASSANTI FLOCCO 262 80041", "Nome impianto": "TAMOIL DI DI PALMA GIUSEPPE VINCENZO", "Comune": "BOSCOREALE", "idImpianto": 14102, "points": [{"type": "Feature", "properties": {}, "geometry": {"type": "Point", "coordinates": [14.510054738928602, 40.783947231763015]}}], "price": 1.889, "ultima_rilevazione": "15/05/2022 12:45:26"}, {"Gestore": "G.P. CARBURANTI S.R.L.", "Bandiera": "Pompe Bianche", "Tipo impianto": "Altro", "Indirizzo": "Via A. De Gasperi 55 80053", "Nome impianto": "Atala Oil", "Comune": "CASTELLAMMARE DI STABIA", "idImpianto": 45205, "points": [{"type": "Feature", "properties": {}, "geometry": {"type": "Point", "coordinates": [14.483062982447109, 40.70279398192256]}}], "price": 1.899, "ultima_rilevazione": "16/05/2022 13:23:03"}, {"Gestore": "POLIMENO CARLO", "Bandiera": "Api-Ip", "Tipo impianto": "Altro", "Indirizzo": "VIA TENENTE LUIGI ROSSI 45 80042", "Nome impianto": "Api Ip", "Comune": "BOSCOTRECASE", "idImpianto": 40335, "points": [{"type": "Feature", "properties": {}, "geometry": {"type": "Point", "coordinates": [14.459966760747877, 40.76970186414686]}}], "price": 1.788, "ultima_rilevazione": "16/05/2022 15:33:46"}, {"Gestore": "G.B.L. SAS DI BUONO VINCENZO & C.", "Bandiera": "Api-Ip", "Tipo impianto": "Altro", "Indirizzo": "Nazionale Passanti 244 80040", "Nome impianto": "Stazione di servizio F.ll.i Buono", "Comune": "TERZIGNO", "idImpianto": 40678, "points": [{"type": "Feature", "properties": {}, "geometry": {"type": "Point", "coordinates": [14.487735740840437, 40.7753915960935]}}], "price": 1.839, "ultima_rilevazione": "16/05/2022 19:16:54"}, {"Gestore": "CA.VER. S.N.C. DI CACCIOPPOLI MAURIZIO E GIANLUCA", "Bandiera": "Agip Eni", "Tipo impianto": "Altro", "Indirizzo": "VIALE EUROPA 87 80053", "Nome impianto": "ENI", "Comune": "CASTELLAMMARE DI STABIA", "idImpianto": 32472, "points": [{"type": "Feature", "properties": {}, "geometry": {"type": "Point", "coordinates": [14.489392057717168, 40.70175169323834]}}], "price": 1.829, "ultima_rilevazione": "17/05/2022 07:22:38"}, {"Gestore": "LE SPOSE DI BIANCA DI ANNARUMMA BIANCA", "Bandiera": "Pompe Bianche", "Tipo impianto": "Altro", "Indirizzo": "VIA PALUDICELLA 30A 84012", "Nome impianto": "VISCARDI CARBURANTI METANO GPL", "Comune": "ANGRI", "idImpianto": 42811, "points": [{"type": "Feature", "properties": {}, "geometry": {"type": "Point", "coordinates": [14.548700884665209, 40.72987052231823]}}], "price": 1.899, "ultima_rilevazione": "17/05/2022 08:37:34"}, {"Gestore": "SERVIZI & GESTIONI ITALIA srl", "Bandiera": "Q8", "Tipo impianto": "Altro", "Indirizzo": "LOC.MADONNA DELLE GRAZIE 143 80054", "Nome impianto": "GRAGNANO LOC.MADONNA DELLE GRAZIE 143", "Comune": "GRAGNANO", "idImpianto": 6703, "points": [{"type": "Feature", "properties": {}, "geometry": {"type": "Point", "coordinates": [14.50821713313519, 40.70968946774899]}}], "price": 1.799, "ultima_rilevazione": "18/05/2022 02:37:28"}, {"Gestore": "SERVIZI & GESTIONI ITALIA srl", "Bandiera": "Q8", "Tipo impianto": "Altro", "Indirizzo": "SS 18 LC BAGNI SNC 84018", "Nome impianto": "SCAFATI SS 18 LC BAGNI", "Comune": "SCAFATI", "idImpianto": 6735, "points": [{"type": "Feature", "properties": {}, "geometry": {"type": "Point", "coordinates": [14.547430870534868, 40.7488283369454]}}], "price": 1.819, "ultima_rilevazione": "18/05/2022 02:37:35"}, {"Gestore": "SERVIZI & GESTIONI ITALIA srl", "Bandiera": "Q8", "Tipo impianto": "Altro", "Indirizzo": "VIA S.P.UNGARO SNC 84018", "Nome impianto": "SCAFATI VIA S.P.UNGARO", "Comune": "SCAFATI", "idImpianto": 6738, "points": [{"type": "Feature", "properties": {}, "geometry": {"type": "Point", "coordinates": [14.522836018420094, 40.7591448349824]}}], "price": 1.789, "ultima_rilevazione": "18/05/2022 02:37:35"}, {"Gestore": "SERVIZI & GESTIONI ITALIA S.R.L.", "Bandiera": "Q8", "Tipo impianto": "Altro", "Indirizzo": "VIA DEI PASTAI  ", "Nome impianto": "GRAGNANO VIA DEI PASTAI", "Comune": "GRAGNANO", "idImpianto": 20818, "points": [{"type": "Feature", "properties": {}, "geometry": {"type": "Point", "coordinates": [14.514175396329849, 40.70174512517942]}}], "price": 1.799, "ultima_rilevazione": "18/05/2022 02:37:47"}, {"Gestore": "CAVALLARO S.N.C. DI CAVALLARO FRANCESCO E CAVALLARO MASSIMO", "Bandiera": "Pompe Bianche", "Tipo impianto": "Altro", "Indirizzo": "via sant'antonio abate 86 84018", "Nome impianto": "distributore cavallaro", "Comune": "SCAFATI", "idImpianto": 42182, "points": [{"type": "Feature", "properties": {}, "geometry": {"type": "Point", "coordinates": [14.530619451555252, 40.74301494983108]}}], "price": 1.789, "ultima_rilevazione": "18/05/2022 06:58:47"}, {"Gestore": "SERVIZI & GESTIONI ITALIA srl", "Bandiera": "Q8", "Tipo impianto": "Altro", "Indirizzo": "SS.268 KM.27 IMP.Q8 SNC 80041", "Nome impianto": "BOSCOREALE SS.268 KM.27 IMP.Q8", "Comune": "BOSCOREALE", "idImpianto": 6706, "points": [{"type": "Feature", "properties": {}, "geometry": {"type": "Point", "coordinates": [14.49257675092622, 40.775989040825344]}}], "price": 1.799, "ultima_rilevazione": "18/05/2022 07:09:05"}, {"Gestore": "SERVIZI & GESTIONI ITALIA S.R.L.", "Bandiera": "Q8", "Tipo impianto": "Altro", "Indirizzo": "VIA NAPOLI 298 80053", "Nome impianto": "CASTELLAMMARE DI STABIA-VIA NAPOLI 298", "Comune": "CASTELLAMMARE DI STABIA", "idImpianto": 11740, "points": [{"type": "Feature", "properties": {}, "geometry": {"type": "Point", "coordinates": [14.479706705522515, 40.720025410796254]}}], "price": 1.804, "ultima_rilevazione": "18/05/2022 07:09:07"}, {"Gestore": "SERVIZI & GESTIONI ITALIA S.R.L.", "Bandiera": "Q8", "Tipo impianto": "Altro", "Indirizzo": "VIA MADONNA DELLE GRAZIE 238 80050", "Nome impianto": "SANTA MARIA LA CARITA'-VIA MADONNA DELLE GRAZIE 238", "Comune": "SANTA MARIA LA CARITA'", "idImpianto": 11728, "points": [{"type": "Feature", "properties": {}, "geometry": {"type": "Point", "coordinates": [14.50580728836053, 40.70934676337253]}}], "price": 1.849, "ultima_rilevazione": "18/05/2022 07:09:10"}, {"Gestore": "MI.SA. CARBURANTI S.R.L.", "Bandiera": "Agip Eni", "Tipo impianto": "Altro", "Indirizzo": "VIA DE GASPERI 47 84018", "Nome impianto": "MISA CARBURANTI SRL", "Comune": "SCAFATI", "idImpianto": 43176, "points": [{"type": "Feature", "properties": {}, "geometry": {"type": "Point", "coordinates": [14.52959227423969, 40.75511612456466]}}], "price": 1.824, "ultima_rilevazione": "18/05/2022 07:39:44"}, {"Gestore": "VIN.G S.A.S. DI VICIDOMINI LUCIA", "Bandiera": "Total Erg", "Tipo impianto": "Altro", "Indirizzo": "VIA STABIA SNC, 80057", "Nome impianto": "TOTAL ERG", "Comune": "SANT'ANTONIO ABATE", "idImpianto": 16934, "points": [{"type": "Feature", "properties": {}, "geometry": {"type": "Point", "coordinates": [14.531820682850594, 40.71421398059992]}}], "price": 1.799, "ultima_rilevazione": "18/05/2022 09:44:04"}, {"Gestore": "IP SERVICES S.R.L.", "Bandiera": "Api-Ip", "Tipo impianto": "Altro", "Indirizzo": "VIA VENETO 114 80058", "Nome impianto": "TORRE ANNUNZIATA - VENETO", "Comune": "TORRE ANNUNZIATA", "idImpianto": 29700, "points": [{"type": "Feature", "properties": {}, "geometry": {"type": "Point", "coordinates": [14.461535626983618, 40.75435936372418]}}], "price": 1.819, "ultima_rilevazione": "18/05/2022 16:01:42"}, {"Gestore": "AR.CI PETROLI SAS DI CIVALE GIUSEPPE & C.", "Bandiera": "Repsol", "Tipo impianto": "Altro", "Indirizzo": "via Cardinal Prisco 83 80042", "Nome impianto": "AR.CI PETROLI SAS DI CIVALE GIUSEPPE & C.", "Comune": "BOSCOTRECASE", "idImpianto": 39975, "points": [{"type": "Feature", "properties": {}, "geometry": {"type": "Point", "coordinates": [14.46732119510648, 40.77272375051156]}}], "price": 1.799, "ultima_rilevazione": "18/05/2022 13:38:06"}, {"Gestore": "MASCOLO FRANCESCO", "Bandiera": "Agip Eni", "Tipo impianto": "Altro", "Indirizzo": "via scafati  80057", "Nome impianto": "Francesco Mascolo", "Comune": "SANT'ANTONIO ABATE", "idImpianto": 7854, "points": [{"type": "Feature", "properties": {}, "geometry": {"type": "Point", "coordinates": [14.539611649212702, 40.72706461128277]}}], "price": 1.829, "ultima_rilevazione": "18/05/2022 14:29:36"}, {"Gestore": "LETTIERI LUIGI", "Bandiera": "Pompe Bianche", "Tipo impianto": "Altro", "Indirizzo": "via nazionale  80042", "Nome impianto": "Energas", "Comune": "BOSCOTRECASE", "idImpianto": 31992, "points": [{"type": "Feature", "properties": {}, "geometry": {"type": "Point", "coordinates": [14.466066509485245, 40.7689204763078]}}], "price": 1.809, "ultima_rilevazione": "18/05/2022 15:07:31"}], "5": [{"Gestore": "MANNA DI MASCOLO LUIGI E ANNARUMMA ALESSANDRO & C. S.N.C.", "Bandiera": "Agip Eni", "Tipo impianto": "Altro", "Indirizzo": "VIA ADRIANA 7 84012", "Nome impianto": "MANNA PETROLI", "Comune": "ANGRI", "idImpianto": 47739, "points": [{"type": "Feature", "properties": {}, "geometry": {"type": "Point", "coordinates": [14.577712763537724, 40.736205840818]}}], "price": 1.799, "ultima_rilevazione": "11/05/2022 09:16:40"}, {"Gestore": "GALASSO GIUSEPPINA", "Bandiera": "Pompe Bianche", "Tipo impianto": "Altro", "Indirizzo": "VIA NUOVA SAN MARZANO 98 80040", "Nome impianto": "GALASSO GIUSEPPINA", "Comune": "POGGIOMARINO", "idImpianto": 22356, "points": [{"type": "Feature", "properties": {}, "geometry": {"type": "Point", "coordinates": [14.545705318450814, 40.79643830714438]}}], "price": 1.849, "ultima_rilevazione": "12/05/2022 17:33:02"}, {"Gestore": "ROCAL S.R.L.", "Bandiera": "Pompe Bianche", "Tipo impianto": "Altro", "Indirizzo": "VIA SALICE 30 84012", "Nome impianto": "FERRI FUEL", "Comune": "ANGRI", "idImpianto": 45470, "points": [{"type": "Feature", "properties": {}, "geometry": {"type": "Point", "coordinates": [14.555597621551556, 40.74340303566079]}}], "price": 1.779, "ultima_rilevazione": "13/05/2022 09:58:46"}, {"Gestore": "TORTORA FILIPPO", "Bandiera": "Pompe Bianche", "Tipo impianto": "Altro", "Indirizzo": "VIALE PAPA GIOVANNI XXIII 145 84012", "Nome impianto": "ANGELINA PETROLI", "Comune": "ANGRI", "idImpianto": 32242, "points": [{"type": "Feature", "properties": {}, "geometry": {"type": "Point", "coordinates": [14.56538276580227, 40.74103632577491]}}], "price": 1.769, "ultima_rilevazione": "13/05/2022 17:58:17"}, {"Gestore": "PADOVANO LUIGI", "Bandiera": "Esso", "Tipo impianto": "Altro", "Indirizzo": "VIA DEI GOTI 87 84012", "Nome impianto": "PADOVANO LUIGI", "Comune": "ANGRI", "idImpianto": 45211, "points": [{"type": "Feature", "properties": {}, "geometry": {"type": "Point", "coordinates": [14.569725000123, 40.734039000123]}}], "price": 1.789, "ultima_rilevazione": "14/05/2022 13:37:41"}, {"Gestore": "POMPEANGAS - S.A.S. DI ALLEGRO CATELLO & C.", "Bandiera": "Pompe Bianche", "Tipo impianto": "Altro", "Indirizzo": "VIA SALICE 157 84012", "Nome impianto": "BREAK ZONE  - POMPEANGAS", "Comune": "ANGRI", "idImpianto": 16158, "points": [{"type": "Feature", "properties": {}, "geometry": {"type": "Point", "coordinates": [14.56152766942978, 40.74097687632511]}}], "price": 1.83, "ultima_rilevazione": "16/05/2022 09:19:04"}, {"Gestore": "ANSOR DI CARMELA CELOTTO & C. S.N.C.", "Bandiera": "Pompe Bianche", "Tipo impianto": "Altro", "Indirizzo": "C.so Umberto I 248 80059", "Nome impianto": "Ansor snc di Celotto Carmela & c", "Comune": "TORRE ANNUNZIATA", "idImpianto": 21618, "points": [{"type": "Feature", "properties": {}, "geometry": {"type": "Point", "coordinates": [14.432402774691582, 40.76035496018247]}}], "price": 1.809, "ultima_rilevazione": "16/05/2022 10:48:19"}, {"Gestore": "SALVO PETROLI S.A.S. DI PANARIELLO TERESA & C.", "Bandiera": "Pompe Bianche", "Tipo impianto": "Altro", "Indirizzo": "VIA PASSANTI FLOCCO snc  80040", "Nome impianto": "AR PETROLI pv2", "Comune": "POGGIOMARINO", "idImpianto": 46538, "points": [{"type": "Feature", "properties": {}, "geometry": {"type": "Point", "coordinates": [14.527478, 40.79289]}}], "price": 1.816, "ultima_rilevazione": "16/05/2022 15:48:17"}, {"Gestore": "TOP GOMME DI ALFANO FRANCESCO", "Bandiera": "Pompe Bianche", "Tipo impianto": "Altro", "Indirizzo": "via murelle 57 84012", "Nome impianto": "staroil", "Comune": "ANGRI", "idImpianto": 32268, "points": [{"type": "Feature", "properties": {}, "geometry": {"type": "Point", "coordinates": [14.572852095530491, 40.736616335057086]}}], "price": 1.829, "ultima_rilevazione": "16/05/2022 18:36:52"}, {"Gestore": "PAKO CARBURANTI S.R.L.", "Bandiera": "Pompe Bianche", "Tipo impianto": "Altro", "Indirizzo": "VIA MARRA 175 80041", "Nome impianto": "PAKO CARBURANTI", "Comune": "BOSCOREALE", "idImpianto": 47980, "points": [{"type": "Feature", "properties": {}, "geometry": {"type": "Point", "coordinates": [14.546382294477445, 40.78290918565107]}}], "price": 1.789, "ultima_rilevazione": "16/05/2022 20:01:26"}, {"Gestore": "PETROLCHIMICA SUD - S.R.L.", "Bandiera": "Pompe Bianche", "Tipo impianto": "Altro", "Indirizzo": "VIA CAMPIA SNC 84013", "Nome impianto": "ANGRI", "Comune": "ANGRI", "idImpianto": 35638, "points": [{"type": "Feature", "properties": {}, "geometry": {"type": "Point", "coordinates": [14.561990350484848, 40.73931612267616]}}], "price": 1.769, "ultima_rilevazione": "17/05/2022 10:42:08"}, {"Gestore": "COTICELLI SEBASTIANO", "Bandiera": "Tamoil", "Tipo impianto": "Strada Statale", "Indirizzo": "Statale 366 di Agerola, Km. 27.915, dir. amalfi 80054", "Nome impianto": "TAMOIL", "Comune": "GRAGNANO", "idImpianto": 17861, "points": [{"type": "Feature", "properties": {}, "geometry": {"type": "Point", "coordinates": [14.513602491882466, 40.68983172473408]}}], "price": 1.784, "ultima_rilevazione": "17/05/2022 11:26:42"}, {"Gestore": "SERVIZI & GESTIONI ITALIA srl", "Bandiera": "Q8", "Tipo impianto": "Altro", "Indirizzo": "VIA S.P.21 KM 2 SNC 84018", "Nome impianto": "SCAFATI VIA S.P.21 KM 2", "Comune": "SCAFATI", "idImpianto": 6739, "points": [{"type": "Feature", "properties": {}, "geometry": {"type": "Point", "coordinates": [14.54173958283809, 40.77428223475604]}}], "price": 1.829, "ultima_rilevazione": "18/05/2022 02:37:36"}, {"Gestore": "MENNELLA SALVATORE", "Bandiera": "Agip Eni", "Tipo impianto": "Altro", "Indirizzo": "LARGO LEOPARDI SNC 80059", "Nome impianto": "Eni SALVATORE MENNELLA", "Comune": "TORRE DEL GRECO", "idImpianto": 44388, "points": [{"type": "Feature", "properties": {}, "geometry": {"type": "Point", "coordinates": [14.417236000123, 40.765047000123]}}], "price": 1.829, "ultima_rilevazione": "18/05/2022 07:01:15"}, {"Gestore": "G. V. CARBURANTI S.A.S. DI CIARAVOLO MARIAROSARIA & C.", "Bandiera": "Esso", "Tipo impianto": "Altro", "Indirizzo": "Via Castellammare 120 80054", "Nome impianto": "Stazione Esso Gragnano", "Comune": "GRAGNANO", "idImpianto": 43246, "points": [{"type": "Feature", "properties": {}, "geometry": {"type": "Point", "coordinates": [14.505942105522536, 40.69418763269579]}}], "price": 1.799, "ultima_rilevazione": "18/05/2022 07:24:55"}, {"Gestore": "UP S.R.L.S.", "Bandiera": "UP", "Tipo impianto": "Altro", "Indirizzo": "VIA PIANO DEL PRINCIPE SNC 84040", "Nome impianto": "UP - POGGIOMARINO", "Comune": "POGGIOMARINO", "idImpianto": 46677, "points": [{"type": "Feature", "properties": {}, "geometry": {"type": "Point", "coordinates": [14.52587693044461, 40.80285799456114]}}], "price": 1.769, "ultima_rilevazione": "18/05/2022 13:26:57"}, {"Gestore": "OPLONTI FUEL S.A.S. DI OLIVIERO LUCIA", "Bandiera": "Agip Eni", "Tipo impianto": "Altro", "Indirizzo": "CORSO UMBERTO I 254 80058", "Nome impianto": "ENI", "Comune": "TORRE ANNUNZIATA", "idImpianto": 42939, "points": [{"type": "Feature", "properties": {}, "geometry": {"type": "Point", "coordinates": [14.43119745767217, 40.76070415810329]}}], "price": 1.829, "ultima_rilevazione": "18/05/2022 15:49:21"}, {"Gestore": "F.A.S. PETROLI S.A.S. DI SALVATORE FRANCO", "Bandiera": "Tamoil", "Tipo impianto": "Altro", "Indirizzo": "Via papa giovanni23 18 84012", "Nome impianto": "Distributore tamoil", "Comune": "ANGRI", "idImpianto": 42932, "points": [{"type": "Feature", "properties": {}, "geometry": {"type": "Point", "coordinates": [14.566300069940551, 40.73623133987071]}}], "price": 1.769, "ultima_rilevazione": "19/05/2022 05:56:06"}]}, "Metano": {"1": [{"Gestore": "SUD PETROLI DI CESARANO ANGELA E C. S.R.L.", "Bandiera": "Pompe Bianche", "Tipo impianto": "Altro", "Indirizzo": "VIA MARICONDA SNC 80045", "Nome impianto": "SUD PETROLI", "Comune": "POMPEI", "idImpianto": 41655, "points": [{"type": "Feature", "properties": {}, "geometry": {"type": "Point", "coordinates": [14.516078978776932, 40.73455270817856]}}], "price": 1.798, "ultima_rilevazione": "17/05/2022 11:17:32"}, {"Gestore": "2 G PETROLI S.R.L. SEMPLIFICATA", "Bandiera": "Pompe Bianche", "Tipo impianto": "Altro", "Indirizzo": "VIA G.B. CASCIELLO SNC 84018", "Nome impianto": "Eurogas", "Comune": "SCAFATI", "idImpianto": 46282, "points": [{"type": "Feature", "properties": {}, "geometry": {"type": "Point", "coordinates": [14.519029453570738, 40.76145869786863]}}], "price": 1.499, "ultima_rilevazione": "18/05/2022 16:07:39"}], "3": [{"Gestore": "G.B.L. SAS DI BUONO VINCENZO & C.", "Bandiera": "Api-Ip", "Tipo impianto": "Altro", "Indirizzo": "Nazionale Passanti 244 80040", "Nome impianto": "Stazione di servizio F.ll.i Buono", "Comune": "TERZIGNO", "idImpianto": 40678, "points": [{"type": "Feature", "properties": {}, "geometry": {"type": "Point", "coordinates": [14.487735740840437, 40.7753915960935]}}], "price": 1.995, "ultima_rilevazione": "16/05/2022 19:16:54"}, {"Gestore": "LE SPOSE DI BIANCA DI ANNARUMMA BIANCA", "Bandiera": "Pompe Bianche", "Tipo impianto": "Altro", "Indirizzo": "VIA PALUDICELLA 30A 84012", "Nome impianto": "VISCARDI CARBURANTI METANO GPL", "Comune": "ANGRI", "idImpianto": 42811, "points": [{"type": "Feature", "properties": {}, "geometry": {"type": "Point", "coordinates": [14.548700884665209, 40.72987052231823]}}], "price": 1.657, "ultima_rilevazione": "17/05/2022 08:37:34"}, {"Gestore": "VIN.G S.A.S. DI VICIDOMINI LUCIA", "Bandiera": "Total Erg", "Tipo impianto": "Altro", "Indirizzo": "VIA STABIA SNC, 80057", "Nome impianto": "TOTAL ERG", "Comune": "SANT'ANTONIO ABATE", "idImpianto": 16934, "points": [{"type": "Feature", "properties": {}, "geometry": {"type": "Point", "coordinates": [14.531820682850594, 40.71421398059992]}}], "price": 1.999, "ultima_rilevazione": "18/05/2022 09:44:04"}], "5": [{"Gestore": "SALVO PETROLI S.A.S. DI PANARIELLO TERESA & C.", "Bandiera": "Pompe Bianche", "Tipo impianto": "Altro", "Indirizzo": "VIA PASSANTI FLOCCO snc  80040", "Nome impianto": "AR PETROLI pv2", "Comune": "POGGIOMARINO", "idImpianto": 46538, "points": [{"type": "Feature", "properties": {}, "geometry": {"type": "Point", "coordinates": [14.527478, 40.79289]}}], "price": 1.49, "ultima_rilevazione": "16/05/2022 15:48:17"}, {"Gestore": "LE SPOSE DI BIANCA DI ANNARUMMA BIANCA", "Bandiera": "Pompe Bianche", "Tipo impianto": "Altro", "Indirizzo": "VIA ORTALONGA 87 84018", "Nome impianto": "ANNARUMMA BIANCA", "Comune": "SCAFATI", "idImpianto": 34239, "points": [{"type": "Feature", "properties": {}, "geometry": {"type": "Point", "coordinates": [14.549692429938432, 40.762234569257394]}}], "price": 1.657, "ultima_rilevazione": "17/05/2022 08:36:58"}]}, "GPL": {"1": [{"Gestore": "MERIDIONAL G.P.L. - S.R.L.", "Bandiera": "Pompe Bianche", "Tipo impianto": "Altro", "Indirizzo": "VIA SPINELLI 22 80045", "Nome impianto": "Meridional Gpl srl", "Comune": "POMPEI", "idImpianto": 9615, "points": [{"type": "Feature", "properties": {}, "geometry": {"type": "Point", "coordinates": [14.504981338977814, 40.76913387129056]}}], "price": 0.795, "ultima_rilevazione": "13/05/2022 10:14:19"}, {"Gestore": "DELTA PETROLI S.R.L.", "Bandiera": "Api-Ip", "Tipo impianto": "Altro", "Indirizzo": "Via Tre Ponti snc 80045", "Nome impianto": "Delta Petroli S.r.l. (Pompei)", "Comune": "POMPEI", "idImpianto": 32071, "points": [{"type": "Feature", "properties": {}, "geometry": {"type": "Point", "coordinates": [14.506644308567047, 40.76120620819259]}}], "price": 0.859, "ultima_rilevazione": "14/05/2022 10:11:12"}, {"Gestore": "SUD PETROLI DI CESARANO ANGELA E C. S.R.L.", "Bandiera": "Pompe Bianche", "Tipo impianto": "Altro", "Indirizzo": "VIA MARICONDA SNC 80045", "Nome impianto": "SUD PETROLI", "Comune": "POMPEI", "idImpianto": 41655, "points": [{"type": "Feature", "properties": {}, "geometry": {"type": "Point", "coordinates": [14.516078978776932, 40.73455270817856]}}], "price": 0.795, "ultima_rilevazione": "17/05/2022 11:17:32"}, {"Gestore": "FEDERICO GIOVANNI", "Bandiera": "Energas", "Tipo impianto": "Altro", "Indirizzo": "VIA SETTETERMINI 14/18 80041", "Nome impianto": "Energas", "Comune": "BOSCOREALE", "idImpianto": 42635, "points": [{"type": "Feature", "properties": {}, "geometry": {"type": "Point", "coordinates": [14.471814588993766, 40.75835307443105]}}], "price": 0.829, "ultima_rilevazione": "18/05/2022 07:33:38"}, {"Gestore": "2 G PETROLI S.R.L. SEMPLIFICATA", "Bandiera": "Pompe Bianche", "Tipo impianto": "Altro", "Indirizzo": "VIA G.B. CASCIELLO SNC 84018", "Nome impianto": "Eurogas", "Comune": "SCAFATI", "idImpianto": 46282, "points": [{"type": "Feature", "properties": {}, "geometry": {"type": "Point", "coordinates": [14.519029453570738, 40.76145869786863]}}], "price": 0.795, "ultima_rilevazione": "18/05/2022 16:07:39"}, {"Gestore": "ORGANIZZAZIONE SERVIZI AUTO - O.S.A. - S.P.A.", "Bandiera": "Esso", "Tipo impianto": "Altro", "Indirizzo": "VIA PASSANTI 267 84018", "Nome impianto": "ESSO SCAFATI", "Comune": "SCAFATI", "idImpianto": 50249, "points": [{"type": "Feature", "properties": {}, "geometry": {"type": "Point", "coordinates": [14.517707887191804, 40.76596745019975]}}], "price": 0.795, "ultima_rilevazione": "18/05/2022 16:08:49"}], "3": [{"Gestore": "LE SPOSE DI BIANCA DI ANNARUMMA BIANCA", "Bandiera": "Pompe Bianche", "Tipo impianto": "Altro", "Indirizzo": "VIA PALUDICELLA 30A 84012", "Nome impianto": "VISCARDI CARBURANTI METANO GPL", "Comune": "ANGRI", "idImpianto": 42811, "points": [{"type": "Feature", "properties": {}, "geometry": {"type": "Point", "coordinates": [14.548700884665209, 40.72987052231823]}}], "price": 0.83, "ultima_rilevazione": "17/05/2022 08:37:34"}, {"Gestore": "VIN.G S.A.S. DI VICIDOMINI LUCIA", "Bandiera": "Total Erg", "Tipo impianto": "Altro", "Indirizzo": "VIA STABIA SNC, 80057", "Nome impianto": "TOTAL ERG", "Comune": "SANT'ANTONIO ABATE", "idImpianto": 16934, "points": [{"type": "Feature", "properties": {}, "geometry": {"type": "Point", "coordinates": [14.531820682850594, 40.71421398059992]}}], "price": 0.829, "ultima_rilevazione": "18/05/2022 09:44:04"}], "5": [{"Gestore": "CIRILLO ALFONSO", "Bandiera": "Pompe Bianche", "Tipo impianto": "Altro", "Indirizzo": "VIA PROTA 11 80059", "Nome impianto": "GASAUTO DI CIRILLO ALFONSO", "Comune": "TORRE DEL GRECO", "idImpianto": 21011, "points": [{"type": "Feature", "properties": {}, "geometry": {"type": "Point", "coordinates": [14.428397681649358, 40.75701560967629]}}], "price": 0.783, "ultima_rilevazione": "12/05/2022 21:03:41"}, {"Gestore": "POMPEANGAS - S.A.S. DI ALLEGRO CATELLO & C.", "Bandiera": "Pompe Bianche", "Tipo impianto": "Altro", "Indirizzo": "VIA SALICE 157 84012", "Nome impianto": "BREAK ZONE  - POMPEANGAS", "Comune": "ANGRI", "idImpianto": 16158, "points": [{"type": "Feature", "properties": {}, "geometry": {"type": "Point", "coordinates": [14.56152766942978, 40.74097687632511]}}], "price": 0.82, "ultima_rilevazione": "16/05/2022 09:19:04"}, {"Gestore": "PEGASO CARBURANTI S.R.L.", "Bandiera": "Pompe Bianche", "Tipo impianto": "Altro", "Indirizzo": "Via Alfonso Annunziata SNC 84018", "Nome impianto": "Pegaso Carburanti", "Comune": "SCAFATI", "idImpianto": 22998, "points": [{"type": "Feature", "properties": {}, "geometry": {"type": "Point", "coordinates": [14.544185959663425, 40.7726643749555]}}], "price": 0.795, "ultima_rilevazione": "16/05/2022 10:41:57"}, {"Gestore": "SALVO PETROLI S.A.S. DI PANARIELLO TERESA & C.", "Bandiera": "Pompe Bianche", "Tipo impianto": "Altro", "Indirizzo": "VIA PASSANTI FLOCCO snc  80040", "Nome impianto": "AR PETROLI pv2", "Comune": "POGGIOMARINO", "idImpianto": 46538, "points": [{"type": "Feature", "properties": {}, "geometry": {"type": "Point", "coordinates": [14.527478, 40.79289]}}], "price": 0.79, "ultima_rilevazione": "16/05/2022 15:48:17"}, {"Gestore": "LE SPOSE DI BIANCA DI ANNARUMMA BIANCA", "Bandiera": "Pompe Bianche", "Tipo impianto": "Altro", "Indirizzo": "VIA ORTALONGA 87 84018", "Nome impianto": "ANNARUMMA BIANCA", "Comune": "SCAFATI", "idImpianto": 34239, "points": [{"type": "Feature", "properties": {}, "geometry": {"type": "Point", "coordinates": [14.549692429938432, 40.762234569257394]}}], "price": 0.82, "ultima_rilevazione": "17/05/2022 08:36:58"}]}, "Blue Diesel": {"1": [{"Gestore": "CHIACCHIERA FRANCESCO", "Bandiera": "Agip Eni", "Tipo impianto": "Altro", "Indirizzo": "VIA VITTORIO VENETO 2 80058", "Nome impianto": "ENI spa", "Comune": "TORRE ANNUNZIATA", "idImpianto": 46634, "points": [{"type": "Feature", "properties": {}, "geometry": {"type": "Point", "coordinates": [14.465613216161728, 40.75009524376741]}}], "price": 2.364, "ultima_rilevazione": "18/05/2022 05:53:44"}, {"Gestore": "CHIACCHIERA FRANCESCO", "Bandiera": "Agip Eni", "Tipo impianto": "Altro", "Indirizzo": "VIA VITTORIO VENETO 2 80058", "Nome impianto": "ENI spa", "Comune": "TORRE ANNUNZIATA", "idImpianto": 46634, "points": [{"type": "Feature", "properties": {}, "geometry": {"type": "Point", "coordinates": [14.465613216161728, 40.75009524376741]}}], "price": 2.284, "ultima_rilevazione": "18/05/2022 05:53:44"}], "3": [{"Gestore": "MI.SA. CARBURANTI S.R.L.", "Bandiera": "Agip Eni", "Tipo impianto": "Altro", "Indirizzo": "VIA DE GASPERI 47 84018", "Nome impianto": "MISA CARBURANTI SRL", "Comune": "SCAFATI", "idImpianto": 43176, "points": [{"type": "Feature", "properties": {}, "geometry": {"type": "Point", "coordinates": [14.52959227423969, 40.75511612456466]}}], "price": 2.064, "ultima_rilevazione": "18/05/2022 07:39:44"}, {"Gestore": "CA.VER. S.N.C. DI CACCIOPPOLI MAURIZIO E GIANLUCA", "Bandiera": "Agip Eni", "Tipo impianto": "Altro", "Indirizzo": "VIALE EUROPA 87 80053", "Nome impianto": "ENI", "Comune": "CASTELLAMMARE DI STABIA", "idImpianto": 32472, "points": [{"type": "Feature", "properties": {}, "geometry": {"type": "Point", "coordinates": [14.489392057717168, 40.70175169323834]}}], "price": 1.929, "ultima_rilevazione": "17/05/2022 07:22:38"}, {"Gestore": "MI.SA. CARBURANTI S.R.L.", "Bandiera": "Agip Eni", "Tipo impianto": "Altro", "Indirizzo": "VIA DE GASPERI 47 84018", "Nome impianto": "MISA CARBURANTI SRL", "Comune": "SCAFATI", "idImpianto": 43176, "points": [{"type": "Feature", "properties": {}, "geometry": {"type": "Point", "coordinates": [14.52959227423969, 40.75511612456466]}}], "price": 1.924, "ultima_rilevazione": "18/05/2022 07:39:44"}, {"Gestore": "MASCOLO FRANCESCO", "Bandiera": "Agip Eni", "Tipo impianto": "Altro", "Indirizzo": "via scafati  80057", "Nome impianto": "Francesco Mascolo", "Comune": "SANT'ANTONIO ABATE", "idImpianto": 7854, "points": [{"type": "Feature", "properties": {}, "geometry": {"type": "Point", "coordinates": [14.539611649212702, 40.72706461128277]}}], "price": 1.929, "ultima_rilevazione": "18/05/2022 14:29:36"}], "5": [{"Gestore": "MENNELLA SALVATORE", "Bandiera": "Agip Eni", "Tipo impianto": "Altro", "Indirizzo": "LARGO LEOPARDI SNC 80059", "Nome impianto": "Eni SALVATORE MENNELLA", "Comune": "TORRE DEL GRECO", "idImpianto": 44388, "points": [{"type": "Feature", "properties": {}, "geometry": {"type": "Point", "coordinates": [14.417236000123, 40.765047000123]}}], "price": 1.929, "ultima_rilevazione": "18/05/2022 07:01:15"}, {"Gestore": "OPLONTI FUEL S.A.S. DI OLIVIERO LUCIA", "Bandiera": "Agip Eni", "Tipo impianto": "Altro", "Indirizzo": "CORSO UMBERTO I 254 80058", "Nome impianto": "ENI", "Comune": "TORRE ANNUNZIATA", "idImpianto": 42939, "points": [{"type": "Feature", "properties": {}, "geometry": {"type": "Point", "coordinates": [14.43119745767217, 40.76070415810329]}}], "price": 1.929, "ultima_rilevazione": "18/05/2022 15:49:21"}]}, "Diesel High Quality": {"1": [{"Gestore": "CASCONE CARBURANTI DI CINZIA SPINELLI S.A.S.", "Bandiera": "Q8", "Tipo impianto": "Altro", "Indirizzo": "STRADA PONTE DELLA PERSICA 100 80053", "Nome impianto": "Q8", "Comune": "CASTELLAMMARE DI STABIA", "idImpianto": 9595, "points": [{"type": "Feature", "properties": {}, "geometry": {"type": "Point", "coordinates": [14.485897421836851, 40.73187189266499]}}], "price": 1.899, "ultima_rilevazione": "11/05/2022 12:26:11"}, {"Gestore": "LA MURA GROUP S.R.L.", "Bandiera": "Total Erg", "Tipo impianto": "Altro", "Indirizzo": "VIA SCAFATI 283 80050", "Nome impianto": "La Mura Group", "Comune": "SANTA MARIA LA CARITA'", "idImpianto": 27269, "points": [{"type": "Feature", "properties": {}, "geometry": {"type": "Point", "coordinates": [14.514097782208978, 40.73094364975582]}}], "price": 1.799, "ultima_rilevazione": "18/05/2022 11:22:12"}, {"Gestore": "ORGANIZZAZIONE SERVIZI AUTO - O.S.A. - S.P.A.", "Bandiera": "Esso", "Tipo impianto": "Altro", "Indirizzo": "VIA PASSANTI 267 84018", "Nome impianto": "ESSO SCAFATI", "Comune": "SCAFATI", "idImpianto": 50249, "points": [{"type": "Feature", "properties": {}, "geometry": {"type": "Point", "coordinates": [14.517707887191804, 40.76596745019975]}}], "price": 1.999, "ultima_rilevazione": "18/05/2022 16:08:49"}, {"Gestore": "AREA FELIX S.A.S. DI AMITRANO POLISTO", "Bandiera": "Api-Ip", "Tipo impianto": "Altro", "Indirizzo": "VIA PLINIO 101 80045", "Nome impianto": "IP Area Felix", "Comune": "POMPEI", "idImpianto": 42083, "points": [{"type": "Feature", "properties": {}, "geometry": {"type": "Point", "coordinates": [14.486825459215993, 40.74677174655304]}}], "price": 1.829, "ultima_rilevazione": "18/05/2022 15:41:56"}], "3": [{"Gestore": "EUROPA SERVICE SOCIETA' A RESPONSABILITA' LIMITATA", "Bandiera": "Q8", "Tipo impianto": "Altro", "Indirizzo": "viale europa 154 80053", "Nome impianto": "Q8 Europa Service", "Comune": "CASTELLAMMARE DI STABIA", "idImpianto": 43882, "points": [{"type": "Feature", "properties": {}, "geometry": {"type": "Point", "coordinates": [14.489071915344198, 40.70126796656399]}}], "price": 1.929, "ultima_rilevazione": "21/01/2022 08:22:32"}, {"Gestore": "SERVIZI & GESTIONI ITALIA srl", "Bandiera": "Q8", "Tipo impianto": "Altro", "Indirizzo": "SS.268 KM.27 IMP.Q8 SNC 80041", "Nome impianto": "BOSCOREALE SS.268 KM.27 IMP.Q8", "Comune": "BOSCOREALE", "idImpianto": 6706, "points": [{"type": "Feature", "properties": {}, "geometry": {"type": "Point", "coordinates": [14.49257675092622, 40.775989040825344]}}], "price": 2.099, "ultima_rilevazione": "18/05/2022 07:09:05"}, {"Gestore": "SERVIZI & GESTIONI ITALIA srl", "Bandiera": "Q8", "Tipo impianto": "Altro", "Indirizzo": "SS.268 KM.27 IMP.Q8 SNC 80041", "Nome impianto": "BOSCOREALE SS.268 KM.27 IMP.Q8", "Comune": "BOSCOREALE", "idImpianto": 6706, "points": [{"type": "Feature", "properties": {}, "geometry": {"type": "Point", "coordinates": [14.49257675092622, 40.775989040825344]}}], "price": 2.154, "ultima_rilevazione": "18/05/2022 07:09:05"}, {"Gestore": "SERVIZI & GESTIONI ITALIA S.R.L.", "Bandiera": "Q8", "Tipo impianto": "Altro", "Indirizzo": "VIA MADONNA DELLE GRAZIE 238 80050", "Nome impianto": "SANTA MARIA LA CARITA'-VIA MADONNA DELLE GRAZIE 238", "Comune": "SANTA MARIA LA CARITA'", "idImpianto": 11728, "points": [{"type": "Feature", "properties": {}, "geometry": {"type": "Point", "coordinates": [14.50580728836053, 40.70934676337253]}}], "price": 2.169, "ultima_rilevazione": "18/05/2022 07:09:10"}, {"Gestore": "CARBURANTE DI CASCONE NICOLA", "Bandiera": "Esso", "Tipo impianto": "Altro", "Indirizzo": "VIA DANTE ALIGHIERI 27 84018", "Nome impianto": "CARBURANTE DI CASCONE NICOLA", "Comune": "SCAFATI", "idImpianto": 45066, "points": [{"type": "Feature", "properties": {}, "geometry": {"type": "Point", "coordinates": [14.534445000123, 40.749389000123]}}], "price": 2.019, "ultima_rilevazione": "11/05/2022 08:31:58"}], "5": [{"Gestore": "PADOVANO LUIGI", "Bandiera": "Esso", "Tipo impianto": "Altro", "Indirizzo": "VIA DEI GOTI 87 84012", "Nome impianto": "PADOVANO LUIGI", "Comune": "ANGRI", "idImpianto": 45211, "points": [{"type": "Feature", "properties": {}, "geometry": {"type": "Point", "coordinates": [14.569725000123, 40.734039000123]}}], "price": 1.939, "ultima_rilevazione": "14/05/2022 13:37:41"}, {"Gestore": "G. V. CARBURANTI S.A.S. DI CIARAVOLO MARIAROSARIA & C.", "Bandiera": "Esso", "Tipo impianto": "Altro", "Indirizzo": "Via Castellammare 120 80054", "Nome impianto": "Stazione Esso Gragnano", "Comune": "GRAGNANO", "idImpianto": 43246, "points": [{"type": "Feature", "properties": {}, "geometry": {"type": "Point", "coordinates": [14.505942105522536, 40.69418763269579]}}], "price": 1.979, "ultima_rilevazione": "18/05/2022 07:24:55"}]}, "Gasolio High Quality": {"1": [{"Gestore": "SAVINELLI CARBURANTI S.A.S. DI MARCO SAVINELLI & C.", "Bandiera": "Esso", "Tipo impianto": "Autostradale", "Indirizzo": "A3 NAPOLI-SALERNO, Km. 20, sud 80058", "Nome impianto": "TORRE ANNUNZIATA OVEST", "Comune": "TORRE ANNUNZIATA", "idImpianto": 41777, "points": [{"type": "Feature", "properties": {}, "geometry": {"type": "Point", "coordinates": [14.472215473651886, 40.75156676184485]}}], "price": 2.069, "ultima_rilevazione": "10/05/2022 15:10:42"}], "3": [], "5": []}, "null": {}}