{"area_comune": "[{\"type\": \"Feature\", \"properties\": {}, \"geometry\": {\"type\": \"Polygon\", \"coordinates\": [[[14.35618551811767, 40.82718507307627], [14.358546816171808, 40.818870392538294], [14.359425472501016, 40.81844199474562], [14.35987441975488, 40.81788602045417], [14.360315068098267, 40.81611202347602], [14.360009021356243, 40.81574919910189], [14.358570883330415, 40.81505758561486], [14.353497834480859, 40.81412417401012], [14.343888877178092, 40.810367436087645], [14.339324579632816, 40.807259610745724], [14.338422023230125, 40.804424152882135], [14.337309697705635, 40.80469563040893], [14.335559135644507, 40.80587516235369], [14.333276477822015, 40.809023935066186], [14.33327487147784, 40.809474145265476], [14.33549121343568, 40.80859714642185], [14.335673351631296, 40.80863370454531], [14.335935972231837, 40.809229210406926], [14.333710185045227, 40.812478883462525], [14.332644498057551, 40.81360412509295], [14.322548943064861, 40.820780967019864], [14.319745014021143, 40.821384132764294], [14.32815353963429, 40.82539968843898], [14.330578160257716, 40.825844611820585], [14.331728181007142, 40.825858852756866], [14.334573567527343, 40.825426501915125], [14.349629942433088, 40.827584492052615], [14.350978098794355, 40.82804395757859], [14.351789037554541, 40.83000938231987], [14.35618551811767, 40.82718507307627]]]}}]", "comune": "portici", "buffer_1": "[{\"type\": \"Feature\", \"properties\": {}, \"geometry\": {\"type\": \"Polygon\", \"coordinates\": [[[14.353761388993094, 40.83598033872171], [14.354930434649223, 40.8361202871344], [14.356112041600156, 40.836170819123694], [14.357294382081061, 40.83613142916786], [14.358465621053954, 40.836002511851035], [14.359614034816639, 40.8357853578969], [14.360728128487466, 40.83548214122206], [14.361796751183073, 40.83509589713966], [14.362809207730297, 40.83463049193354], [14.363755365788906, 40.83409058410906], [14.364625757308975, 40.83348157771142], [14.365411673304756, 40.83280956818085], [14.366105250995195, 40.83208128128965], [14.366699552439261, 40.83130400577489], [14.367188633880755, 40.83048552034362], [14.367567605111743, 40.82963401578359], [14.37169531704575, 40.81856066826996], [14.371949580710464, 40.81772984785374], [14.372099001745404, 40.816884454838124], [14.372142237785798, 40.81603210707892], [14.372078903351875, 40.81518048480265], [14.371909573174452, 40.81433726140616], [14.371635776871045, 40.81351003432834], [14.371259985025718, 40.81270625661631], [14.370785586803013, 40.811933169801755], [14.370216859302129, 40.811197738690836], [14.369558928931347, 40.81050658865409], [14.368817725153765, 40.809865945979304], [14.367999927023376, 40.809281581823285], [14.367112902994414, 40.808758760265135], [14.345221366768778, 40.79707210135052], [14.344230628207812, 40.79659690585152], [14.343182887048213, 40.79619853977514], [14.342088425627589, 40.79588091255623], [14.34095798429775, 40.795647141312024], [14.339802656134918, 40.79549952027953], [14.33863377820616, 40.79543949831852], [14.337462820453085, 40.79546766470037], [14.336301273276518, 40.79558374332116], [14.335160534918812, 40.795786595396656], [14.33405179974204, 40.7960742306128], [14.332985948492233, 40.796443826623424], [14.3319734416207, 40.79689175670577], [14.331024216704433, 40.79741362530373], [14.330147590968348, 40.79800431111271], [14.329352169863226, 40.79865801728549], [14.310674149087333, 40.81561657416562], [14.309973934454057, 40.816319473921205], [14.309367722832707, 40.81707111073795], [14.308861349973721, 40.81786425326078], [14.308459691620307, 40.81869127051309], [14.308166616472386, 40.81954420528207], [14.307984948818339, 40.82041485065395], [14.307916441199536, 40.82129482896354], [14.307961757376761, 40.822175672399624], [14.308120465768948, 40.82304890449065], [14.308391043434046, 40.82390612168671], [14.308770890560318, 40.824739074252115], [14.309256355334913, 40.825539745688964], [14.309842768956107, 40.82630042992625], [14.310524490457238, 40.82701380552945], [14.311294960914957, 40.82767300621469], [14.312146766522945, 40.8282716869864], [14.31307170992578, 40.828804085259385], [14.314060889126731, 40.82926507637495], [14.315104783209208, 40.82965022297396], [14.316193344044596, 40.82995581774976], [14.317316093100578, 40.83017891916734], [14.353761388993094, 40.83598033872171]]]}}]", "buffer_3": "[{\"type\": \"Feature\", \"properties\": {}, \"geometry\": {\"type\": \"Polygon\", \"coordinates\": [[[14.348911558325202, 40.85357081344655], [14.35241963565535, 40.853990713667706], [14.355965422141862, 40.85414229111449], [14.359513395896508, 40.854024029958595], [14.363028013743834, 40.85363711759998], [14.36647406857133, 40.852985432621914], [14.369817043224494, 40.85207550569433], [14.373023457340768, 40.85091645382769], [14.376061203593377, 40.84951988865188], [14.37889986993088, 40.84789979965745], [14.381511044548953, 40.84607241359063], [14.383868600516017, 40.84405603143457], [14.385948957191331, 40.84187084463365], [14.387731315820147, 40.83953873242681], [14.389197866962855, 40.8370830423426], [14.39033396771007, 40.83452835607597], [14.394458001601471, 40.8234544138586], [14.39521994030983, 40.82096185184802], [14.3956673032555, 40.818425636972144], [14.395796095728379, 40.81586862407652], [14.395605194220217, 40.81331385273656], [14.39509635521692, 40.810784339697484], [14.394274198066187, 40.808302871614586], [14.393146162121809, 40.80589179995627], [14.391722438594925, 40.803572839909656], [14.390015877766267, 40.80136687508949], [14.388041872429584, 40.799293769796456], [14.385818218643871, 40.79737219050062], [14.383364955068501, 40.79561943814169], [14.380704182339832, 40.79405129273918], [14.358815664455676, 40.78236705563969], [14.355843928324024, 40.780941767836886], [14.35270133740791, 40.779746921520584], [14.349418713951627, 40.77879423514518], [14.346028249230127, 40.77809305242846], [14.342563188844375, 40.777650250961514], [14.339057507835204, 40.77747017491758], [14.335545578747443, 40.777554592511514], [14.332061835840836, 40.777902678623896], [14.328640438680265, 40.778511022760526], [14.325314938344453, 40.77937366227513], [14.322117949469698, 40.78048214053875], [14.319080831293194, 40.781825589499384], [14.316233380779689, 40.78339083583888], [14.313603540805975, 40.785162529705865], [14.311217126240647, 40.78712329478374], [14.29253708707798, 40.8040790060903], [14.290436113896845, 40.80618737867328], [14.28861698318284, 40.80844199839385], [14.287097221186611, 40.81082118234659], [14.285891479804867, 40.81330204695667], [14.28501139452839, 40.815860727776794], [14.284465471211655, 40.81847260881576], [14.284259002801994, 40.82111255920405], [14.28439401688395, 40.8237551749269], [14.284869254602006, 40.82637502330248], [14.285680181224611, 40.828946887851934], [14.286819028307361, 40.831446011199674], [14.28827486710632, 40.83384833365689], [14.290033712586764, 40.83613072517941], [14.292078657070988, 40.838271208450706], [14.29439003227506, 40.84024917092401], [14.296945598200917, 40.84204556376148], [14.29972075708058, 40.84364308573346], [14.302688790316504, 40.845026350284954], [14.30582111612885, 40.846182034139396], [14.309087565409651, 40.847099005988774], [14.31245667309791, 40.84776843401287], [14.348911558325202, 40.85357081344655]]]}}]", "buffer_5": "[{\"type\": \"Feature\", \"properties\": {}, \"geometry\": {\"type\": \"Polygon\", \"coordinates\": [[[14.344059628495131, 40.8711612124167], [14.3499079926323, 40.871861137986926], [14.355819247598534, 40.87211373628223], [14.361734125795609, 40.87191648214299], [14.367593325034804, 40.871271360655925], [14.373338106670825, 40.87018484683551], [14.378910887838588, 40.86866784003286], [14.384255821685665, 40.86673555376079], [14.389319359631113, 40.8644073620821], [14.39405078988575, 40.861706604154584], [14.398402746736549, 40.85866034895263], [14.402331685424818, 40.85529912259013], [14.405798317829529, 40.8516566010469], [14.408768004598171, 40.84776927144671], [14.411211099842006, 40.84367606534688], [14.41310324502413, 40.83941796777405], [14.417223598275388, 40.828343432351176], [14.41849207483511, 40.824188995004064], [14.419236179010117, 40.8199619111811], [14.41944930696162, 40.815700274379275], [14.41912964106809, 40.81144248200586], [14.41828016260436, 40.807226889516365], [14.41690862125518, 40.80309146519359], [14.41502746186798, 40.799073448663485], [14.41265370922707, 40.79520901620164], [14.409808811997927, 40.79153295581467], [14.406518447341954, 40.788078354986126], [14.402812288037309, 40.784876303856755], [14.398723734257297, 40.781955616465794], [14.394289612452637, 40.779342572515695], [14.37240411431463, 40.767660755173814], [14.36745202011193, 40.76528577285525], [14.362215422534055, 40.76329478170381], [14.356745650735565, 40.76170729610749], [14.35109630726992, 40.760538876248944], [14.345322745517342, 40.75980097628111], [14.339481530390874, 40.7595008325048], [14.333629887455311, 40.7596413926219], [14.327825145695726, 40.76022128674808], [14.322124179229496, 40.76123484047105], [14.31658285326767, 40.76267212984184], [14.311255479598154, 40.764519077786936], [14.306194286784566, 40.76675759103345], [14.301448910150503, 40.76936573625297], [14.297065906450625, 40.77231795375155], [14.2930882979172, 40.775585306671545], [14.274406246691662, 40.792538172980166], [14.270904077258347, 40.79605158284615], [14.267871367729299, 40.79980879769535], [14.265337360066496, 40.80377369795031], [14.263326515092313, 40.80790815992449], [14.261858274173301, 40.81217242155019], [14.26094686863574, 40.81652546412953], [14.260601178880385, 40.820925406468334], [14.260824644702602, 40.82532990762278], [14.261615227842453, 40.82969657439399], [14.262965427292105, 40.83398336964752], [14.264862347378653, 40.838149017514134], [14.267287818125304, 40.84215340154744], [14.270218566876764, 40.84595795196907], [14.27362643966212, 40.849526018229376], [14.277478670265687, 40.85282322324406], [14.281738194488787, 40.85581779583802], [14.286364006619591, 40.858480878134266], [14.291311554689099, 40.860786804865526], [14.296533170684803, 40.862713351858424], [14.30197853152498, 40.864241951239926], [14.307595146270195, 40.86535787124337], [14.344059628495131, 40.8711612124167]]]}}]", "centroid": "[{\"type\": \"Feature\", \"properties\": {}, \"geometry\": {\"type\": \"Point\", \"coordinates\": [14.34102120087841, 40.81758813639928]}}]", "Benzina": {"1": [{"Gestore": "A 5 PETROLI S.R.L.", "Bandiera": "Pompe Bianche", "Tipo impianto": "Altro", "Indirizzo": "VIA SACERDOTE B. COZZOLINO SNC 80056", "Nome impianto": "A5", "Comune": "ERCOLANO", "idImpianto": 14708, "points": [{"type": "Feature", "properties": {}, "geometry": {"type": "Point", "coordinates": [14.360169544816015, 40.83495010160629]}}], "price": 1.769, "ultima_rilevazione": "20/05/2022 17:28:45"}, {"Gestore": "B.G. PETROLI S.A.S. DI BORRIELLO VINCENZO & C.", "Bandiera": "Esso", "Tipo impianto": "Altro", "Indirizzo": "VIA PANORAMICA 97 80056", "Nome impianto": "B.G.PETROLI SAS", "Comune": "ERCOLANO", "idImpianto": 35860, "points": [{"type": "Feature", "properties": {}, "geometry": {"type": "Point", "coordinates": [14.357177761376988, 40.81022332802966]}}], "price": 1.859, "ultima_rilevazione": "03/05/2022 07:56:25"}, {"Gestore": "A.G. CARBURANTI S.R.L.S.", "Bandiera": "Pompe Bianche", "Tipo impianto": "Altro", "Indirizzo": "CORSO SAN GIOVANI A TEDUCCIO  904 80146", "Nome impianto": "SAN GIOVANNI", "Comune": "NAPOLI", "idImpianto": 50925, "points": [{"type": "Feature", "properties": {}, "geometry": {"type": "Point", "coordinates": [14.315750078909794, 40.82656931895564]}}], "price": 1.809, "ultima_rilevazione": "03/05/2022 10:11:39"}, {"Gestore": "N.D. CARBURANTI S.A.S. DI AGOSTINO NOCERINO", "Bandiera": "Agip Eni", "Tipo impianto": "Altro", "Indirizzo": "VIA ARMANDO DIAZ 45 80055", "Nome impianto": "ENI Station PORTICI", "Comune": "PORTICI", "idImpianto": 33969, "points": [{"type": "Feature", "properties": {}, "geometry": {"type": "Point", "coordinates": [14.335999553987676, 40.81948243070002]}}], "price": 2.089, "ultima_rilevazione": "23/05/2022 08:06:19"}, {"Gestore": "LUCARELLA CAFFE'' S.R.L.", "Bandiera": "Esso", "Tipo impianto": "Altro", "Indirizzo": "VIA SAC. B. COZZOLINO 65 80056", "Nome impianto": "LUCARELLA SRL CARBURANTI", "Comune": "ERCOLANO", "idImpianto": 38830, "points": [{"type": "Feature", "properties": {}, "geometry": {"type": "Point", "coordinates": [14.366487488150597, 40.814823003077045]}}], "price": 1.827, "ultima_rilevazione": "23/05/2022 12:20:15"}, {"Gestore": "PICCOLO FRANCESCO", "Bandiera": "Q8", "Tipo impianto": "Altro", "Indirizzo": "VIA SAC. BENEDETTO COZZOLINO 10 80056", "Nome impianto": "Q8", "Comune": "ERCOLANO", "idImpianto": 43948, "points": [{"type": "Feature", "properties": {}, "geometry": {"type": "Point", "coordinates": [14.357609565641384, 40.83115682467383]}}], "price": 1.869, "ultima_rilevazione": "23/05/2022 12:55:48"}, {"Gestore": "PALOMBA GIUSEPPE", "Bandiera": "Pompe Bianche", "Tipo impianto": "Altro", "Indirizzo": "via san vito 10 80056", "Nome impianto": "easyfuel", "Comune": "ERCOLANO", "idImpianto": 41168, "points": [{"type": "Feature", "properties": {}, "geometry": {"type": "Point", "coordinates": [14.36386029447749, 40.8190151939431]}}], "price": 1.969, "ultima_rilevazione": "24/05/2022 15:08:20"}, {"Gestore": "SCHERILLO GIOVANNI", "Bandiera": "Pompe Bianche", "Tipo impianto": "Altro", "Indirizzo": "largo arso 41 80046", "Nome impianto": "Unoil ( ex Esso )", "Comune": "SAN GIORGIO A CREMANO", "idImpianto": 36466, "points": [{"type": "Feature", "properties": {}, "geometry": {"type": "Point", "coordinates": [14.330108392620332, 40.82580604967606]}}], "price": 1.999, "ultima_rilevazione": "25/05/2022 10:31:03"}, {"Gestore": "3L PETROLI S.R.L.", "Bandiera": "Pompe Bianche", "Tipo impianto": "Altro", "Indirizzo": "VIA ANTONIO GRAMSCI 21 80056", "Nome impianto": "3L PETROLI SRL", "Comune": "ERCOLANO", "idImpianto": 50396, "points": [{"type": "Feature", "properties": {}, "geometry": {"type": "Point", "coordinates": [14.358969293479788, 40.81093159812765]}}], "price": 1.869, "ultima_rilevazione": "26/05/2022 07:21:18"}, {"Gestore": "VESUVIANA PETROLI S.R.L.", "Bandiera": "Pompe Bianche", "Tipo impianto": "Altro", "Indirizzo": "VIA PATACCA  SNC 80056", "Nome impianto": "VESUVIANA PETROLI SRL ", "Comune": "ERCOLANO", "idImpianto": 47406, "points": [{"type": "Feature", "properties": {}, "geometry": {"type": "Point", "coordinates": [14.34814453125, 40.808092514169225]}}], "price": 1.849, "ultima_rilevazione": "26/05/2022 09:29:57"}, {"Gestore": "P.PETROLI SRL", "Bandiera": "Pompe Bianche", "Tipo impianto": "Altro", "Indirizzo": "CORSO G. GARIBALDI SNC 80055", "Nome impianto": "P.PETROLI - Portici", "Comune": "PORTICI", "idImpianto": 47612, "points": [{"type": "Feature", "properties": {}, "geometry": {"type": "Point", "coordinates": [14.324789778647755, 40.82189479630672]}}], "price": 1.899, "ultima_rilevazione": "26/05/2022 12:49:45"}, {"Gestore": "ROMINO MASSIMO", "Bandiera": "Api-Ip", "Tipo impianto": "Altro", "Indirizzo": "VIA PANORAMICA 2 80056", "Nome impianto": "TOTALERG", "Comune": "ERCOLANO", "idImpianto": 38660, "points": [{"type": "Feature", "properties": {}, "geometry": {"type": "Point", "coordinates": [14.35413208808086, 40.80853514880448]}}], "price": 1.889, "ultima_rilevazione": "27/05/2022 15:34:22"}, {"Gestore": "SANNINO PETROLI S.R.L. ", "Bandiera": "Madogas Natural Energy", "Tipo impianto": "Altro", "Indirizzo": "VIA MARITTIMA 44 80055", "Nome impianto": "SP PETROLI -PORTICI", "Comune": "PORTICI", "idImpianto": 48824, "points": [{"type": "Feature", "properties": {}, "geometry": {"type": "Point", "coordinates": [14.33923977862085, 40.80719118511784]}}], "price": 1.849, "ultima_rilevazione": "27/05/2022 15:55:34"}, {"Gestore": "EASY SERVICE S.R.L.", "Bandiera": "Energas", "Tipo impianto": "Altro", "Indirizzo": "Via Aveta  snc 80056", "Nome impianto": "Easy service Ercolano ", "Comune": "ERCOLANO", "idImpianto": 35680, "points": [{"type": "Feature", "properties": {}, "geometry": {"type": "Point", "coordinates": [14.358646720647812, 40.80844738718757]}}], "price": 1.869, "ultima_rilevazione": "27/05/2022 17:35:04"}, {"Gestore": "SERVIZI & GESTIONI ITALIA srl", "Bandiera": "Q8", "Tipo impianto": "Altro", "Indirizzo": "VIA DEGLI ULIVI SNC 80056", "Nome impianto": "ERCOLANO VIA DEGLI ULIVI", "Comune": "ERCOLANO", "idImpianto": 6702, "points": [{"type": "Feature", "properties": {}, "geometry": {"type": "Point", "coordinates": [14.356227699999977, 40.81446484078589]}}], "price": 1.899, "ultima_rilevazione": "28/05/2022 02:06:35"}, {"Gestore": "MADONNA GIUSEPPE", "Bandiera": "Energas", "Tipo impianto": "Altro", "Indirizzo": "VIA BENEDETTO COZZOLINO 66 80056", "Nome impianto": "ENERGAS", "Comune": "ERCOLANO", "idImpianto": 44395, "points": [{"type": "Feature", "properties": {}, "geometry": {"type": "Point", "coordinates": [14.356550574302672, 40.82674310725152]}}], "price": 1.899, "ultima_rilevazione": "28/05/2022 18:08:58"}, {"Gestore": "STAZIONE I.P. DI DE LUCA ALFONSO", "Bandiera": "Agip Eni", "Tipo impianto": "Altro", "Indirizzo": "Via gianturco 26 80046", "Nome impianto": "Stazione eni De LUCA ALFONSO", "Comune": "SAN GIORGIO A CREMANO", "idImpianto": 32177, "points": [{"type": "Feature", "properties": {}, "geometry": {"type": "Point", "coordinates": [14.342876389306412, 40.83164723763404]}}], "price": 1.909, "ultima_rilevazione": "28/05/2022 20:38:40"}], "3": [{"Gestore": "NOCERINO RAFFAELE & FIGLI S.A.S. DI NOCERINO GIOVANNI", "Bandiera": "Agip Eni", "Tipo impianto": "Altro", "Indirizzo": "VIA MATTEOTTI 22 80040", "Nome impianto": "ENI NOCERINO ", "Comune": "SAN SEBASTIANO AL VESUVIO", "idImpianto": 15064, "points": [{"type": "Feature", "properties": {}, "geometry": {"type": "Point", "coordinates": [14.36795102209021, 40.84405217673461]}}], "price": 1.899, "ultima_rilevazione": "23/05/2022 08:07:44"}, {"Gestore": "STAZIONE DI SERVIZIO M.Y.L.T.O.N. PETROLI DI MOSCA MICHELE", "Bandiera": "Total Erg", "Tipo impianto": "Altro", "Indirizzo": "VIA ABBEVERATOIO 19 80147", "Nome impianto": "STAZIONE DI SERVIZIO M.Y.L.T.O.N. PETROLI DI MOSCA MICHELE]", "Comune": "NAPOLI", "idImpianto": 14323, "points": [{"type": "Feature", "properties": {}, "geometry": {"type": "Point", "coordinates": [14.322363713491768, 40.84832334843441]}}], "price": 1.869, "ultima_rilevazione": "23/05/2022 09:43:28"}, {"Gestore": "GUSMAI NICOLETTA", "Bandiera": "GB Petroli", "Tipo impianto": "Altro", "Indirizzo": "CORSO S. GIOVANNI 223 80146", "Nome impianto": "GB PETROLI", "Comune": "NAPOLI", "idImpianto": 39219, "points": [{"type": "Feature", "properties": {}, "geometry": {"type": "Point", "coordinates": [14.302663040810558, 40.83623565210759]}}], "price": 1.898, "ultima_rilevazione": "23/05/2022 15:47:51"}, {"Gestore": "DE FALCO MARIKA", "Bandiera": "Esso", "Tipo impianto": "Altro", "Indirizzo": "VIA DELLE REPUBBLICHE MARINARE 292  80146", "Nome impianto": "STAZIONE DI SERVIZIO ESSO", "Comune": "NAPOLI", "idImpianto": 45228, "points": [{"type": "Feature", "properties": {}, "geometry": {"type": "Point", "coordinates": [14.316577000123, 40.835269000123]}}], "price": 1.799, "ultima_rilevazione": "23/05/2022 16:57:39"}, {"Gestore": "ESPOSITO GIOVANNI", "Bandiera": "Api-Ip", "Tipo impianto": "Altro", "Indirizzo": "VIA G. MARCONI 53/55 80059", "Nome impianto": "DITTA ESPOSITO GIOVANNI", "Comune": "TORRE DEL GRECO", "idImpianto": 28062, "points": [{"type": "Feature", "properties": {}, "geometry": {"type": "Point", "coordinates": [14.372103118641917, 40.79390051824808]}}], "price": 1.899, "ultima_rilevazione": "25/05/2022 15:13:47"}, {"Gestore": "VB PETROLI DI VINCENZO BORRIELLO", "Bandiera": "Esso", "Tipo impianto": "Altro", "Indirizzo": "VIA CIRCUMVALLAZIONE 66 80059", "Nome impianto": "vb petroli", "Comune": "TORRE DEL GRECO", "idImpianto": 49084, "points": [{"type": "Feature", "properties": {}, "geometry": {"type": "Point", "coordinates": [14.371714065080177, 40.789573259869634]}}], "price": 1.859, "ultima_rilevazione": "26/05/2022 08:11:37"}, {"Gestore": "VITIELLO CIRO", "Bandiera": "Q8", "Tipo impianto": "Altro", "Indirizzo": "VIA DELLE REPUBBLICHE MARINARE 295 80146", "Nome impianto": "STAZIONE DI SERVIZIO Q8 di VITIELLO CIRO", "Comune": "NAPOLI", "idImpianto": 46689, "points": [{"type": "Feature", "properties": {}, "geometry": {"type": "Point", "coordinates": [14.315652205890729, 40.83684850871609]}}], "price": 1.899, "ultima_rilevazione": "26/05/2022 08:13:28"}, {"Gestore": "GENNY PETROLI DI SANTANASTASIA GENNARO S.A.S.", "Bandiera": "Total Erg", "Tipo impianto": "Altro", "Indirizzo": "VIA DELLE REPUBBLICHE MARINARE 0 80146", "Nome impianto": "ERG", "Comune": "NAPOLI", "idImpianto": 39068, "points": [{"type": "Feature", "properties": {}, "geometry": {"type": "Point", "coordinates": [14.319584369659424, 40.83308916199512]}}], "price": 1.889, "ultima_rilevazione": "27/05/2022 06:32:17"}, {"Gestore": "FIORENTINO CARBURANTI S.A.S. DI FIORENTINO MARILENA", "Bandiera": "Q8", "Tipo impianto": "Altro", "Indirizzo": "via luigi volpicella 411 80142", "Nome impianto": "DISTRIBUTORE Q8", "Comune": "NAPOLI", "idImpianto": 48414, "points": [{"type": "Feature", "properties": {}, "geometry": {"type": "Point", "coordinates": [14.323330202083584, 40.84838010169506]}}], "price": 1.829, "ultima_rilevazione": "27/05/2022 07:10:16"}, {"Gestore": "MARANO E BORRELLI S.R.L.", "Bandiera": "Pompe Bianche", "Tipo impianto": "Altro", "Indirizzo": "VIA BARTOLO LONGO SNC 80147", "Nome impianto": "Ip V. Bartolo Longo", "Comune": "NAPOLI", "idImpianto": 39906, "points": [{"type": "Feature", "properties": {}, "geometry": {"type": "Point", "coordinates": [14.33407299220562, 40.8489176571844]}}], "price": 1.899, "ultima_rilevazione": "27/05/2022 11:51:25"}, {"Gestore": "CLAJL DI DI MAIO GAETANO", "Bandiera": "Api-Ip", "Tipo impianto": "Altro", "Indirizzo": "VIA DELLA PACE  80040", "Nome impianto": "CLAJL DI DI MAIO GAETANO", "Comune": "SAN SEBASTIANO AL VESUVIO", "idImpianto": 15976, "points": [{"type": "Feature", "properties": {}, "geometry": {"type": "Point", "coordinates": [14.362389743328094, 40.8439104946054]}}], "price": 1.919, "ultima_rilevazione": "27/05/2022 14:26:47"}, {"Gestore": "LUCARELLA ROSA PETROLI", "Bandiera": "Esso", "Tipo impianto": "Altro", "Indirizzo": "via del commercio snc 80059", "Nome impianto": "stazione di servizio esso lucarella", "Comune": "TORRE DEL GRECO", "idImpianto": 12189, "points": [{"type": "Feature", "properties": {}, "geometry": {"type": "Point", "coordinates": [14.358681589365004, 40.79220939502857]}}], "price": 1.899, "ultima_rilevazione": "27/05/2022 15:39:58"}, {"Gestore": "SANNINO PETROLI S.R.L. ", "Bandiera": "Pompe Bianche", "Tipo impianto": "Altro", "Indirizzo": "VIA A.MANZONI 72 80046", "Nome impianto": "SP PETROLI SAN GIORGIO", "Comune": "SAN GIORGIO A CREMANO", "idImpianto": 30477, "points": [{"type": "Feature", "properties": {}, "geometry": {"type": "Point", "coordinates": [14.343853182764065, 40.83596353231729]}}], "price": 1.849, "ultima_rilevazione": "27/05/2022 15:55:41"}, {"Gestore": "DEL GATTO LUCA", "Bandiera": "Q8", "Tipo impianto": "Altro", "Indirizzo": "VIA GUGLIELMO MARCONI 61 80059", "Nome impianto": "Del Gatto Luca -Q8", "Comune": "TORRE DEL GRECO", "idImpianto": 35664, "points": [{"type": "Feature", "properties": {}, "geometry": {"type": "Point", "coordinates": [14.373119921634723, 40.79493791968526]}}], "price": 1.909, "ultima_rilevazione": "27/05/2022 19:54:16"}, {"Gestore": "SERVIZI & GESTIONI ITALIA S.R.L.", "Bandiera": "Q8", "Tipo impianto": "Altro", "Indirizzo": "VIA MANZONI  80046", "Nome impianto": "SAN GIORGIO A CREMANO VIA MANZONI", "Comune": "SAN GIORGIO A CREMANO", "idImpianto": 24046, "points": [{"type": "Feature", "properties": {}, "geometry": {"type": "Point", "coordinates": [14.342639841733558, 40.83816315925255]}}], "price": 1.869, "ultima_rilevazione": "28/05/2022 02:06:36"}, {"Gestore": "SERVIZI & GESTIONI ITALIA S.R.L.", "Bandiera": "Q8", "Tipo impianto": "Altro", "Indirizzo": "VIA B. COZZOLINO 101 80056", "Nome impianto": "ERCOLANO VIA B. COZZOLINO, 101", "Comune": "ERCOLANO", "idImpianto": 25008, "points": [{"type": "Feature", "properties": {}, "geometry": {"type": "Point", "coordinates": [14.3705156583012, 40.80445606762352]}}], "price": 1.864, "ultima_rilevazione": "28/05/2022 02:06:40"}, {"Gestore": "SERVIZI & GESTIONI ITALIA S.R.L.", "Bandiera": "Q8", "Tipo impianto": "Altro", "Indirizzo": "VIA REP. MARINARE  80146", "Nome impianto": "NAPOLI V.REP.MARINARE", "Comune": "NAPOLI", "idImpianto": 25792, "points": [{"type": "Feature", "properties": {}, "geometry": {"type": "Point", "coordinates": [14.31483351600798, 40.83676195375583]}}], "price": 1.879, "ultima_rilevazione": "28/05/2022 02:39:00"}, {"Gestore": "SERVIZI & GESTIONI ITALIA S.R.L.", "Bandiera": "Q8", "Tipo impianto": "Altro", "Indirizzo": "VIA REPUBBLICHE MARINARE 392 80146", "Nome impianto": "NAPOLI-VIA REPUBBLICHE MARINARE 392", "Comune": "NAPOLI", "idImpianto": 11734, "points": [{"type": "Feature", "properties": {}, "geometry": {"type": "Point", "coordinates": [14.320937550926146, 40.831767528857256]}}], "price": 1.919, "ultima_rilevazione": "28/05/2022 07:35:36"}, {"Gestore": "ZEUS PETROL SOCIETA' A RESPONSABILITA' LIMITATA", "Bandiera": "Pompe Bianche", "Tipo impianto": "Altro", "Indirizzo": "VIA LIBERTA' 47 80040", "Nome impianto": "ZEUS PETROL S.R.L", "Comune": "SAN SEBASTIANO AL VESUVIO", "idImpianto": 42447, "points": [{"type": "Feature", "properties": {}, "geometry": {"type": "Point", "coordinates": [14.361203682208952, 40.84813394210836]}}], "price": 1.899, "ultima_rilevazione": "28/05/2022 08:35:30"}, {"Gestore": "ROMANO LUCIA", "Bandiera": "Tamoil", "Tipo impianto": "Altro", "Indirizzo": "VIA EUROPA 26 80040", "Nome impianto": "TAMOIL di Romano Lucia", "Comune": "CERCOLA", "idImpianto": 34266, "points": [{"type": "Feature", "properties": {}, "geometry": {"type": "Point", "coordinates": [14.35477368832585, 40.85084286591616]}}], "price": 1.928, "ultima_rilevazione": "28/05/2022 11:02:02"}, {"Gestore": "IP SERVICES S.R.L.", "Bandiera": "Api-Ip", "Tipo impianto": "Altro", "Indirizzo": "VIA EUROPA SNC 80040", "Nome impianto": "CERCOLA - EUROPA", "Comune": "CERCOLA", "idImpianto": 24256, "points": [{"type": "Feature", "properties": {}, "geometry": {"type": "Point", "coordinates": [14.356618775463176, 40.85036956684552]}}], "price": 1.919, "ultima_rilevazione": "28/05/2022 12:01:30"}, {"Gestore": "IP SERVICES S.R.L.", "Bandiera": "Api-Ip", "Tipo impianto": "Altro", "Indirizzo": "via Volpicella 45 80147", "Nome impianto": "VOLPICELLA", "Comune": "NAPOLI", "idImpianto": 5531, "points": [{"type": "Feature", "properties": {}, "geometry": {"type": "Point", "coordinates": [14.32532441182775, 40.849239502862]}}], "price": 1.909, "ultima_rilevazione": "28/05/2022 12:05:01"}, {"Gestore": "VENUSO SALVATORE", "Bandiera": "Tamoil", "Tipo impianto": "Altro", "Indirizzo": "VIA LUIGI VOLPICELLA 208 80147", "Nome impianto": "Distributore Tamoil Impianto 8332", "Comune": "NAPOLI", "idImpianto": 13092, "points": [{"type": "Feature", "properties": {}, "geometry": {"type": "Point", "coordinates": [14.312672622965238, 40.84594326102288]}}], "price": 1.919, "ultima_rilevazione": "28/05/2022 14:02:10"}, {"Gestore": "MARANO E BORRELLI S.R.L.", "Bandiera": "Api-Ip", "Tipo impianto": "Altro", "Indirizzo": "VIA BARTOLO LONGO ANGOLO V. MORMONE 347 80147", "Nome impianto": "IP B.LONGO ANGOLO V. MORMONE", "Comune": "NAPOLI", "idImpianto": 43420, "points": [{"type": "Feature", "properties": {}, "geometry": {"type": "Point", "coordinates": [14.340875682209004, 40.841399970848]}}], "price": 1.899, "ultima_rilevazione": "28/05/2022 19:42:38"}], "5": [{"Gestore": "SAVI SRL", "Bandiera": "Esso", "Tipo impianto": "Altro", "Indirizzo": "CORSO ARNALDO LUCCI SNC 80142", "Nome impianto": "ESSO", "Comune": "NAPOLI", "idImpianto": 45642, "points": [{"type": "Feature", "properties": {}, "geometry": {"type": "Point", "coordinates": [14.27675506497394, 40.84767418029747]}}], "price": 1.689, "ultima_rilevazione": "13/10/2021 12:17:24"}, {"Gestore": "BENE DOMENICO S.R.L.", "Bandiera": "Agip Eni", "Tipo impianto": "Altro", "Indirizzo": "VIA GARIBALDI 85 80040", "Nome impianto": "ENI", "Comune": "POLLENA TROCCHIA", "idImpianto": 41900, "points": [{"type": "Feature", "properties": {}, "geometry": {"type": "Point", "coordinates": [14.372101351618769, 40.86402024469228]}}], "price": 1.694, "ultima_rilevazione": "05/11/2021 11:35:06"}, {"Gestore": "SC. OIL S.R.L.S.", "Bandiera": "Pompe Bianche", "Tipo impianto": "Altro", "Indirizzo": "VIA EMANUELE GIANTURCO  78 80146", "Nome impianto": "SC. OIL ", "Comune": "NAPOLI", "idImpianto": 41371, "points": [{"type": "Feature", "properties": {}, "geometry": {"type": "Point", "coordinates": [14.288355434862751, 40.84786299922204]}}], "price": 2.179, "ultima_rilevazione": "19/05/2022 20:18:55"}, {"Gestore": "SA.FR.A. FUEL TRADING S.R.L.", "Bandiera": "Lukoil", "Tipo impianto": "Altro", "Indirizzo": "VIA GALILEO FERRARIS 1/A 80142", "Nome impianto": "LUDOIL", "Comune": "NAPOLI", "idImpianto": 36512, "points": [{"type": "Feature", "properties": {}, "geometry": {"type": "Point", "coordinates": [14.278401732444763, 40.85017557683085]}}], "price": 1.869, "ultima_rilevazione": "23/05/2022 07:47:22"}, {"Gestore": "ASCHETTINO DOMENICO", "Bandiera": "Esso", "Tipo impianto": "Altro", "Indirizzo": "VIA ARGINE 875 80147", "Nome impianto": "ESSO", "Comune": "NAPOLI", "idImpianto": 33559, "points": [{"type": "Feature", "properties": {}, "geometry": {"type": "Point", "coordinates": [14.33246299624443, 40.860406445681946]}}], "price": 1.859, "ultima_rilevazione": "23/05/2022 10:36:23"}, {"Gestore": "MYLTON  S.R.L.", "Bandiera": "Pompe Bianche", "Tipo impianto": "Altro", "Indirizzo": "VIA ARGINE 336 80147", "Nome impianto": "MYLTON S.R.L.", "Comune": "NAPOLI", "idImpianto": 14328, "points": [{"type": "Feature", "properties": {}, "geometry": {"type": "Point", "coordinates": [14.309363812208176, 40.84985379511883]}}], "price": 1.849, "ultima_rilevazione": "23/05/2022 10:41:39"}, {"Gestore": "BARBERIO CIRO", "Bandiera": "Pompe Bianche", "Tipo impianto": "Altro", "Indirizzo": "VIA PONTE DEI GRANILI 5 80146", "Nome impianto": "BFUELCARBURANTI di BARBERIO CIRO", "Comune": "NAPOLI", "idImpianto": 50375, "points": [{"type": "Feature", "properties": {}, "geometry": {"type": "Point", "coordinates": [14.29263822734356, 40.840508256893045]}}], "price": 1.899, "ultima_rilevazione": "23/05/2022 17:27:25"}, {"Gestore": "BUONICONTI MARIA", "Bandiera": "Esso", "Tipo impianto": "Altro", "Indirizzo": "Via Emanuele Gianturco 123 80143", "Nome impianto": "Impianto ESSO Buoniconti Maria", "Comune": "NAPOLI", "idImpianto": 32813, "points": [{"type": "Feature", "properties": {}, "geometry": {"type": "Point", "coordinates": [14.288100868987158, 40.85626242562899]}}], "price": 2.048, "ultima_rilevazione": "24/05/2022 09:46:45"}, {"Gestore": "BORRELLI RAFFAELE", "Bandiera": "Esso", "Tipo impianto": "Altro", "Indirizzo": "VIA C. DE MEIS 1 80147", "Nome impianto": "BORRELLI RAFFAELE", "Comune": "NAPOLI", "idImpianto": 12899, "points": [{"type": "Feature", "properties": {}, "geometry": {"type": "Point", "coordinates": [14.32946428656578, 40.85078302173115]}}], "price": 1.869, "ultima_rilevazione": "25/05/2022 07:52:28"}, {"Gestore": "AMBROSINO GIOVANNI", "Bandiera": "Q8", "Tipo impianto": "Altro", "Indirizzo": "VIA EMANUELE GIANTURCO P.V. Q8  80142", "Nome impianto": "Q8", "Comune": "NAPOLI", "idImpianto": 17301, "points": [{"type": "Feature", "properties": {}, "geometry": {"type": "Point", "coordinates": [14.288224699697594, 40.85536601779113]}}], "price": 1.914, "ultima_rilevazione": "25/05/2022 09:26:25"}, {"Gestore": "ST OIL S.R.L.", "Bandiera": "Pompe Bianche", "Tipo impianto": "Altro", "Indirizzo": "VIA DON MINZONI 7 80040", "Nome impianto": "ST OIL", "Comune": "CERCOLA", "idImpianto": 37106, "points": [{"type": "Feature", "properties": {}, "geometry": {"type": "Point", "coordinates": [14.356422415977477, 40.86312612982553]}}], "price": 1.859, "ultima_rilevazione": "25/05/2022 12:22:36"}, {"Gestore": "ZACCARO MARIA & C.  S.A.S.", "Bandiera": "Q8", "Tipo impianto": "Altro", "Indirizzo": "VIA DELLE REPUBBLICHE MARINARE  7/11 80147", "Nome impianto": "ZACCARO MARIA & C. SAS", "Comune": "NAPOLI", "idImpianto": 36261, "points": [{"type": "Feature", "properties": {}, "geometry": {"type": "Point", "coordinates": [14.30244217668644, 40.84555651635302]}}], "price": 1.939, "ultima_rilevazione": "25/05/2022 13:29:54"}, {"Gestore": "E' - OIL GROUP S.R.L.", "Bandiera": "Pompe Bianche", "Tipo impianto": "Altro", "Indirizzo": "VIA Galileo Ferraris  119 80146", "Nome impianto": "E-OIL (Ferraris)", "Comune": "NAPOLI", "idImpianto": 40652, "points": [{"type": "Feature", "properties": {}, "geometry": {"type": "Point", "coordinates": [14.288941472768784, 40.84985744710176]}}], "price": 1.859, "ultima_rilevazione": "25/05/2022 14:30:11"}, {"Gestore": "ZENO CIRO", "Bandiera": "Pompe Bianche", "Tipo impianto": "Altro", "Indirizzo": "VIALE CAMPANIA SNC 80059", "Nome impianto": "ZENO CIRO", "Comune": "TORRE DEL GRECO", "idImpianto": 33454, "points": [{"type": "Feature", "properties": {}, "geometry": {"type": "Point", "coordinates": [14.378451013833455, 40.7806874836955]}}], "price": 1.879, "ultima_rilevazione": "26/05/2022 08:55:40"}, {"Gestore": "PENTA PETROLI SRL", "Bandiera": "Pompe Bianche", "Tipo impianto": "Altro", "Indirizzo": "VIA BOTEGHELLE SNC 80147", "Nome impianto": "EWA BOTTEGHELLE", "Comune": "NAPOLI", "idImpianto": 32722, "points": [{"type": "Feature", "properties": {}, "geometry": {"type": "Point", "coordinates": [14.329226911067964, 40.86575556895068]}}], "price": 1.845, "ultima_rilevazione": "26/05/2022 09:38:56"}, {"Gestore": "DISTRIBUTORE ERG DI FLORIO ANTONIO", "Bandiera": "Pompe Bianche", "Tipo impianto": "Altro", "Indirizzo": "Via Reggia di Portici  87 80146", "Nome impianto": "Oil Parthenope", "Comune": "NAPOLI", "idImpianto": 15723, "points": [{"type": "Feature", "properties": {}, "geometry": {"type": "Point", "coordinates": [14.287926256656649, 40.84256155168131]}}], "price": 1.919, "ultima_rilevazione": "26/05/2022 10:31:47"}, {"Gestore": "MASI VITO", "Bandiera": "Agip Eni", "Tipo impianto": "Altro", "Indirizzo": "VIA E.GIANTURCO 114 80142", "Nome impianto": "masi vito", "Comune": "NAPOLI", "idImpianto": 16846, "points": [{"type": "Feature", "properties": {}, "geometry": {"type": "Point", "coordinates": [14.288344113215317, 40.84787307234628]}}], "price": 1.909, "ultima_rilevazione": "27/05/2022 06:25:33"}, {"Gestore": "A.D. FUEL - SOCIETA' A RESPONSABILITA' LIMITATA SEMPLIFICATA", "Bandiera": "MyOil", "Tipo impianto": "Altro", "Indirizzo": "via gianturco  100 80142", "Nome impianto": "my oil", "Comune": "NAPOLI", "idImpianto": 49044, "points": [{"type": "Feature", "properties": {}, "geometry": {"type": "Point", "coordinates": [14.28933217112653, 40.85128366053975]}}], "price": 1.899, "ultima_rilevazione": "27/05/2022 14:24:01"}, {"Gestore": "ORGANIZZAZIONE SERVIZI AUTO - O.S.A. - S.P.A.", "Bandiera": "Esso", "Tipo impianto": "Altro", "Indirizzo": "VIA GALILEO FERRARIS 44/48 80142", "Nome impianto": "ESSO - G.FERRARIS", "Comune": "NAPOLI", "idImpianto": 48999, "points": [{"type": "Feature", "properties": {}, "geometry": {"type": "Point", "coordinates": [14.27604404038709, 40.85030964996206]}}], "price": 1.899, "ultima_rilevazione": "27/05/2022 15:18:00"}, {"Gestore": "ORGANIZZAZIONE SERVIZI AUTO - O.S.A. - S.P.A.", "Bandiera": "Esso", "Tipo impianto": "Altro", "Indirizzo": "VIA FERRANTE IMPARATO 451/457 80146", "Nome impianto": "ESSO - V.IMPARATO", "Comune": "NAPOLI", "idImpianto": 49000, "points": [{"type": "Feature", "properties": {}, "geometry": {"type": "Point", "coordinates": [14.298449404692333, 40.85789294565131]}}], "price": 1.889, "ultima_rilevazione": "27/05/2022 15:22:04"}, {"Gestore": "SERVIZI & GESTIONI ITALIA srl", "Bandiera": "Q8", "Tipo impianto": "Altro", "Indirizzo": "P.ZA S. ERASMO IMPIANTO Q8 SNC 80142", "Nome impianto": "NAPOLI P.ZA S. ERASMO IMPIANTO Q8", "Comune": "NAPOLI", "idImpianto": 6836, "points": [{"type": "Feature", "properties": {}, "geometry": {"type": "Point", "coordinates": [14.283217930688464, 40.84445816205204]}}], "price": 1.919, "ultima_rilevazione": "28/05/2022 02:06:34"}, {"Gestore": "SERVIZI & GESTIONI ITALIA S.R.L.", "Bandiera": "Q8", "Tipo impianto": "Altro", "Indirizzo": "VIA NAZIONALE 232 80059", "Nome impianto": "TORRE DEL GRECO VIA NAZIONALE,232", "Comune": "TORRE DEL GRECO", "idImpianto": 25140, "points": [{"type": "Feature", "properties": {}, "geometry": {"type": "Point", "coordinates": [14.3867676705122, 40.77905654087164]}}], "price": 1.889, "ultima_rilevazione": "28/05/2022 02:06:35"}, {"Gestore": "SERVIZI & GESTIONI ITALIA srl", "Bandiera": "Q8", "Tipo impianto": "Altro", "Indirizzo": "VIA NAZIONALE 233 80059", "Nome impianto": "TORRE DEL GRECO VIA NAZIONALE  233 - IMP. Q8", "Comune": "TORRE DEL GRECO", "idImpianto": 6704, "points": [{"type": "Feature", "properties": {}, "geometry": {"type": "Point", "coordinates": [14.387906467674384, 40.77828314556314]}}], "price": 1.889, "ultima_rilevazione": "28/05/2022 02:06:36"}, {"Gestore": "SERVIZI & GESTIONI ITALIA S.R.L.", "Bandiera": "Q8", "Tipo impianto": "Altro", "Indirizzo": "G. FERRARIS 172 80147", "Nome impianto": "NAPOLI G. FERRARIS 172", "Comune": "NAPOLI", "idImpianto": 26018, "points": [{"type": "Feature", "properties": {}, "geometry": {"type": "Point", "coordinates": [14.298712766270455, 40.84657667223769]}}], "price": 1.929, "ultima_rilevazione": "28/05/2022 02:06:40"}, {"Gestore": "ENI FUEL S.P.A.", "Bandiera": "Agip Eni", "Tipo impianto": "Altro", "Indirizzo": "Via Volta 31 80142", "Nome impianto": "28061 \u2013 Napoli Volta", "Comune": "NAPOLI", "idImpianto": 49635, "points": [{"type": "Feature", "properties": {}, "geometry": {"type": "Point", "coordinates": [14.279558878732132, 40.84557216349965]}}], "price": 1.909, "ultima_rilevazione": "28/05/2022 06:46:08"}, {"Gestore": "CARRARA PIETRO", "Bandiera": "Q8", "Tipo impianto": "Altro", "Indirizzo": "via emanuele gianturco frcv. 79 80142", "Nome impianto": "staz. servizio. q8 ", "Comune": "NAPOLI", "idImpianto": 17155, "points": [{"type": "Feature", "properties": {}, "geometry": {"type": "Point", "coordinates": [14.289340482265288, 40.85030685074771]}}], "price": 1.929, "ultima_rilevazione": "28/05/2022 07:19:27"}, {"Gestore": "NUOVA CARBURANTI  S.R.L.", "Bandiera": "Api-Ip", "Tipo impianto": "Altro", "Indirizzo": "via Reggia di Portici 87 80143", "Nome impianto": "Nuova Carburanti s.r.l.", "Comune": "NAPOLI", "idImpianto": 35416, "points": [{"type": "Feature", "properties": {}, "geometry": {"type": "Point", "coordinates": [14.286752104134166, 40.842934030131154]}}], "price": 1.959, "ultima_rilevazione": "28/05/2022 08:02:17"}, {"Gestore": "MG PETROLI SRL", "Bandiera": "Pompe Bianche", "Tipo impianto": "Altro", "Indirizzo": "Via ferrante imparato  251 80100", "Nome impianto": "MG PETROLI SRL", "Comune": "NAPOLI", "idImpianto": 38466, "points": [{"type": "Feature", "properties": {}, "geometry": {"type": "Point", "coordinates": [14.300307557191672, 40.84801174483866]}}], "price": 1.879, "ultima_rilevazione": "28/05/2022 09:34:39"}, {"Gestore": "DELTA PETROLI S.R.L.", "Bandiera": "Total Erg", "Tipo impianto": "Altro", "Indirizzo": "Via Cavallo snc 80059", "Nome impianto": "Ghepardoil (TDG)", "Comune": "TORRE DEL GRECO", "idImpianto": 28198, "points": [{"type": "Feature", "properties": {}, "geometry": {"type": "Point", "coordinates": [14.381765350699425, 40.78967721869456]}}], "price": 1.93, "ultima_rilevazione": "28/05/2022 10:36:54"}, {"Gestore": "T.D.M. S.R.L.", "Bandiera": "Tamoil", "Tipo impianto": "Altro", "Indirizzo": "VIA ARGINE  8 80147", "Nome impianto": "8336", "Comune": "NAPOLI", "idImpianto": 41142, "points": [{"type": "Feature", "properties": {}, "geometry": {"type": "Point", "coordinates": [14.322723224759102, 40.85602661816269]}}], "price": 1.879, "ultima_rilevazione": "28/05/2022 11:16:07"}, {"Gestore": "PETROLJ - SOCIETA' A RESPONSABILITA' LIMITATA", "Bandiera": "Esso", "Tipo impianto": "Altro", "Indirizzo": "via Galileo Ferraris 128 80144", "Nome impianto": "Esso 6629", "Comune": "NAPOLI", "idImpianto": 33027, "points": [{"type": "Feature", "properties": {}, "geometry": {"type": "Point", "coordinates": [14.28947512925265, 40.84943369791054]}}], "price": 1.889, "ultima_rilevazione": "28/05/2022 11:55:51"}, {"Gestore": "IP SERVICES S.R.L.", "Bandiera": "Api-Ip", "Tipo impianto": "Altro", "Indirizzo": "VIA FERRANTE IMPARATO 439 80146", "Nome impianto": "NAPOLI - FERRANTE IMPARATO", "Comune": "NAPOLI", "idImpianto": 30323, "points": [{"type": "Feature", "properties": {}, "geometry": {"type": "Point", "coordinates": [14.298689271163994, 40.85680811472159]}}], "price": 1.909, "ultima_rilevazione": "28/05/2022 12:01:31"}, {"Gestore": "IP SERVICES S.R.L.", "Bandiera": "Api-Ip", "Tipo impianto": "Altro", "Indirizzo": "VIA ARGINE 360 80100", "Nome impianto": "NAPOLI - ARGINE 360", "Comune": "NAPOLI", "idImpianto": 33373, "points": [{"type": "Feature", "properties": {}, "geometry": {"type": "Point", "coordinates": [14.311264157295229, 40.8505598461994]}}], "price": 1.909, "ultima_rilevazione": "28/05/2022 12:01:32"}, {"Gestore": "IP SERVICES S.R.L.", "Bandiera": "Api-Ip", "Tipo impianto": "Altro", "Indirizzo": "TRAVERSA VICINALE FOSSITELLI  80147", "Nome impianto": "NAPOLI - VICINALE FOSSITELLI", "Comune": "NAPOLI", "idImpianto": 33545, "points": [{"type": "Feature", "properties": {}, "geometry": {"type": "Point", "coordinates": [14.3144239067459, 40.8510773751301]}}], "price": 1.909, "ultima_rilevazione": "28/05/2022 12:02:33"}, {"Gestore": "IP SERVICES S.R.L.", "Bandiera": "Api-Ip", "Tipo impianto": "Altro", "Indirizzo": "S.S. 268 DEL VESUVIO KM. 1,149  80040", "Nome impianto": "POLLENA TROCCHIA", "Comune": "POLLENA TROCCHIA", "idImpianto": 39007, "points": [{"type": "Feature", "properties": {}, "geometry": {"type": "Point", "coordinates": [14.369633304368564, 40.870788608705766]}}], "price": 1.849, "ultima_rilevazione": "28/05/2022 12:03:13"}, {"Gestore": "AMENDOLA MAURIZIO", "Bandiera": "Pompe Bianche", "Tipo impianto": "Altro", "Indirizzo": "VIA MARIO PALERMO 53 80147", "Nome impianto": "MM Carburanti", "Comune": "NAPOLI", "idImpianto": 36133, "points": [{"type": "Feature", "properties": {}, "geometry": {"type": "Point", "coordinates": [14.321829378604887, 40.857455824856906]}}], "price": 1.899, "ultima_rilevazione": "28/05/2022 15:10:55"}]}, "Gasolio": {"1": [{"Gestore": "A 5 PETROLI S.R.L.", "Bandiera": "Pompe Bianche", "Tipo impianto": "Altro", "Indirizzo": "VIA SACERDOTE B. COZZOLINO SNC 80056", "Nome impianto": "A5", "Comune": "ERCOLANO", "idImpianto": 14708, "points": [{"type": "Feature", "properties": {}, "geometry": {"type": "Point", "coordinates": [14.360169544816015, 40.83495010160629]}}], "price": 1.749, "ultima_rilevazione": "20/05/2022 17:28:45"}, {"Gestore": "B.G. PETROLI S.A.S. DI BORRIELLO VINCENZO & C.", "Bandiera": "Esso", "Tipo impianto": "Altro", "Indirizzo": "VIA PANORAMICA 97 80056", "Nome impianto": "B.G.PETROLI SAS", "Comune": "ERCOLANO", "idImpianto": 35860, "points": [{"type": "Feature", "properties": {}, "geometry": {"type": "Point", "coordinates": [14.357177761376988, 40.81022332802966]}}], "price": 1.829, "ultima_rilevazione": "03/05/2022 07:56:25"}, {"Gestore": "A.G. CARBURANTI S.R.L.S.", "Bandiera": "Pompe Bianche", "Tipo impianto": "Altro", "Indirizzo": "CORSO SAN GIOVANI A TEDUCCIO  904 80146", "Nome impianto": "SAN GIOVANNI", "Comune": "NAPOLI", "idImpianto": 50925, "points": [{"type": "Feature", "properties": {}, "geometry": {"type": "Point", "coordinates": [14.315750078909794, 40.82656931895564]}}], "price": 1.799, "ultima_rilevazione": "03/05/2022 10:11:39"}, {"Gestore": "N.D. CARBURANTI S.A.S. DI AGOSTINO NOCERINO", "Bandiera": "Agip Eni", "Tipo impianto": "Altro", "Indirizzo": "VIA ARMANDO DIAZ 45 80055", "Nome impianto": "ENI Station PORTICI", "Comune": "PORTICI", "idImpianto": 33969, "points": [{"type": "Feature", "properties": {}, "geometry": {"type": "Point", "coordinates": [14.335999553987676, 40.81948243070002]}}], "price": 1.999, "ultima_rilevazione": "23/05/2022 08:06:19"}, {"Gestore": "LUCARELLA CAFFE'' S.R.L.", "Bandiera": "Esso", "Tipo impianto": "Altro", "Indirizzo": "VIA SAC. B. COZZOLINO 65 80056", "Nome impianto": "LUCARELLA SRL CARBURANTI", "Comune": "ERCOLANO", "idImpianto": 38830, "points": [{"type": "Feature", "properties": {}, "geometry": {"type": "Point", "coordinates": [14.366487488150597, 40.814823003077045]}}], "price": 1.777, "ultima_rilevazione": "23/05/2022 12:20:15"}, {"Gestore": "PICCOLO FRANCESCO", "Bandiera": "Q8", "Tipo impianto": "Altro", "Indirizzo": "VIA SAC. BENEDETTO COZZOLINO 10 80056", "Nome impianto": "Q8", "Comune": "ERCOLANO", "idImpianto": 43948, "points": [{"type": "Feature", "properties": {}, "geometry": {"type": "Point", "coordinates": [14.357609565641384, 40.83115682467383]}}], "price": 1.819, "ultima_rilevazione": "23/05/2022 12:55:48"}, {"Gestore": "PALOMBA GIUSEPPE", "Bandiera": "Pompe Bianche", "Tipo impianto": "Altro", "Indirizzo": "via san vito 10 80056", "Nome impianto": "easyfuel", "Comune": "ERCOLANO", "idImpianto": 41168, "points": [{"type": "Feature", "properties": {}, "geometry": {"type": "Point", "coordinates": [14.36386029447749, 40.8190151939431]}}], "price": 1.839, "ultima_rilevazione": "24/05/2022 15:08:20"}, {"Gestore": "SCHERILLO GIOVANNI", "Bandiera": "Pompe Bianche", "Tipo impianto": "Altro", "Indirizzo": "largo arso 41 80046", "Nome impianto": "Unoil ( ex Esso )", "Comune": "SAN GIORGIO A CREMANO", "idImpianto": 36466, "points": [{"type": "Feature", "properties": {}, "geometry": {"type": "Point", "coordinates": [14.330108392620332, 40.82580604967606]}}], "price": 1.929, "ultima_rilevazione": "25/05/2022 10:31:03"}, {"Gestore": "3L PETROLI S.R.L.", "Bandiera": "Pompe Bianche", "Tipo impianto": "Altro", "Indirizzo": "VIA ANTONIO GRAMSCI 21 80056", "Nome impianto": "3L PETROLI SRL", "Comune": "ERCOLANO", "idImpianto": 50396, "points": [{"type": "Feature", "properties": {}, "geometry": {"type": "Point", "coordinates": [14.358969293479788, 40.81093159812765]}}], "price": 1.769, "ultima_rilevazione": "26/05/2022 07:21:18"}, {"Gestore": "VESUVIANA PETROLI S.R.L.", "Bandiera": "Pompe Bianche", "Tipo impianto": "Altro", "Indirizzo": "VIA PATACCA  SNC 80056", "Nome impianto": "VESUVIANA PETROLI SRL ", "Comune": "ERCOLANO", "idImpianto": 47406, "points": [{"type": "Feature", "properties": {}, "geometry": {"type": "Point", "coordinates": [14.34814453125, 40.808092514169225]}}], "price": 1.789, "ultima_rilevazione": "26/05/2022 09:29:57"}, {"Gestore": "P.PETROLI SRL", "Bandiera": "Pompe Bianche", "Tipo impianto": "Altro", "Indirizzo": "CORSO G. GARIBALDI SNC 80055", "Nome impianto": "P.PETROLI - Portici", "Comune": "PORTICI", "idImpianto": 47612, "points": [{"type": "Feature", "properties": {}, "geometry": {"type": "Point", "coordinates": [14.324789778647755, 40.82189479630672]}}], "price": 1.799, "ultima_rilevazione": "26/05/2022 12:49:45"}, {"Gestore": "ROMINO MASSIMO", "Bandiera": "Api-Ip", "Tipo impianto": "Altro", "Indirizzo": "VIA PANORAMICA 2 80056", "Nome impianto": "TOTALERG", "Comune": "ERCOLANO", "idImpianto": 38660, "points": [{"type": "Feature", "properties": {}, "geometry": {"type": "Point", "coordinates": [14.35413208808086, 40.80853514880448]}}], "price": 1.799, "ultima_rilevazione": "27/05/2022 15:34:22"}, {"Gestore": "SANNINO PETROLI S.R.L. ", "Bandiera": "Madogas Natural Energy", "Tipo impianto": "Altro", "Indirizzo": "VIA MARITTIMA 44 80055", "Nome impianto": "SP PETROLI -PORTICI", "Comune": "PORTICI", "idImpianto": 48824, "points": [{"type": "Feature", "properties": {}, "geometry": {"type": "Point", "coordinates": [14.33923977862085, 40.80719118511784]}}], "price": 1.789, "ultima_rilevazione": "27/05/2022 15:55:34"}, {"Gestore": "EASY SERVICE S.R.L.", "Bandiera": "Energas", "Tipo impianto": "Altro", "Indirizzo": "Via Aveta  snc 80056", "Nome impianto": "Easy service Ercolano ", "Comune": "ERCOLANO", "idImpianto": 35680, "points": [{"type": "Feature", "properties": {}, "geometry": {"type": "Point", "coordinates": [14.358646720647812, 40.80844738718757]}}], "price": 1.769, "ultima_rilevazione": "27/05/2022 17:35:04"}, {"Gestore": "SERVIZI & GESTIONI ITALIA srl", "Bandiera": "Q8", "Tipo impianto": "Altro", "Indirizzo": "VIA DEGLI ULIVI SNC 80056", "Nome impianto": "ERCOLANO VIA DEGLI ULIVI", "Comune": "ERCOLANO", "idImpianto": 6702, "points": [{"type": "Feature", "properties": {}, "geometry": {"type": "Point", "coordinates": [14.356227699999977, 40.81446484078589]}}], "price": 1.779, "ultima_rilevazione": "28/05/2022 02:06:35"}, {"Gestore": "MADONNA GIUSEPPE", "Bandiera": "Energas", "Tipo impianto": "Altro", "Indirizzo": "VIA BENEDETTO COZZOLINO 66 80056", "Nome impianto": "ENERGAS", "Comune": "ERCOLANO", "idImpianto": 44395, "points": [{"type": "Feature", "properties": {}, "geometry": {"type": "Point", "coordinates": [14.356550574302672, 40.82674310725152]}}], "price": 1.799, "ultima_rilevazione": "28/05/2022 18:08:58"}, {"Gestore": "STAZIONE I.P. DI DE LUCA ALFONSO", "Bandiera": "Agip Eni", "Tipo impianto": "Altro", "Indirizzo": "Via gianturco 26 80046", "Nome impianto": "Stazione eni De LUCA ALFONSO", "Comune": "SAN GIORGIO A CREMANO", "idImpianto": 32177, "points": [{"type": "Feature", "properties": {}, "geometry": {"type": "Point", "coordinates": [14.342876389306412, 40.83164723763404]}}], "price": 1.819, "ultima_rilevazione": "28/05/2022 20:38:40"}], "3": [{"Gestore": "NOCERINO RAFFAELE & FIGLI S.A.S. DI NOCERINO GIOVANNI", "Bandiera": "Agip Eni", "Tipo impianto": "Altro", "Indirizzo": "VIA MATTEOTTI 22 80040", "Nome impianto": "ENI NOCERINO ", "Comune": "SAN SEBASTIANO AL VESUVIO", "idImpianto": 15064, "points": [{"type": "Feature", "properties": {}, "geometry": {"type": "Point", "coordinates": [14.36795102209021, 40.84405217673461]}}], "price": 1.839, "ultima_rilevazione": "23/05/2022 08:07:44"}, {"Gestore": "STAZIONE DI SERVIZIO M.Y.L.T.O.N. PETROLI DI MOSCA MICHELE", "Bandiera": "Total Erg", "Tipo impianto": "Altro", "Indirizzo": "VIA ABBEVERATOIO 19 80147", "Nome impianto": "STAZIONE DI SERVIZIO M.Y.L.T.O.N. PETROLI DI MOSCA MICHELE]", "Comune": "NAPOLI", "idImpianto": 14323, "points": [{"type": "Feature", "properties": {}, "geometry": {"type": "Point", "coordinates": [14.322363713491768, 40.84832334843441]}}], "price": 1.799, "ultima_rilevazione": "23/05/2022 09:43:28"}, {"Gestore": "GUSMAI NICOLETTA", "Bandiera": "GB Petroli", "Tipo impianto": "Altro", "Indirizzo": "CORSO S. GIOVANNI 223 80146", "Nome impianto": "GB PETROLI", "Comune": "NAPOLI", "idImpianto": 39219, "points": [{"type": "Feature", "properties": {}, "geometry": {"type": "Point", "coordinates": [14.302663040810558, 40.83623565210759]}}], "price": 1.778, "ultima_rilevazione": "23/05/2022 15:47:51"}, {"Gestore": "DE FALCO MARIKA", "Bandiera": "Esso", "Tipo impianto": "Altro", "Indirizzo": "VIA DELLE REPUBBLICHE MARINARE 292  80146", "Nome impianto": "STAZIONE DI SERVIZIO ESSO", "Comune": "NAPOLI", "idImpianto": 45228, "points": [{"type": "Feature", "properties": {}, "geometry": {"type": "Point", "coordinates": [14.316577000123, 40.835269000123]}}], "price": 1.799, "ultima_rilevazione": "23/05/2022 16:57:39"}, {"Gestore": "ESPOSITO GIOVANNI", "Bandiera": "Api-Ip", "Tipo impianto": "Altro", "Indirizzo": "VIA G. MARCONI 53/55 80059", "Nome impianto": "DITTA ESPOSITO GIOVANNI", "Comune": "TORRE DEL GRECO", "idImpianto": 28062, "points": [{"type": "Feature", "properties": {}, "geometry": {"type": "Point", "coordinates": [14.372103118641917, 40.79390051824808]}}], "price": 1.829, "ultima_rilevazione": "25/05/2022 15:13:47"}, {"Gestore": "VB PETROLI DI VINCENZO BORRIELLO", "Bandiera": "Esso", "Tipo impianto": "Altro", "Indirizzo": "VIA CIRCUMVALLAZIONE 66 80059", "Nome impianto": "vb petroli", "Comune": "TORRE DEL GRECO", "idImpianto": 49084, "points": [{"type": "Feature", "properties": {}, "geometry": {"type": "Point", "coordinates": [14.371714065080177, 40.789573259869634]}}], "price": 1.759, "ultima_rilevazione": "26/05/2022 08:11:37"}, {"Gestore": "VITIELLO CIRO", "Bandiera": "Q8", "Tipo impianto": "Altro", "Indirizzo": "VIA DELLE REPUBBLICHE MARINARE 295 80146", "Nome impianto": "STAZIONE DI SERVIZIO Q8 di VITIELLO CIRO", "Comune": "NAPOLI", "idImpianto": 46689, "points": [{"type": "Feature", "properties": {}, "geometry": {"type": "Point", "coordinates": [14.315652205890729, 40.83684850871609]}}], "price": 1.879, "ultima_rilevazione": "26/05/2022 08:13:28"}, {"Gestore": "GENNY PETROLI DI SANTANASTASIA GENNARO S.A.S.", "Bandiera": "Total Erg", "Tipo impianto": "Altro", "Indirizzo": "VIA DELLE REPUBBLICHE MARINARE 0 80146", "Nome impianto": "ERG", "Comune": "NAPOLI", "idImpianto": 39068, "points": [{"type": "Feature", "properties": {}, "geometry": {"type": "Point", "coordinates": [14.319584369659424, 40.83308916199512]}}], "price": 1.789, "ultima_rilevazione": "27/05/2022 06:32:17"}, {"Gestore": "FIORENTINO CARBURANTI S.A.S. DI FIORENTINO MARILENA", "Bandiera": "Q8", "Tipo impianto": "Altro", "Indirizzo": "via luigi volpicella 411 80142", "Nome impianto": "DISTRIBUTORE Q8", "Comune": "NAPOLI", "idImpianto": 48414, "points": [{"type": "Feature", "properties": {}, "geometry": {"type": "Point", "coordinates": [14.323330202083584, 40.84838010169506]}}], "price": 1.789, "ultima_rilevazione": "27/05/2022 07:10:16"}, {"Gestore": "MARANO E BORRELLI S.R.L.", "Bandiera": "Pompe Bianche", "Tipo impianto": "Altro", "Indirizzo": "VIA BARTOLO LONGO SNC 80147", "Nome impianto": "Ip V. Bartolo Longo", "Comune": "NAPOLI", "idImpianto": 39906, "points": [{"type": "Feature", "properties": {}, "geometry": {"type": "Point", "coordinates": [14.33407299220562, 40.8489176571844]}}], "price": 1.839, "ultima_rilevazione": "27/05/2022 11:51:25"}, {"Gestore": "CLAJL DI DI MAIO GAETANO", "Bandiera": "Api-Ip", "Tipo impianto": "Altro", "Indirizzo": "VIA DELLA PACE  80040", "Nome impianto": "CLAJL DI DI MAIO GAETANO", "Comune": "SAN SEBASTIANO AL VESUVIO", "idImpianto": 15976, "points": [{"type": "Feature", "properties": {}, "geometry": {"type": "Point", "coordinates": [14.362389743328094, 40.8439104946054]}}], "price": 1.869, "ultima_rilevazione": "27/05/2022 14:26:47"}, {"Gestore": "LUCARELLA ROSA PETROLI", "Bandiera": "Esso", "Tipo impianto": "Altro", "Indirizzo": "via del commercio snc 80059", "Nome impianto": "stazione di servizio esso lucarella", "Comune": "TORRE DEL GRECO", "idImpianto": 12189, "points": [{"type": "Feature", "properties": {}, "geometry": {"type": "Point", "coordinates": [14.358681589365004, 40.79220939502857]}}], "price": 1.789, "ultima_rilevazione": "27/05/2022 15:39:58"}, {"Gestore": "SANNINO PETROLI S.R.L. ", "Bandiera": "Pompe Bianche", "Tipo impianto": "Altro", "Indirizzo": "VIA A.MANZONI 72 80046", "Nome impianto": "SP PETROLI SAN GIORGIO", "Comune": "SAN GIORGIO A CREMANO", "idImpianto": 30477, "points": [{"type": "Feature", "properties": {}, "geometry": {"type": "Point", "coordinates": [14.343853182764065, 40.83596353231729]}}], "price": 1.789, "ultima_rilevazione": "27/05/2022 15:55:41"}, {"Gestore": "DEL GATTO LUCA", "Bandiera": "Q8", "Tipo impianto": "Altro", "Indirizzo": "VIA GUGLIELMO MARCONI 61 80059", "Nome impianto": "Del Gatto Luca -Q8", "Comune": "TORRE DEL GRECO", "idImpianto": 35664, "points": [{"type": "Feature", "properties": {}, "geometry": {"type": "Point", "coordinates": [14.373119921634723, 40.79493791968526]}}], "price": 1.799, "ultima_rilevazione": "27/05/2022 19:54:16"}, {"Gestore": "SERVIZI & GESTIONI ITALIA S.R.L.", "Bandiera": "Q8", "Tipo impianto": "Altro", "Indirizzo": "VIA MANZONI  80046", "Nome impianto": "SAN GIORGIO A CREMANO VIA MANZONI", "Comune": "SAN GIORGIO A CREMANO", "idImpianto": 24046, "points": [{"type": "Feature", "properties": {}, "geometry": {"type": "Point", "coordinates": [14.342639841733558, 40.83816315925255]}}], "price": 1.789, "ultima_rilevazione": "28/05/2022 02:06:36"}, {"Gestore": "SERVIZI & GESTIONI ITALIA S.R.L.", "Bandiera": "Q8", "Tipo impianto": "Altro", "Indirizzo": "VIA B. COZZOLINO 101 80056", "Nome impianto": "ERCOLANO VIA B. COZZOLINO, 101", "Comune": "ERCOLANO", "idImpianto": 25008, "points": [{"type": "Feature", "properties": {}, "geometry": {"type": "Point", "coordinates": [14.3705156583012, 40.80445606762352]}}], "price": 1.785, "ultima_rilevazione": "28/05/2022 02:06:40"}, {"Gestore": "SERVIZI & GESTIONI ITALIA S.R.L.", "Bandiera": "Q8", "Tipo impianto": "Altro", "Indirizzo": "VIA REP. MARINARE  80146", "Nome impianto": "NAPOLI V.REP.MARINARE", "Comune": "NAPOLI", "idImpianto": 25792, "points": [{"type": "Feature", "properties": {}, "geometry": {"type": "Point", "coordinates": [14.31483351600798, 40.83676195375583]}}], "price": 1.799, "ultima_rilevazione": "28/05/2022 02:39:00"}, {"Gestore": "SERVIZI & GESTIONI ITALIA S.R.L.", "Bandiera": "Q8", "Tipo impianto": "Altro", "Indirizzo": "VIA REPUBBLICHE MARINARE 392 80146", "Nome impianto": "NAPOLI-VIA REPUBBLICHE MARINARE 392", "Comune": "NAPOLI", "idImpianto": 11734, "points": [{"type": "Feature", "properties": {}, "geometry": {"type": "Point", "coordinates": [14.320937550926146, 40.831767528857256]}}], "price": 1.839, "ultima_rilevazione": "28/05/2022 07:35:36"}, {"Gestore": "ZEUS PETROL SOCIETA' A RESPONSABILITA' LIMITATA", "Bandiera": "Pompe Bianche", "Tipo impianto": "Altro", "Indirizzo": "VIA LIBERTA' 47 80040", "Nome impianto": "ZEUS PETROL S.R.L", "Comune": "SAN SEBASTIANO AL VESUVIO", "idImpianto": 42447, "points": [{"type": "Feature", "properties": {}, "geometry": {"type": "Point", "coordinates": [14.361203682208952, 40.84813394210836]}}], "price": 1.799, "ultima_rilevazione": "28/05/2022 08:35:30"}, {"Gestore": "ROMANO LUCIA", "Bandiera": "Tamoil", "Tipo impianto": "Altro", "Indirizzo": "VIA EUROPA 26 80040", "Nome impianto": "TAMOIL di Romano Lucia", "Comune": "CERCOLA", "idImpianto": 34266, "points": [{"type": "Feature", "properties": {}, "geometry": {"type": "Point", "coordinates": [14.35477368832585, 40.85084286591616]}}], "price": 1.798, "ultima_rilevazione": "28/05/2022 11:02:02"}, {"Gestore": "IP SERVICES S.R.L.", "Bandiera": "Api-Ip", "Tipo impianto": "Altro", "Indirizzo": "VIA EUROPA SNC 80040", "Nome impianto": "CERCOLA - EUROPA", "Comune": "CERCOLA", "idImpianto": 24256, "points": [{"type": "Feature", "properties": {}, "geometry": {"type": "Point", "coordinates": [14.356618775463176, 40.85036956684552]}}], "price": 1.799, "ultima_rilevazione": "28/05/2022 12:01:30"}, {"Gestore": "IP SERVICES S.R.L.", "Bandiera": "Api-Ip", "Tipo impianto": "Altro", "Indirizzo": "via Volpicella 45 80147", "Nome impianto": "VOLPICELLA", "Comune": "NAPOLI", "idImpianto": 5531, "points": [{"type": "Feature", "properties": {}, "geometry": {"type": "Point", "coordinates": [14.32532441182775, 40.849239502862]}}], "price": 1.809, "ultima_rilevazione": "28/05/2022 12:05:01"}, {"Gestore": "VENUSO SALVATORE", "Bandiera": "Tamoil", "Tipo impianto": "Altro", "Indirizzo": "VIA LUIGI VOLPICELLA 208 80147", "Nome impianto": "Distributore Tamoil Impianto 8332", "Comune": "NAPOLI", "idImpianto": 13092, "points": [{"type": "Feature", "properties": {}, "geometry": {"type": "Point", "coordinates": [14.312672622965238, 40.84594326102288]}}], "price": 1.789, "ultima_rilevazione": "28/05/2022 14:02:10"}, {"Gestore": "MARANO E BORRELLI S.R.L.", "Bandiera": "Api-Ip", "Tipo impianto": "Altro", "Indirizzo": "VIA BARTOLO LONGO ANGOLO V. MORMONE 347 80147", "Nome impianto": "IP B.LONGO ANGOLO V. MORMONE", "Comune": "NAPOLI", "idImpianto": 43420, "points": [{"type": "Feature", "properties": {}, "geometry": {"type": "Point", "coordinates": [14.340875682209004, 40.841399970848]}}], "price": 1.839, "ultima_rilevazione": "28/05/2022 19:42:38"}], "5": [{"Gestore": "SAVI SRL", "Bandiera": "Esso", "Tipo impianto": "Altro", "Indirizzo": "CORSO ARNALDO LUCCI SNC 80142", "Nome impianto": "ESSO", "Comune": "NAPOLI", "idImpianto": 45642, "points": [{"type": "Feature", "properties": {}, "geometry": {"type": "Point", "coordinates": [14.27675506497394, 40.84767418029747]}}], "price": 1.569, "ultima_rilevazione": "13/10/2021 12:17:24"}, {"Gestore": "BENE DOMENICO S.R.L.", "Bandiera": "Agip Eni", "Tipo impianto": "Altro", "Indirizzo": "VIA GARIBALDI 85 80040", "Nome impianto": "ENI", "Comune": "POLLENA TROCCHIA", "idImpianto": 41900, "points": [{"type": "Feature", "properties": {}, "geometry": {"type": "Point", "coordinates": [14.372101351618769, 40.86402024469228]}}], "price": 1.574, "ultima_rilevazione": "05/11/2021 11:35:06"}, {"Gestore": "SC. OIL S.R.L.S.", "Bandiera": "Pompe Bianche", "Tipo impianto": "Altro", "Indirizzo": "VIA EMANUELE GIANTURCO  78 80146", "Nome impianto": "SC. OIL ", "Comune": "NAPOLI", "idImpianto": 41371, "points": [{"type": "Feature", "properties": {}, "geometry": {"type": "Point", "coordinates": [14.288355434862751, 40.84786299922204]}}], "price": 2.269, "ultima_rilevazione": "19/05/2022 20:18:55"}, {"Gestore": "SA.FR.A. FUEL TRADING S.R.L.", "Bandiera": "Lukoil", "Tipo impianto": "Altro", "Indirizzo": "VIA GALILEO FERRARIS 1/A 80142", "Nome impianto": "LUDOIL", "Comune": "NAPOLI", "idImpianto": 36512, "points": [{"type": "Feature", "properties": {}, "geometry": {"type": "Point", "coordinates": [14.278401732444763, 40.85017557683085]}}], "price": 1.759, "ultima_rilevazione": "23/05/2022 07:47:22"}, {"Gestore": "ASCHETTINO DOMENICO", "Bandiera": "Esso", "Tipo impianto": "Altro", "Indirizzo": "VIA ARGINE 875 80147", "Nome impianto": "ESSO", "Comune": "NAPOLI", "idImpianto": 33559, "points": [{"type": "Feature", "properties": {}, "geometry": {"type": "Point", "coordinates": [14.33246299624443, 40.860406445681946]}}], "price": 1.779, "ultima_rilevazione": "23/05/2022 10:36:23"}, {"Gestore": "MYLTON  S.R.L.", "Bandiera": "Pompe Bianche", "Tipo impianto": "Altro", "Indirizzo": "VIA ARGINE 336 80147", "Nome impianto": "MYLTON S.R.L.", "Comune": "NAPOLI", "idImpianto": 14328, "points": [{"type": "Feature", "properties": {}, "geometry": {"type": "Point", "coordinates": [14.309363812208176, 40.84985379511883]}}], "price": 1.789, "ultima_rilevazione": "23/05/2022 10:41:39"}, {"Gestore": "BARBERIO CIRO", "Bandiera": "Pompe Bianche", "Tipo impianto": "Altro", "Indirizzo": "VIA PONTE DEI GRANILI 5 80146", "Nome impianto": "BFUELCARBURANTI di BARBERIO CIRO", "Comune": "NAPOLI", "idImpianto": 50375, "points": [{"type": "Feature", "properties": {}, "geometry": {"type": "Point", "coordinates": [14.29263822734356, 40.840508256893045]}}], "price": 1.799, "ultima_rilevazione": "23/05/2022 17:27:25"}, {"Gestore": "BUONICONTI MARIA", "Bandiera": "Esso", "Tipo impianto": "Altro", "Indirizzo": "Via Emanuele Gianturco 123 80143", "Nome impianto": "Impianto ESSO Buoniconti Maria", "Comune": "NAPOLI", "idImpianto": 32813, "points": [{"type": "Feature", "properties": {}, "geometry": {"type": "Point", "coordinates": [14.288100868987158, 40.85626242562899]}}], "price": 1.999, "ultima_rilevazione": "24/05/2022 09:46:45"}, {"Gestore": "BORRELLI RAFFAELE", "Bandiera": "Esso", "Tipo impianto": "Altro", "Indirizzo": "VIA C. DE MEIS 1 80147", "Nome impianto": "BORRELLI RAFFAELE", "Comune": "NAPOLI", "idImpianto": 12899, "points": [{"type": "Feature", "properties": {}, "geometry": {"type": "Point", "coordinates": [14.32946428656578, 40.85078302173115]}}], "price": 1.789, "ultima_rilevazione": "25/05/2022 07:52:28"}, {"Gestore": "AMBROSINO GIOVANNI", "Bandiera": "Q8", "Tipo impianto": "Altro", "Indirizzo": "VIA EMANUELE GIANTURCO P.V. Q8  80142", "Nome impianto": "Q8", "Comune": "NAPOLI", "idImpianto": 17301, "points": [{"type": "Feature", "properties": {}, "geometry": {"type": "Point", "coordinates": [14.288224699697594, 40.85536601779113]}}], "price": 1.814, "ultima_rilevazione": "25/05/2022 09:26:25"}, {"Gestore": "ST OIL S.R.L.", "Bandiera": "Pompe Bianche", "Tipo impianto": "Altro", "Indirizzo": "VIA DON MINZONI 7 80040", "Nome impianto": "ST OIL", "Comune": "CERCOLA", "idImpianto": 37106, "points": [{"type": "Feature", "properties": {}, "geometry": {"type": "Point", "coordinates": [14.356422415977477, 40.86312612982553]}}], "price": 1.789, "ultima_rilevazione": "25/05/2022 12:22:36"}, {"Gestore": "ZACCARO MARIA & C.  S.A.S.", "Bandiera": "Q8", "Tipo impianto": "Altro", "Indirizzo": "VIA DELLE REPUBBLICHE MARINARE  7/11 80147", "Nome impianto": "ZACCARO MARIA & C. SAS", "Comune": "NAPOLI", "idImpianto": 36261, "points": [{"type": "Feature", "properties": {}, "geometry": {"type": "Point", "coordinates": [14.30244217668644, 40.84555651635302]}}], "price": 1.839, "ultima_rilevazione": "25/05/2022 13:29:54"}, {"Gestore": "E' - OIL GROUP S.R.L.", "Bandiera": "Pompe Bianche", "Tipo impianto": "Altro", "Indirizzo": "VIA Galileo Ferraris  119 80146", "Nome impianto": "E-OIL (Ferraris)", "Comune": "NAPOLI", "idImpianto": 40652, "points": [{"type": "Feature", "properties": {}, "geometry": {"type": "Point", "coordinates": [14.288941472768784, 40.84985744710176]}}], "price": 1.699, "ultima_rilevazione": "25/05/2022 14:30:11"}, {"Gestore": "ZENO CIRO", "Bandiera": "Pompe Bianche", "Tipo impianto": "Altro", "Indirizzo": "VIALE CAMPANIA SNC 80059", "Nome impianto": "ZENO CIRO", "Comune": "TORRE DEL GRECO", "idImpianto": 33454, "points": [{"type": "Feature", "properties": {}, "geometry": {"type": "Point", "coordinates": [14.378451013833455, 40.7806874836955]}}], "price": 1.749, "ultima_rilevazione": "26/05/2022 08:55:40"}, {"Gestore": "PENTA PETROLI SRL", "Bandiera": "Pompe Bianche", "Tipo impianto": "Altro", "Indirizzo": "VIA BOTEGHELLE SNC 80147", "Nome impianto": "EWA BOTTEGHELLE", "Comune": "NAPOLI", "idImpianto": 32722, "points": [{"type": "Feature", "properties": {}, "geometry": {"type": "Point", "coordinates": [14.329226911067964, 40.86575556895068]}}], "price": 1.785, "ultima_rilevazione": "26/05/2022 09:38:56"}, {"Gestore": "DISTRIBUTORE ERG DI FLORIO ANTONIO", "Bandiera": "Pompe Bianche", "Tipo impianto": "Altro", "Indirizzo": "Via Reggia di Portici  87 80146", "Nome impianto": "Oil Parthenope", "Comune": "NAPOLI", "idImpianto": 15723, "points": [{"type": "Feature", "properties": {}, "geometry": {"type": "Point", "coordinates": [14.287926256656649, 40.84256155168131]}}], "price": 1.779, "ultima_rilevazione": "26/05/2022 10:31:47"}, {"Gestore": "MASI VITO", "Bandiera": "Agip Eni", "Tipo impianto": "Altro", "Indirizzo": "VIA E.GIANTURCO 114 80142", "Nome impianto": "masi vito", "Comune": "NAPOLI", "idImpianto": 16846, "points": [{"type": "Feature", "properties": {}, "geometry": {"type": "Point", "coordinates": [14.288344113215317, 40.84787307234628]}}], "price": 1.819, "ultima_rilevazione": "27/05/2022 06:25:33"}, {"Gestore": "A.D. FUEL - SOCIETA' A RESPONSABILITA' LIMITATA SEMPLIFICATA", "Bandiera": "MyOil", "Tipo impianto": "Altro", "Indirizzo": "via gianturco  100 80142", "Nome impianto": "my oil", "Comune": "NAPOLI", "idImpianto": 49044, "points": [{"type": "Feature", "properties": {}, "geometry": {"type": "Point", "coordinates": [14.28933217112653, 40.85128366053975]}}], "price": 1.789, "ultima_rilevazione": "27/05/2022 14:24:01"}, {"Gestore": "ORGANIZZAZIONE SERVIZI AUTO - O.S.A. - S.P.A.", "Bandiera": "Esso", "Tipo impianto": "Altro", "Indirizzo": "VIA GALILEO FERRARIS 44/48 80142", "Nome impianto": "ESSO - G.FERRARIS", "Comune": "NAPOLI", "idImpianto": 48999, "points": [{"type": "Feature", "properties": {}, "geometry": {"type": "Point", "coordinates": [14.27604404038709, 40.85030964996206]}}], "price": 1.789, "ultima_rilevazione": "27/05/2022 15:18:00"}, {"Gestore": "ORGANIZZAZIONE SERVIZI AUTO - O.S.A. - S.P.A.", "Bandiera": "Esso", "Tipo impianto": "Altro", "Indirizzo": "VIA FERRANTE IMPARATO 451/457 80146", "Nome impianto": "ESSO - V.IMPARATO", "Comune": "NAPOLI", "idImpianto": 49000, "points": [{"type": "Feature", "properties": {}, "geometry": {"type": "Point", "coordinates": [14.298449404692333, 40.85789294565131]}}], "price": 1.789, "ultima_rilevazione": "27/05/2022 15:22:04"}, {"Gestore": "ORGANIZZAZIONE SERVIZI AUTO - O.S.A. - S.P.A.", "Bandiera": "Esso", "Tipo impianto": "Altro", "Indirizzo": "via reggia di portici 46 80142", "Nome impianto": "ESSO REGGIA", "Comune": "NAPOLI", "idImpianto": 49730, "points": [{"type": "Feature", "properties": {}, "geometry": {"type": "Point", "coordinates": [14.286060993723936, 40.84316566135385]}}], "price": 1.789, "ultima_rilevazione": "27/05/2022 15:23:24"}, {"Gestore": "SERVIZI & GESTIONI ITALIA srl", "Bandiera": "Q8", "Tipo impianto": "Altro", "Indirizzo": "P.ZA S. ERASMO IMPIANTO Q8 SNC 80142", "Nome impianto": "NAPOLI P.ZA S. ERASMO IMPIANTO Q8", "Comune": "NAPOLI", "idImpianto": 6836, "points": [{"type": "Feature", "properties": {}, "geometry": {"type": "Point", "coordinates": [14.283217930688464, 40.84445816205204]}}], "price": 1.799, "ultima_rilevazione": "28/05/2022 02:06:34"}, {"Gestore": "SERVIZI & GESTIONI ITALIA S.R.L.", "Bandiera": "Q8", "Tipo impianto": "Altro", "Indirizzo": "VIA NAZIONALE 232 80059", "Nome impianto": "TORRE DEL GRECO VIA NAZIONALE,232", "Comune": "TORRE DEL GRECO", "idImpianto": 25140, "points": [{"type": "Feature", "properties": {}, "geometry": {"type": "Point", "coordinates": [14.3867676705122, 40.77905654087164]}}], "price": 1.759, "ultima_rilevazione": "28/05/2022 02:06:35"}, {"Gestore": "SERVIZI & GESTIONI ITALIA srl", "Bandiera": "Q8", "Tipo impianto": "Altro", "Indirizzo": "VIA NAZIONALE 233 80059", "Nome impianto": "TORRE DEL GRECO VIA NAZIONALE  233 - IMP. Q8", "Comune": "TORRE DEL GRECO", "idImpianto": 6704, "points": [{"type": "Feature", "properties": {}, "geometry": {"type": "Point", "coordinates": [14.387906467674384, 40.77828314556314]}}], "price": 1.759, "ultima_rilevazione": "28/05/2022 02:06:36"}, {"Gestore": "SERVIZI & GESTIONI ITALIA S.R.L.", "Bandiera": "Q8", "Tipo impianto": "Altro", "Indirizzo": "G. FERRARIS 172 80147", "Nome impianto": "NAPOLI G. FERRARIS 172", "Comune": "NAPOLI", "idImpianto": 26018, "points": [{"type": "Feature", "properties": {}, "geometry": {"type": "Point", "coordinates": [14.298712766270455, 40.84657667223769]}}], "price": 1.809, "ultima_rilevazione": "28/05/2022 02:06:40"}, {"Gestore": "ENI FUEL S.P.A.", "Bandiera": "Agip Eni", "Tipo impianto": "Altro", "Indirizzo": "Via Volta 31 80142", "Nome impianto": "28061 \u2013 Napoli Volta", "Comune": "NAPOLI", "idImpianto": 49635, "points": [{"type": "Feature", "properties": {}, "geometry": {"type": "Point", "coordinates": [14.279558878732132, 40.84557216349965]}}], "price": 1.819, "ultima_rilevazione": "28/05/2022 06:46:08"}, {"Gestore": "CARRARA PIETRO", "Bandiera": "Q8", "Tipo impianto": "Altro", "Indirizzo": "via emanuele gianturco frcv. 79 80142", "Nome impianto": "staz. servizio. q8 ", "Comune": "NAPOLI", "idImpianto": 17155, "points": [{"type": "Feature", "properties": {}, "geometry": {"type": "Point", "coordinates": [14.289340482265288, 40.85030685074771]}}], "price": 1.829, "ultima_rilevazione": "28/05/2022 07:19:27"}, {"Gestore": "NUOVA CARBURANTI  S.R.L.", "Bandiera": "Api-Ip", "Tipo impianto": "Altro", "Indirizzo": "via Reggia di Portici 87 80143", "Nome impianto": "Nuova Carburanti s.r.l.", "Comune": "NAPOLI", "idImpianto": 35416, "points": [{"type": "Feature", "properties": {}, "geometry": {"type": "Point", "coordinates": [14.286752104134166, 40.842934030131154]}}], "price": 1.819, "ultima_rilevazione": "28/05/2022 08:02:17"}, {"Gestore": "MG PETROLI SRL", "Bandiera": "Pompe Bianche", "Tipo impianto": "Altro", "Indirizzo": "Via ferrante imparato  251 80100", "Nome impianto": "MG PETROLI SRL", "Comune": "NAPOLI", "idImpianto": 38466, "points": [{"type": "Feature", "properties": {}, "geometry": {"type": "Point", "coordinates": [14.300307557191672, 40.84801174483866]}}], "price": 1.849, "ultima_rilevazione": "28/05/2022 09:34:39"}, {"Gestore": "DELTA PETROLI S.R.L.", "Bandiera": "Total Erg", "Tipo impianto": "Altro", "Indirizzo": "Via Cavallo snc 80059", "Nome impianto": "Ghepardoil (TDG)", "Comune": "TORRE DEL GRECO", "idImpianto": 28198, "points": [{"type": "Feature", "properties": {}, "geometry": {"type": "Point", "coordinates": [14.381765350699425, 40.78967721869456]}}], "price": 1.822, "ultima_rilevazione": "28/05/2022 10:36:54"}, {"Gestore": "T.D.M. S.R.L.", "Bandiera": "Tamoil", "Tipo impianto": "Altro", "Indirizzo": "VIA ARGINE  8 80147", "Nome impianto": "8336", "Comune": "NAPOLI", "idImpianto": 41142, "points": [{"type": "Feature", "properties": {}, "geometry": {"type": "Point", "coordinates": [14.322723224759102, 40.85602661816269]}}], "price": 1.749, "ultima_rilevazione": "28/05/2022 11:16:07"}, {"Gestore": "PETROLJ - SOCIETA' A RESPONSABILITA' LIMITATA", "Bandiera": "Esso", "Tipo impianto": "Altro", "Indirizzo": "via Galileo Ferraris 128 80144", "Nome impianto": "Esso 6629", "Comune": "NAPOLI", "idImpianto": 33027, "points": [{"type": "Feature", "properties": {}, "geometry": {"type": "Point", "coordinates": [14.28947512925265, 40.84943369791054]}}], "price": 1.769, "ultima_rilevazione": "28/05/2022 11:55:51"}, {"Gestore": "IP SERVICES S.R.L.", "Bandiera": "Api-Ip", "Tipo impianto": "Altro", "Indirizzo": "VIA FERRANTE IMPARATO 439 80146", "Nome impianto": "NAPOLI - FERRANTE IMPARATO", "Comune": "NAPOLI", "idImpianto": 30323, "points": [{"type": "Feature", "properties": {}, "geometry": {"type": "Point", "coordinates": [14.298689271163994, 40.85680811472159]}}], "price": 1.809, "ultima_rilevazione": "28/05/2022 12:01:31"}, {"Gestore": "IP SERVICES S.R.L.", "Bandiera": "Api-Ip", "Tipo impianto": "Altro", "Indirizzo": "VIA ARGINE 360 80100", "Nome impianto": "NAPOLI - ARGINE 360", "Comune": "NAPOLI", "idImpianto": 33373, "points": [{"type": "Feature", "properties": {}, "geometry": {"type": "Point", "coordinates": [14.311264157295229, 40.8505598461994]}}], "price": 1.809, "ultima_rilevazione": "28/05/2022 12:01:32"}, {"Gestore": "IP SERVICES S.R.L.", "Bandiera": "Api-Ip", "Tipo impianto": "Altro", "Indirizzo": "TRAVERSA VICINALE FOSSITELLI  80147", "Nome impianto": "NAPOLI - VICINALE FOSSITELLI", "Comune": "NAPOLI", "idImpianto": 33545, "points": [{"type": "Feature", "properties": {}, "geometry": {"type": "Point", "coordinates": [14.3144239067459, 40.8510773751301]}}], "price": 1.809, "ultima_rilevazione": "28/05/2022 12:02:33"}, {"Gestore": "IP SERVICES S.R.L.", "Bandiera": "Api-Ip", "Tipo impianto": "Altro", "Indirizzo": "S.S. 268 DEL VESUVIO KM. 1,149  80040", "Nome impianto": "POLLENA TROCCHIA", "Comune": "POLLENA TROCCHIA", "idImpianto": 39007, "points": [{"type": "Feature", "properties": {}, "geometry": {"type": "Point", "coordinates": [14.369633304368564, 40.870788608705766]}}], "price": 1.799, "ultima_rilevazione": "28/05/2022 12:03:13"}, {"Gestore": "AMENDOLA MAURIZIO", "Bandiera": "Pompe Bianche", "Tipo impianto": "Altro", "Indirizzo": "VIA MARIO PALERMO 53 80147", "Nome impianto": "MM Carburanti", "Comune": "NAPOLI", "idImpianto": 36133, "points": [{"type": "Feature", "properties": {}, "geometry": {"type": "Point", "coordinates": [14.321829378604887, 40.857455824856906]}}], "price": 1.779, "ultima_rilevazione": "28/05/2022 15:10:55"}]}, "Metano": {"1": [], "3": [{"Gestore": "LUCARELLA ROSA PETROLI", "Bandiera": "Esso", "Tipo impianto": "Altro", "Indirizzo": "via del commercio snc 80059", "Nome impianto": "stazione di servizio esso lucarella", "Comune": "TORRE DEL GRECO", "idImpianto": 12189, "points": [{"type": "Feature", "properties": {}, "geometry": {"type": "Point", "coordinates": [14.358681589365004, 40.79220939502857]}}], "price": 2.499, "ultima_rilevazione": "27/05/2022 15:39:58"}], "5": []}, "GPL": {"1": [{"Gestore": "ECO TRADING AREA S.R.L. - DISTRIBUZIONE CARBURANTI ECOLOGICI", "Bandiera": "Pompe Bianche", "Tipo impianto": "Altro", "Indirizzo": "VIA SAC. B. COZZOLINO  80056", "Nome impianto": "ECO TRADING AREA SRL", "Comune": "ERCOLANO", "idImpianto": 14034, "points": [{"type": "Feature", "properties": {}, "geometry": {"type": "Point", "coordinates": [14.366668537259102, 40.81413078123835]}}], "price": 0.819, "ultima_rilevazione": "25/05/2022 11:01:52"}, {"Gestore": "VESUVIANA PETROLI S.R.L.", "Bandiera": "Pompe Bianche", "Tipo impianto": "Altro", "Indirizzo": "VIA PATACCA  SNC 80056", "Nome impianto": "VESUVIANA PETROLI SRL ", "Comune": "ERCOLANO", "idImpianto": 47406, "points": [{"type": "Feature", "properties": {}, "geometry": {"type": "Point", "coordinates": [14.34814453125, 40.808092514169225]}}], "price": 0.785, "ultima_rilevazione": "26/05/2022 09:29:57"}, {"Gestore": "EASY SERVICE S.R.L.", "Bandiera": "Energas", "Tipo impianto": "Altro", "Indirizzo": "Via Aveta  snc 80056", "Nome impianto": "Easy service Ercolano ", "Comune": "ERCOLANO", "idImpianto": 35680, "points": [{"type": "Feature", "properties": {}, "geometry": {"type": "Point", "coordinates": [14.358646720647812, 40.80844738718757]}}], "price": 0.809, "ultima_rilevazione": "27/05/2022 17:35:04"}], "3": [{"Gestore": "CLAJL DI DI MAIO GAETANO", "Bandiera": "Pompe Bianche", "Tipo impianto": "Altro", "Indirizzo": "VIA DELLA PACE  80040", "Nome impianto": "CLAJL DI DI MAIO GAETANO", "Comune": "SAN SEBASTIANO AL VESUVIO", "idImpianto": 15980, "points": [{"type": "Feature", "properties": {}, "geometry": {"type": "Point", "coordinates": [14.362389743328094, 40.8439104946054]}}], "price": 0.785, "ultima_rilevazione": "27/05/2022 14:26:55"}, {"Gestore": "LUCARELLA ROSA PETROLI", "Bandiera": "Esso", "Tipo impianto": "Altro", "Indirizzo": "via del commercio snc 80059", "Nome impianto": "stazione di servizio esso lucarella", "Comune": "TORRE DEL GRECO", "idImpianto": 12189, "points": [{"type": "Feature", "properties": {}, "geometry": {"type": "Point", "coordinates": [14.358681589365004, 40.79220939502857]}}], "price": 0.799, "ultima_rilevazione": "27/05/2022 15:39:58"}], "5": [{"Gestore": "B.OIL S.R.L.", "Bandiera": "Pompe Bianche", "Tipo impianto": "Altro", "Indirizzo": "VIA ARGINE 461 80147", "Nome impianto": "b.oil srl", "Comune": "NAPOLI", "idImpianto": 20970, "points": [{"type": "Feature", "properties": {}, "geometry": {"type": "Point", "coordinates": [14.314351379871368, 40.85272015344219]}}], "price": 0.785, "ultima_rilevazione": "24/05/2022 09:15:23"}, {"Gestore": "ECO TRADING AREA S.R.L. - DISTRIBUZIONE CARBURANTI ECOLOGICI", "Bandiera": "Pompe Bianche", "Tipo impianto": "Altro", "Indirizzo": "VIA GARIBALDI 11 80040", "Nome impianto": "ECO TRADING AREA SRL", "Comune": "POLLENA TROCCHIA", "idImpianto": 14037, "points": [{"type": "Feature", "properties": {}, "geometry": {"type": "Point", "coordinates": [14.377052038908005, 40.86595719221165]}}], "price": 0.799, "ultima_rilevazione": "25/05/2022 11:00:21"}]}, "Blue Diesel": {"1": [{"Gestore": "STAZIONE I.P. DI DE LUCA ALFONSO", "Bandiera": "Agip Eni", "Tipo impianto": "Altro", "Indirizzo": "Via gianturco 26 80046", "Nome impianto": "Stazione eni De LUCA ALFONSO", "Comune": "SAN GIORGIO A CREMANO", "idImpianto": 32177, "points": [{"type": "Feature", "properties": {}, "geometry": {"type": "Point", "coordinates": [14.342876389306412, 40.83164723763404]}}], "price": 1.919, "ultima_rilevazione": "28/05/2022 20:38:40"}], "3": [], "5": [{"Gestore": "MASI VITO", "Bandiera": "Agip Eni", "Tipo impianto": "Altro", "Indirizzo": "VIA E.GIANTURCO 114 80142", "Nome impianto": "masi vito", "Comune": "NAPOLI", "idImpianto": 16846, "points": [{"type": "Feature", "properties": {}, "geometry": {"type": "Point", "coordinates": [14.288344113215317, 40.84787307234628]}}], "price": 2.059, "ultima_rilevazione": "27/05/2022 06:25:33"}, {"Gestore": "MASI VITO", "Bandiera": "Agip Eni", "Tipo impianto": "Altro", "Indirizzo": "VIA E.GIANTURCO 114 80142", "Nome impianto": "masi vito", "Comune": "NAPOLI", "idImpianto": 16846, "points": [{"type": "Feature", "properties": {}, "geometry": {"type": "Point", "coordinates": [14.288344113215317, 40.84787307234628]}}], "price": 1.919, "ultima_rilevazione": "27/05/2022 06:25:33"}, {"Gestore": "ENI FUEL S.P.A.", "Bandiera": "Agip Eni", "Tipo impianto": "Altro", "Indirizzo": "Via Volta 31 80142", "Nome impianto": "28061 \u2013 Napoli Volta", "Comune": "NAPOLI", "idImpianto": 49635, "points": [{"type": "Feature", "properties": {}, "geometry": {"type": "Point", "coordinates": [14.279558878732132, 40.84557216349965]}}], "price": 1.919, "ultima_rilevazione": "28/05/2022 06:46:08"}]}, "Diesel High Quality": {"1": [{"Gestore": "SERVIZI & GESTIONI ITALIA srl", "Bandiera": "Q8", "Tipo impianto": "Altro", "Indirizzo": "VIA DEGLI ULIVI SNC 80056", "Nome impianto": "ERCOLANO VIA DEGLI ULIVI", "Comune": "ERCOLANO", "idImpianto": 6702, "points": [{"type": "Feature", "properties": {}, "geometry": {"type": "Point", "coordinates": [14.356227699999977, 40.81446484078589]}}], "price": 1.709, "ultima_rilevazione": "28/05/2022 02:06:35"}], "3": [{"Gestore": "VITIELLO CIRO", "Bandiera": "Q8", "Tipo impianto": "Altro", "Indirizzo": "VIA DELLE REPUBBLICHE MARINARE 295 80146", "Nome impianto": "STAZIONE DI SERVIZIO Q8 di VITIELLO CIRO", "Comune": "NAPOLI", "idImpianto": 46689, "points": [{"type": "Feature", "properties": {}, "geometry": {"type": "Point", "coordinates": [14.315652205890729, 40.83684850871609]}}], "price": 2.129, "ultima_rilevazione": "26/05/2022 08:13:28"}, {"Gestore": "FIORENTINO CARBURANTI S.A.S. DI FIORENTINO MARILENA", "Bandiera": "Q8", "Tipo impianto": "Altro", "Indirizzo": "via luigi volpicella 411 80142", "Nome impianto": "DISTRIBUTORE Q8", "Comune": "NAPOLI", "idImpianto": 48414, "points": [{"type": "Feature", "properties": {}, "geometry": {"type": "Point", "coordinates": [14.323330202083584, 40.84838010169506]}}], "price": 2.089, "ultima_rilevazione": "27/05/2022 07:10:16"}, {"Gestore": "DEL GATTO LUCA", "Bandiera": "Q8", "Tipo impianto": "Altro", "Indirizzo": "VIA GUGLIELMO MARCONI 61 80059", "Nome impianto": "Del Gatto Luca -Q8", "Comune": "TORRE DEL GRECO", "idImpianto": 35664, "points": [{"type": "Feature", "properties": {}, "geometry": {"type": "Point", "coordinates": [14.373119921634723, 40.79493791968526]}}], "price": 2.055, "ultima_rilevazione": "27/05/2022 19:54:16"}, {"Gestore": "SERVIZI & GESTIONI ITALIA S.R.L.", "Bandiera": "Q8", "Tipo impianto": "Altro", "Indirizzo": "VIA REPUBBLICHE MARINARE 392 80146", "Nome impianto": "NAPOLI-VIA REPUBBLICHE MARINARE 392", "Comune": "NAPOLI", "idImpianto": 11734, "points": [{"type": "Feature", "properties": {}, "geometry": {"type": "Point", "coordinates": [14.320937550926146, 40.831767528857256]}}], "price": 2.139, "ultima_rilevazione": "28/05/2022 07:35:36"}, {"Gestore": "VITIELLO CIRO", "Bandiera": "Q8", "Tipo impianto": "Altro", "Indirizzo": "VIA DELLE REPUBBLICHE MARINARE 295 80146", "Nome impianto": "STAZIONE DI SERVIZIO Q8 di VITIELLO CIRO", "Comune": "NAPOLI", "idImpianto": 46689, "points": [{"type": "Feature", "properties": {}, "geometry": {"type": "Point", "coordinates": [14.315652205890729, 40.83684850871609]}}], "price": 2.399, "ultima_rilevazione": "26/05/2022 08:13:28"}, {"Gestore": "DEL GATTO LUCA", "Bandiera": "Q8", "Tipo impianto": "Altro", "Indirizzo": "VIA GUGLIELMO MARCONI 61 80059", "Nome impianto": "Del Gatto Luca -Q8", "Comune": "TORRE DEL GRECO", "idImpianto": 35664, "points": [{"type": "Feature", "properties": {}, "geometry": {"type": "Point", "coordinates": [14.373119921634723, 40.79493791968526]}}], "price": 2.009, "ultima_rilevazione": "27/05/2022 19:54:16"}, {"Gestore": "SERVIZI & GESTIONI ITALIA S.R.L.", "Bandiera": "Q8", "Tipo impianto": "Altro", "Indirizzo": "VIA REPUBBLICHE MARINARE 392 80146", "Nome impianto": "NAPOLI-VIA REPUBBLICHE MARINARE 392", "Comune": "NAPOLI", "idImpianto": 11734, "points": [{"type": "Feature", "properties": {}, "geometry": {"type": "Point", "coordinates": [14.320937550926146, 40.831767528857256]}}], "price": 2.219, "ultima_rilevazione": "28/05/2022 07:35:36"}, {"Gestore": "LUCARELLA ROSA PETROLI", "Bandiera": "Esso", "Tipo impianto": "Altro", "Indirizzo": "via del commercio snc 80059", "Nome impianto": "stazione di servizio esso lucarella", "Comune": "TORRE DEL GRECO", "idImpianto": 12189, "points": [{"type": "Feature", "properties": {}, "geometry": {"type": "Point", "coordinates": [14.358681589365004, 40.79220939502857]}}], "price": 1.999, "ultima_rilevazione": "27/05/2022 15:39:58"}], "5": [{"Gestore": "AMBROSINO GIOVANNI", "Bandiera": "Q8", "Tipo impianto": "Altro", "Indirizzo": "VIA EMANUELE GIANTURCO P.V. Q8  80142", "Nome impianto": "Q8", "Comune": "NAPOLI", "idImpianto": 17301, "points": [{"type": "Feature", "properties": {}, "geometry": {"type": "Point", "coordinates": [14.288224699697594, 40.85536601779113]}}], "price": 2.064, "ultima_rilevazione": "25/05/2022 09:26:25"}, {"Gestore": "CARRARA PIETRO", "Bandiera": "Q8", "Tipo impianto": "Altro", "Indirizzo": "via emanuele gianturco frcv. 79 80142", "Nome impianto": "staz. servizio. q8 ", "Comune": "NAPOLI", "idImpianto": 17155, "points": [{"type": "Feature", "properties": {}, "geometry": {"type": "Point", "coordinates": [14.289340482265288, 40.85030685074771]}}], "price": 2.1, "ultima_rilevazione": "28/05/2022 07:19:27"}, {"Gestore": "CARRARA PIETRO", "Bandiera": "Q8", "Tipo impianto": "Altro", "Indirizzo": "via emanuele gianturco frcv. 79 80142", "Nome impianto": "staz. servizio. q8 ", "Comune": "NAPOLI", "idImpianto": 17155, "points": [{"type": "Feature", "properties": {}, "geometry": {"type": "Point", "coordinates": [14.289340482265288, 40.85030685074771]}}], "price": 2.3, "ultima_rilevazione": "28/05/2022 07:19:27"}, {"Gestore": "ASCHETTINO DOMENICO", "Bandiera": "Esso", "Tipo impianto": "Altro", "Indirizzo": "VIA ARGINE 875 80147", "Nome impianto": "ESSO", "Comune": "NAPOLI", "idImpianto": 33559, "points": [{"type": "Feature", "properties": {}, "geometry": {"type": "Point", "coordinates": [14.33246299624443, 40.860406445681946]}}], "price": 1.949, "ultima_rilevazione": "23/05/2022 10:36:23"}, {"Gestore": "ORGANIZZAZIONE SERVIZI AUTO - O.S.A. - S.P.A.", "Bandiera": "Esso", "Tipo impianto": "Altro", "Indirizzo": "VIA GALILEO FERRARIS 44/48 80142", "Nome impianto": "ESSO - G.FERRARIS", "Comune": "NAPOLI", "idImpianto": 48999, "points": [{"type": "Feature", "properties": {}, "geometry": {"type": "Point", "coordinates": [14.27604404038709, 40.85030964996206]}}], "price": 1.999, "ultima_rilevazione": "27/05/2022 15:18:00"}]}, "Gasolio High Quality": {"1": [{"Gestore": "B.G. PETROLI S.A.S. DI BORRIELLO VINCENZO & C.", "Bandiera": "Esso", "Tipo impianto": "Altro", "Indirizzo": "VIA PANORAMICA 97 80056", "Nome impianto": "B.G.PETROLI SAS", "Comune": "ERCOLANO", "idImpianto": 35860, "points": [{"type": "Feature", "properties": {}, "geometry": {"type": "Point", "coordinates": [14.357177761376988, 40.81022332802966]}}], "price": 1.999, "ultima_rilevazione": "03/05/2022 07:56:25"}], "3": [], "5": [{"Gestore": "PETROLJ - SOCIETA' A RESPONSABILITA' LIMITATA", "Bandiera": "Esso", "Tipo impianto": "Altro", "Indirizzo": "via Galileo Ferraris 128 80144", "Nome impianto": "Esso 6629", "Comune": "NAPOLI", "idImpianto": 33027, "points": [{"type": "Feature", "properties": {}, "geometry": {"type": "Point", "coordinates": [14.28947512925265, 40.84943369791054]}}], "price": 1.949, "ultima_rilevazione": "28/05/2022 11:55:51"}]}, "null": {}}