{"area_comune": "[{\"type\": \"Feature\", \"properties\": {}, \"geometry\": {\"type\": \"Polygon\", \"coordinates\": [[[10.135735059664619, 45.55030479884832], [10.138961891641975, 45.550227670273124], [10.153238531584007, 45.5485992381484], [10.15140779417388, 45.54708715678005], [10.149783451142804, 45.54501565999264], [10.147337163039827, 45.54075798987896], [10.16296300037446, 45.53595335530215], [10.165175797681407, 45.53652048941466], [10.168719558700609, 45.53774865478063], [10.169923717897255, 45.538375399411244], [10.174575529459254, 45.542180107907065], [10.176423700915922, 45.54464789213263], [10.177698163697345, 45.54603632460821], [10.18024766515059, 45.5460279179381], [10.181346140747234, 45.54573348815305], [10.182464620594802, 45.54516804986701], [10.167777474509524, 45.529650351470046], [10.164428921430451, 45.5253440230252], [10.163413797299981, 45.52455327443574], [10.155632863862563, 45.522904062582775], [10.153147392501625, 45.523568792626754], [10.137376406542948, 45.51607554382891], [10.140527856083473, 45.526305285175184], [10.13445373786808, 45.52545665894643], [10.114226727768628, 45.5303411269399], [10.115039530998839, 45.53331512466937], [10.114412402194308, 45.53838144855218], [10.114935865247409, 45.54088763773833], [10.12455189193416, 45.538786130860856], [10.1259520133545, 45.54155365901126], [10.126985153291683, 45.54517987452435], [10.128857790339787, 45.549778919552104], [10.132140926943986, 45.550592513277955], [10.135735059664619, 45.55030479884832]]]}}]", "comune": "roncadelle", "buffer_1": "[{\"type\": \"Feature\", \"properties\": {}, \"geometry\": {\"type\": \"Polygon\", \"coordinates\": [[[10.125152639525625, 45.55537693442437], [10.125933529086373, 45.55609997403269], [10.126814123670554, 45.55676407886495], [10.12778546864245, 45.55736249328834], [10.128837685240963, 45.55788912971798], [10.129960071075779, 45.55833863061063], [10.131141209048954, 45.55870642302968], [10.132369083590817, 45.55898876522361], [10.133631203022752, 45.55918278474065], [10.134914726795492, 45.559286507689954], [10.136206596300585, 45.55929887884937], [10.137493667915342, 45.55921977241402], [10.154999844216357, 45.55751391832622], [10.156207683075959, 45.557354309637496], [10.157388184259602, 45.55711411745398], [10.158530479280916, 45.55679555327418], [10.159624051904329, 45.55640155011984], [10.160658835066705, 45.55593573549497], [10.161625303636338, 45.55540239794543], [10.162514562151475, 45.554806447528584], [10.163318426728017, 45.55415337055935], [10.164029500380948, 45.55344917905146], [10.164641241066155, 45.55270035532196], [10.165148021817549, 45.55191379227105], [10.16554518242866, 45.551096729889196], [10.165829072206796, 45.550256688578244], [10.165997083411233, 45.54940139990175], [10.166047675073541, 45.548538735403405], [10.16602488067614, 45.54824669480178], [10.175317907275053, 45.552637176216585], [10.176390259871853, 45.55309187619605], [10.177520705976592, 45.55347081712868], [10.178698435160134, 45.55377037492797], [10.179912184195688, 45.553987684670176], [10.18115034490177, 45.55412066802903], [10.182401075306316, 45.55416805317856], [10.183652413061873, 45.55412938697193], [10.184892390019654, 45.554005039279396], [10.186109146858879, 45.55379619944368], [10.187291046667273, 45.55350486488679], [10.188426786378955, 45.55313382197824], [10.18950550499708, 45.55268661934899], [10.190516887560198, 45.55216753390801], [10.19145126385323, 45.55158152988873], [10.192299700915399, 45.550934211319195], [10.193054088458466, 45.550231768373536], [10.193707216377799, 45.54948091812001], [10.194252843616175, 45.548688840235364], [10.194685757724354, 45.54786310830245], [10.195001824553005, 45.54701161735071], [10.19519802760618, 45.54614250833431], [10.19527249668656, 45.54526409027158], [10.195224525565953, 45.544384760791765], [10.195054578520057, 45.54351292584894], [10.194764285673294, 45.542656919371424], [10.194356427206467, 45.54182492361408], [10.19383490658619, 45.54102489097423], [10.193204713079353, 45.54026446801717], [10.174151693774785, 45.51965148923272], [10.173453300994975, 45.518967820970865], [10.172667129834057, 45.518333001214636], [10.171800056680047, 45.517752580305334], [10.17085966454991, 45.51723163281229], [10.16985417678036, 45.51677471321194], [10.168792385150573, 45.51638581611304], [10.142758001794247, 45.50790927116249], [10.141614737750718, 45.507582925290066], [10.14043210802463, 45.507335482625535], [10.139221097144507, 45.50716924144182], [10.137992952885806, 45.50708574580655], [10.13675908194368, 45.50708577125905], [10.135530944139601, 45.50716931761556], [10.134319946137545, 45.50733560896892], [10.133137335649849, 45.50758310088306], [10.131994097108452, 45.50790949471569], [10.130900849764071, 45.508311758937616], [10.129867749153961, 45.50878615725148], [10.12890439284853, 45.50932828325097], [10.128019731348445, 45.50993310130056], [10.12722198495722, 45.51059499325795], [10.126518567400216, 45.511307810608194], [10.12591601689962, 45.512064931527235], [10.12541993534721, 45.51285932234739], [10.125034936142809, 45.51368360285604], [10.12476460118713, 45.51453011482277], [10.124611447433756, 45.5153909931204], [10.124576903317177, 45.51625823878025], [10.124661295282698, 45.517123793303995], [10.124863844550733, 45.51797961354215], [10.125309978824651, 45.519429063309886], [10.111497937300209, 45.521547627310085], [10.110259903827826, 45.52178366755976], [10.109061670186568, 45.52210559385008], [10.10791525950068, 45.52251017621309], [10.106832175621967, 45.52299335527462], [10.10582328780038, 45.52355028293169], [10.104898721682229, 45.52417537093858], [10.104067757726035, 45.52486234691709], [10.103338738053528, 45.52560431723194], [10.102718982670515, 45.52639383610389], [10.10221471590026, 45.52722298026988], [10.10183100377142, 45.52808342844413], [10.101571702994336, 45.52896654478533], [10.101439422044741, 45.529863465534696], [10.101435494753616, 45.53076518795676], [10.102142248839103, 45.54131179964565], [10.102259016938431, 45.54217207063697], [10.10249266410989, 45.54302050613688], [10.102841041295697, 45.54384928347661], [10.10330094122678, 45.54465076090462], [10.103868127825663, 45.54541754807664], [10.10453737511822, 45.54614257423836], [10.105302515300805, 45.54681915347003], [10.106156495523772, 45.54744104638934], [10.107091442870766, 45.54800251774168], [10.108098736936332, 45.54849838934402], [10.109169089332886, 45.54892408789182], [10.110292629392875, 45.549275687185954], [10.111458995273352, 45.54954994438761], [10.112657429619304, 45.54974432996499], [10.113876878898717, 45.54985705105402], [10.115106095487738, 45.54988706801571], [10.116333741558122, 45.54983410403697], [10.117548493802095, 45.549698647685645], [10.118739148021813, 45.54948194839587], [10.11930888834746, 45.549357460432034], [10.125152639525625, 45.55537693442437]]]}}]", "buffer_3": "[{\"type\": \"Feature\", \"properties\": {}, \"geometry\": {\"type\": \"Polygon\", \"coordinates\": [[[10.102645164535744, 45.5046081695602], [10.102329929714221, 45.50466826389521], [10.098736130984918, 45.505633749763184], [10.09529761803464, 45.506847147970234], [10.09204887362772, 45.50829629434521], [10.089022485191569, 45.509966660209265], [10.086248818625874, 45.51184149750987], [10.083755713994494, 45.513902006184985], [10.081568206134413, 45.51612752210704], [10.07970827298348, 45.518495723751045], [10.078194614167852, 45.520982855542236], [10.077042462103341, 45.5235639656701], [10.076263427554192, 45.526213156006825], [10.075865381260847, 45.52890384164394], [10.075852372897662, 45.53160901745843], [10.07655435968849, 45.542155829364276], [10.076903511811338, 45.54473673021337], [10.077603367529031, 45.54728219932784], [10.078647519644644, 45.54976876272984], [10.0800263824253, 45.55217348665965], [10.081727278480358, 45.554474189358224], [10.083734554358148, 45.55664964600903], [10.086029723842877, 45.558679784933496], [10.088591637668378, 45.56054587321242], [10.091396678110723, 45.5622306900005], [10.094418976680194, 45.56371868591401], [10.097630652907682, 45.564996126998686], [10.101002072013191, 45.5660512219283], [10.104502119057804, 45.56687423123928], [10.105646358014434, 45.56705983899045], [10.106324407016112, 45.56768784007416], [10.108966119492608, 45.5696805843735], [10.111880332082517, 45.57147625253173], [10.115037401325914, 45.57305656453528], [10.118405203049454, 45.574405431392826], [10.121949459819527, 45.57550911949612], [10.125634090710687, 45.57635639095733], [10.129421579783974, 45.57693861846778], [10.133273359464566, 45.57724987348659], [10.1371502048439, 45.57728698684382], [10.141012634811037, 45.577049581128975], [10.158524223530376, 45.575343139770666], [10.162148830355331, 45.57486415427532], [10.165691319575581, 45.57414334925661], [10.169119049498386, 45.57318736761523], [10.172400440367163, 45.57200501905142], [10.173685731420345, 45.57142638803972], [10.174804994611682, 45.57162676676782], [10.178520626003907, 45.57202583007138], [10.182274011083283, 45.57216801848691], [10.186029217211333, 45.57205197131322], [10.189750294383813, 45.571678800016166], [10.19340162086119, 45.571052077523426], [10.196948245584306, 45.570177803857696], [10.200356224029663, 45.569064348444385], [10.203592944227339, 45.56772236965836], [10.206627439766738, 45.566164712395995], [10.209430686750443, 45.564406284672266], [10.21197588182214, 45.56246391444574], [10.214238698589229, 45.56035618806581], [10.216197519981849, 45.55810327191224], [10.217833644334691, 45.5557267189586], [10.219131463243784, 45.553249262133285], [10.220078609533642, 45.550694596476525], [10.220666073968173, 45.54808715219578], [10.220888289647759, 45.545451860805365], [10.220743183351974, 45.542813916597446], [10.22023219340876, 45.54019853573234], [10.21936025399374, 45.537630715252746], [10.218135746084132, 45.53513499432317], [10.216570415607542, 45.532735219968714], [10.21467925963389, 45.53045431954031], [10.195621856117207, 45.50984493436661], [10.193526328002495, 45.50779431063632], [10.191167673429748, 45.50589024737853], [10.18856652644913, 45.50414938180483], [10.185745633551194, 45.502586923774565], [10.182729654831025, 45.50121652331368], [10.179544948704029, 45.50005015175779], [10.153516578361046, 45.49157597625293], [10.150087642453641, 45.49059721634321], [10.146540748692887, 45.489855103026166], [10.142908813785594, 45.48935652317438], [10.139225540394959, 45.489106103672334], [10.135525105663117, 45.48910616864389], [10.131841845419387, 45.48935671795983], [10.128209936942653, 45.48985542722138], [10.124663083158763, 45.4905976692208], [10.121234201141831, 45.49157655668434], [10.11795511775222, 45.49278300590997], [10.114856275183694, 45.49420582072176], [10.11196644910823, 45.495831795977345], [10.109312481999915, 45.49764583968628], [10.106919034089405, 45.49963111262613], [10.104808354249, 45.501769184181775], [10.103000072935881, 45.504040202983354], [10.102645164535744, 45.5046081695602]]]}}]", "buffer_5": "[{\"type\": \"Feature\", \"properties\": {}, \"geometry\": {\"type\": \"Polygon\", \"coordinates\": [[[10.091258604760087, 45.582685978583825], [10.09596725029537, 45.58558783620583], [10.101229730913081, 45.58822236125701], [10.106843807532677, 45.59047108021925], [10.112752307527554, 45.592311079020895], [10.118895038937554, 45.59372360673619], [10.12520940692141, 45.59469426787907], [10.13163105550021, 45.59521317006437], [10.138094527853468, 45.59527502548285], [10.144533938214247, 45.59487920512167], [10.162050944229717, 45.59317217583262], [10.168093774245124, 45.59237360065799], [10.173999566943777, 45.59117187775893], [10.178142879282923, 45.590016295252816], [10.182146981964273, 45.59016792870882], [10.188407648816817, 45.58997443575338], [10.194611356315864, 45.58935226965314], [10.200698661786921, 45.58830739347679], [10.206611246140229, 45.586849820226625], [10.212292476209303, 45.58499351618664], [10.217687950371278, 45.58275626617159], [10.222746022071084, 45.58015950201292], [10.22741829611227, 45.57722809597867], [10.231660092872405, 45.57399012116795], [10.235430875945946, 45.57047658124071], [10.23869463910781, 45.56672111213974], [10.241420248920932, 45.56275965872869], [10.243581739775417, 45.55863012950673], [10.245158558639371, 45.5543720327643], [10.246135757315917, 45.55002609771297], [10.246504130531187, 45.54563388425636], [10.246260298718072, 45.54123738516514], [10.24540673490412, 45.53687862447871], [10.24395173565354, 45.532599255977885], [10.24190933654757, 45.52844016555881], [10.239299173208995, 45.52444108128645], [10.2361462893813, 45.52064019482037], [10.21708451205535, 45.50003440367713], [10.21359138395394, 45.49661733253343], [10.209660059346305, 45.493444553599396], [10.20532493634259, 45.49054377256628], [10.200623921402437, 45.48794031615425], [10.195598098101852, 45.485656912111345], [10.190291368909989, 45.483713491893134], [10.16426900919502, 45.475241683346084], [10.158555542293193, 45.47361087916486], [10.152645710509702, 45.47237438099922], [10.146594313658573, 45.4715436537667], [10.140457455202723, 45.47112640010621], [10.13429202562132, 45.4711264894154], [10.128155178725166, 45.471543922182164], [10.122103805604308, 45.47237482993111], [10.116194010911226, 45.47361151078788], [10.110480596165035, 45.47524250034414], [10.105016554707385, 45.47725267719099], [10.099852582849074, 45.479623402176486], [10.095036611618243, 45.48233269013909], [10.090613363356649, 45.48535541257514], [10.086623937210563, 45.48866352941662], [10.084911272392265, 45.4903978309488], [10.082687030226449, 45.491182619228354], [10.077273301854463, 45.493597212379555], [10.07222978032008, 45.49638046077637], [10.067607056984787, 45.49950447875245], [10.063451529653022, 45.50293796128214], [10.059804937024142, 45.5066464960873], [10.056703938693818, 45.51059290696842], [10.054179744960328, 45.51473762499735], [10.052257800238179, 45.51903908392452], [10.050957523387062, 45.523454135902924], [10.050292107731487, 45.52793848341658], [10.050268382979317, 45.53244712312572], [10.050965601802373, 45.54299413316297], [10.051545601180312, 45.54729578020568], [10.052710216698411, 45.55153849900405], [10.054448836406205, 45.55568315635546], [10.056745544322734, 45.559691515188455], [10.05957926300653, 45.563526588050806], [10.062923944307675, 45.567152979334224], [10.066748806676014, 45.570537213035735], [10.07101861694363, 45.57364804298126], [10.07569401405897, 45.576456742592086], [10.080731871829425, 45.57893737146015], [10.086085697334491, 45.581067016210326], [10.091258604760087, 45.582685978583825]]]}}]", "centroid": "[{\"type\": \"Feature\", \"properties\": {}, \"geometry\": {\"type\": \"Point\", \"coordinates\": [10.146702854216098, 45.5355991263786]}}]", "Diesel High Quality": {"1": [{"Gestore": "B13 SNC DI BUIZZA MARIO & C.", "Bandiera": "Q8", "Tipo impianto": "Altro", "Indirizzo": "VIA SANTA GIULIA 24 25039", "Nome impianto": "Q8", "Comune": "TRAVAGLIATO", "idImpianto": 6113, "points": [{"type": "Feature", "properties": {}, "geometry": {"type": "Point", "coordinates": [10.106172281228623, 45.53300249528117]}}], "price": 2.174, "ultima_rilevazione": "15/06/2022 10:52:01"}, {"Gestore": "EGI-2GO S.R.L.", "Bandiera": "Esso", "Tipo impianto": "Strada Statale", "Indirizzo": "11 Padana Superiore, Km. 2, nord 25030", "Nome impianto": "Roncadelle nord", "Comune": "RONCADELLE", "idImpianto": 47997, "points": [{"type": "Feature", "properties": {}, "geometry": {"type": "Point", "coordinates": [10.152566602634732, 45.537858847438685]}}], "price": 2.149, "ultima_rilevazione": "16/06/2022 10:49:35"}, {"Gestore": "EGI-2GO S.R.L.", "Bandiera": "Esso", "Tipo impianto": "Strada Statale", "Indirizzo": "11 Padana Superiore, Km. 2+450, sud 25030", "Nome impianto": "Roncadelle Sud", "Comune": "RONCADELLE", "idImpianto": 47998, "points": [{"type": "Feature", "properties": {}, "geometry": {"type": "Point", "coordinates": [10.151906321211074, 45.53713153813316]}}], "price": 2.149, "ultima_rilevazione": "16/06/2022 10:50:32"}, {"Gestore": "IP SERVICES S.R.L.", "Bandiera": "Api-Ip", "Tipo impianto": "Altro", "Indirizzo": "Via Valcamonica 9 25126", "Nome impianto": "Brescia Valcamonica", "Comune": "BRESCIA", "idImpianto": 28043, "points": [{"type": "Feature", "properties": {}, "geometry": {"type": "Point", "coordinates": [10.180791020393372, 45.54693836466013]}}], "price": 1.999, "ultima_rilevazione": "16/06/2022 12:05:50"}, {"Gestore": "MARELLI IVO", "Bandiera": "Q8", "Tipo impianto": "Altro", "Indirizzo": "VIA VALLECAMONICA SNC 25132", "Nome impianto": "MARELLI IVO", "Comune": "BRESCIA", "idImpianto": 13585, "points": [{"type": "Feature", "properties": {}, "geometry": {"type": "Point", "coordinates": [10.160254687070848, 45.54807329293446]}}], "price": 2.139, "ultima_rilevazione": "16/06/2022 15:05:01"}], "3": [{"Gestore": "AMIDANI SCIASCIA", "Bandiera": "Q8", "Tipo impianto": "Altro", "Indirizzo": "via corsica 152 25125", "Nome impianto": "amidani sciascia", "Comune": "BRESCIA", "idImpianto": 11430, "points": [{"type": "Feature", "properties": {}, "geometry": {"type": "Point", "coordinates": [10.2040296792984, 45.52675659702511]}}], "price": 2.399, "ultima_rilevazione": "14/06/2022 07:37:08"}, {"Gestore": "AMIDANI SCIASCIA", "Bandiera": "Q8", "Tipo impianto": "Altro", "Indirizzo": "via corsica 152 25125", "Nome impianto": "amidani sciascia", "Comune": "BRESCIA", "idImpianto": 11430, "points": [{"type": "Feature", "properties": {}, "geometry": {"type": "Point", "coordinates": [10.2040296792984, 45.52675659702511]}}], "price": 2.339, "ultima_rilevazione": "14/06/2022 07:37:08"}, {"Gestore": "SORETTI SILVANO", "Bandiera": "Esso", "Tipo impianto": "Altro", "Indirizzo": "VIA DALMAZIA 70 25125", "Nome impianto": "Stazione di servizio - Soretti Silvano", "Comune": "BRESCIA", "idImpianto": 15934, "points": [{"type": "Feature", "properties": {}, "geometry": {"type": "Point", "coordinates": [10.199276804924011, 45.52991018794497]}}], "price": 2.119, "ultima_rilevazione": "14/06/2022 16:40:16"}, {"Gestore": "BUIZZA PIETRO", "Bandiera": "Q8", "Tipo impianto": "Altro", "Indirizzo": "VIA FLERO 18 25125", "Nome impianto": "BUIZZA PIETRO", "Comune": "BRESCIA", "idImpianto": 13438, "points": [{"type": "Feature", "properties": {}, "geometry": {"type": "Point", "coordinates": [10.198878279762312, 45.52307242408842]}}], "price": 2.224, "ultima_rilevazione": "14/06/2022 20:17:57"}, {"Gestore": "SA.MAR. DI MARIOTTI GRAZIELLA E C. SNC O BREVEMENTE \"SA.MAR. SNC\"", "Bandiera": "Total Erg", "Tipo impianto": "Altro", "Indirizzo": "tangenziale ovest, Km. 1, quinzano 1 25030", "Nome impianto": "IP", "Comune": "CASTEL MELLA", "idImpianto": 7111, "points": [{"type": "Feature", "properties": {}, "geometry": {"type": "Point", "coordinates": [10.160425115466296, 45.49708643319849]}}], "price": 2.059, "ultima_rilevazione": "15/06/2022 11:05:28"}, {"Gestore": "SO.LO.ERRE S.A.S. DI RANDISI LEO E C.", "Bandiera": "Q8", "Tipo impianto": "Altro", "Indirizzo": "VIA ORZINUOVI 40/44 25125", "Nome impianto": "Q8 soloerre Brescia", "Comune": "BRESCIA", "idImpianto": 7911, "points": [{"type": "Feature", "properties": {}, "geometry": {"type": "Point", "coordinates": [10.18974356353283, 45.52925272685685]}}], "price": 2.299, "ultima_rilevazione": "15/06/2022 13:16:07"}, {"Gestore": "SO.LO.ERRE S.A.S. DI RANDISI LEO E C.", "Bandiera": "Q8", "Tipo impianto": "Altro", "Indirizzo": "VIA ORZINUOVI 40/44 25125", "Nome impianto": "Q8 soloerre Brescia", "Comune": "BRESCIA", "idImpianto": 7911, "points": [{"type": "Feature", "properties": {}, "geometry": {"type": "Point", "coordinates": [10.18974356353283, 45.52925272685685]}}], "price": 2.379, "ultima_rilevazione": "15/06/2022 13:16:07"}, {"Gestore": "F.LLI UBERTI  DI UBERTI ANDREA E MAURO SNC", "Bandiera": "Q8", "Tipo impianto": "Altro", "Indirizzo": "VIA TORRICELLA DI SOPRA 148 25127", "Nome impianto": "Q8 ", "Comune": "BRESCIA", "idImpianto": 12809, "points": [{"type": "Feature", "properties": {}, "geometry": {"type": "Point", "coordinates": [10.187760125933892, 45.56263187447065]}}], "price": 2.299, "ultima_rilevazione": "15/06/2022 21:56:30"}, {"Gestore": "3S DI SOLA LUCA", "Bandiera": "Esso", "Tipo impianto": "Altro", "Indirizzo": "VIA LABIRINTO 6 25128", "Nome impianto": "Stazione di servizio 3s ", "Comune": "BRESCIA", "idImpianto": 50191, "points": [{"type": "Feature", "properties": {}, "geometry": {"type": "Point", "coordinates": [10.196567317790992, 45.5225431546276]}}], "price": 2.189, "ultima_rilevazione": "17/06/2022 07:21:50"}, {"Gestore": "MARANGON LUCA & C. S.N.C.", "Bandiera": "Q8", "Tipo impianto": "Altro", "Indirizzo": "VIA VOLTURNO 80 25126", "Nome impianto": "Stazione Q8 Marangon Luca & C. Snc", "Comune": "BRESCIA", "idImpianto": 10026, "points": [{"type": "Feature", "properties": {}, "geometry": {"type": "Point", "coordinates": [10.20006202161312, 45.54888869150083]}}], "price": 2.269, "ultima_rilevazione": "17/06/2022 07:26:33"}], "5": [{"Gestore": "F.LLI MINGARDI SNC DI A. & G. MINGARDI", "Bandiera": "Total Erg", "Tipo impianto": "Altro", "Indirizzo": "via vallosa 34 25050", "Nome impianto": "MINGARDI TOTAL ERG", "Comune": "PASSIRANO", "idImpianto": 26946, "points": [{"type": "Feature", "properties": {}, "geometry": {"type": "Point", "coordinates": [10.068902671337128, 45.56805156499202]}}], "price": 2.019, "ultima_rilevazione": "10/05/2022 08:02:26"}, {"Gestore": "SILVI DI BERTAZZI SILVANA E C. S.N.C.", "Bandiera": "Q8", "Tipo impianto": "Altro", "Indirizzo": " S.P.19 KM.20+900 DIR.CONCESIO  25039", "Nome impianto": "STAZIONE DI SERVIZIO Q8 GEST. SILVI", "Comune": "TRAVAGLIATO", "idImpianto": 27587, "points": [{"type": "Feature", "properties": {}, "geometry": {"type": "Point", "coordinates": [10.078003406524658, 45.50080468089395]}}], "price": 2.099, "ultima_rilevazione": "15/06/2022 15:09:34"}, {"Gestore": "F.LLI CASTA GIORGIO & FULVIO SNC", "Bandiera": "Api-Ip", "Tipo impianto": "Altro", "Indirizzo": "borgosatollo 16 25123 25123", "Nome impianto": "TotalErg", "Comune": "BRESCIA", "idImpianto": 45053, "points": [{"type": "Feature", "properties": {}, "geometry": {"type": "Point", "coordinates": [10.228157958335942, 45.51318792389381]}}], "price": 2.079, "ultima_rilevazione": "15/06/2022 17:40:33"}, {"Gestore": "IP SERVICES S.R.L.", "Bandiera": "Api-Ip", "Tipo impianto": "Altro", "Indirizzo": "Via duca degli Abruzzi  25124", "Nome impianto": "Brescia Abruzzi", "Comune": "BRESCIA", "idImpianto": 20098, "points": [{"type": "Feature", "properties": {}, "geometry": {"type": "Point", "coordinates": [10.230162017196676, 45.523314574143065]}}], "price": 1.999, "ultima_rilevazione": "16/06/2022 12:06:45"}, {"Gestore": "FUMIA MICHEL", "Bandiera": "Esso", "Tipo impianto": "Altro", "Indirizzo": "VIA TRIUMPLINA 84 25123", "Nome impianto": "Stazione di rifornimento esso", "Comune": "BRESCIA", "idImpianto": 43784, "points": [{"type": "Feature", "properties": {}, "geometry": {"type": "Point", "coordinates": [10.229396728836036, 45.56537575560221]}}], "price": 2.159, "ultima_rilevazione": "17/06/2022 07:37:46"}]}, "Blue Diesel": {"1": [{"Gestore": "BERTOLANI GIUSEPPE & C. S.A.S.", "Bandiera": "Agip Eni", "Tipo impianto": "Altro", "Indirizzo": "VIA MARTIRI DELLA LIBERTA' 14/E 25030", "Nome impianto": "Stazione di Servizio ENI", "Comune": "TORBOLE CASAGLIA", "idImpianto": 35681, "points": [{"type": "Feature", "properties": {}, "geometry": {"type": "Point", "coordinates": [10.13001948595047, 45.5167707820845]}}], "price": 2.169, "ultima_rilevazione": "16/06/2022 06:44:43"}], "3": [{"Gestore": "PIETROBONI FELICE E C. S.N.C.", "Bandiera": "Agip Eni", "Tipo impianto": "Altro", "Indirizzo": "VIA OBERDAN 104 25128", "Nome impianto": "pietroboni felice e c snc", "Comune": "BRESCIA", "idImpianto": 11207, "points": [{"type": "Feature", "properties": {}, "geometry": {"type": "Point", "coordinates": [10.209791468786648, 45.56068365491621]}}], "price": 2.154, "ultima_rilevazione": "07/06/2022 16:25:55"}, {"Gestore": "PIETROBONI FELICE E C. S.N.C.", "Bandiera": "Agip Eni", "Tipo impianto": "Altro", "Indirizzo": "VIA OBERDAN 104 25128", "Nome impianto": "pietroboni felice e c snc", "Comune": "BRESCIA", "idImpianto": 11207, "points": [{"type": "Feature", "properties": {}, "geometry": {"type": "Point", "coordinates": [10.209791468786648, 45.56068365491621]}}], "price": 2.044, "ultima_rilevazione": "07/06/2022 16:25:55"}, {"Gestore": "LA PICCOLA S.A.S. DI COSTA ALESSANDRO & C.", "Bandiera": "Agip Eni", "Tipo impianto": "Altro", "Indirizzo": "VIA DALMAZIA 44 25125", "Nome impianto": "enicaf\u00e8", "Comune": "BRESCIA", "idImpianto": 32506, "points": [{"type": "Feature", "properties": {}, "geometry": {"type": "Point", "coordinates": [10.20012131282806, 45.53201968694268]}}], "price": 2.214, "ultima_rilevazione": "15/06/2022 08:04:11"}, {"Gestore": "LA PICCOLA S.A.S. DI COSTA ALESSANDRO & C.", "Bandiera": "Agip Eni", "Tipo impianto": "Altro", "Indirizzo": "VIA DALMAZIA 44 25125", "Nome impianto": "enicaf\u00e8", "Comune": "BRESCIA", "idImpianto": 32506, "points": [{"type": "Feature", "properties": {}, "geometry": {"type": "Point", "coordinates": [10.20012131282806, 45.53201968694268]}}], "price": 2.144, "ultima_rilevazione": "15/06/2022 08:04:11"}, {"Gestore": "LU.DA. SERVICE DI BIGNOTTI LEONARDO & C. SAS", "Bandiera": "Agip Eni", "Tipo impianto": "Altro", "Indirizzo": "Via Sale 96 25064", "Nome impianto": "Non Solo Service - Lavaggio Auto & more", "Comune": "GUSSAGO", "idImpianto": 14829, "points": [{"type": "Feature", "properties": {}, "geometry": {"type": "Point", "coordinates": [10.134335137547623, 45.57249752442318]}}], "price": 2.084, "ultima_rilevazione": "15/06/2022 18:38:33"}, {"Gestore": "PERLETTI GIOVANNI BATTISTA", "Bandiera": "Agip Eni", "Tipo impianto": "Strada Statale", "Indirizzo": "11 Padana Superiore, Km. 224,521, est 25035", "Nome impianto": "Perletti Giovanni Battista", "Comune": "OSPITALETTO", "idImpianto": 48169, "points": [{"type": "Feature", "properties": {}, "geometry": {"type": "Point", "coordinates": [10.09650943435861, 45.553381025617696]}}], "price": 2.149, "ultima_rilevazione": "16/06/2022 06:03:55"}, {"Gestore": "PERLETTI GIOVANNI BATTISTA", "Bandiera": "Agip Eni", "Tipo impianto": "Strada Statale", "Indirizzo": "11 Padana Superiore, Km. 224,521, est 25035", "Nome impianto": "Perletti Giovanni Battista", "Comune": "OSPITALETTO", "idImpianto": 48169, "points": [{"type": "Feature", "properties": {}, "geometry": {"type": "Point", "coordinates": [10.09650943435861, 45.553381025617696]}}], "price": 2.234, "ultima_rilevazione": "16/06/2022 06:03:55"}], "5": [{"Gestore": "FOUR S.N.C. DI ZAMBELLI NICOLA & C.", "Bandiera": "Agip Eni", "Tipo impianto": "Altro", "Indirizzo": "sp 19 km 16+480  25046", "Nome impianto": "stazione di servizio agip", "Comune": "CAZZAGO SAN MARTINO", "idImpianto": 43492, "points": [{"type": "Feature", "properties": {}, "geometry": {"type": "Point", "coordinates": [10.05456850429914, 45.53638739384982]}}], "price": 2.214, "ultima_rilevazione": "11/06/2022 08:35:29"}, {"Gestore": "FOUR S.N.C. DI ZAMBELLI NICOLA & C.", "Bandiera": "Agip Eni", "Tipo impianto": "Altro", "Indirizzo": "sp 19 km 16+480  25046", "Nome impianto": "stazione di servizio agip", "Comune": "CAZZAGO SAN MARTINO", "idImpianto": 43492, "points": [{"type": "Feature", "properties": {}, "geometry": {"type": "Point", "coordinates": [10.05456850429914, 45.53638739384982]}}], "price": 2.124, "ultima_rilevazione": "11/06/2022 08:35:29"}, {"Gestore": "MARCHINA GIUSEPPE E C. S.A.S.", "Bandiera": "Agip Eni", "Tipo impianto": "Altro", "Indirizzo": "VIA LAMARMORA 150 25124", "Nome impianto": " MARCHINA GIUSEPPE E C. SAS", "Comune": "BRESCIA", "idImpianto": 21804, "points": [{"type": "Feature", "properties": {}, "geometry": {"type": "Point", "coordinates": [10.21184032418978, 45.52116838825391]}}], "price": 2.124, "ultima_rilevazione": "14/06/2022 09:08:35"}, {"Gestore": "MARCHINA GIUSEPPE E C. S.A.S.", "Bandiera": "Agip Eni", "Tipo impianto": "Altro", "Indirizzo": "VIA LAMARMORA 150 25124", "Nome impianto": " MARCHINA GIUSEPPE E C. SAS", "Comune": "BRESCIA", "idImpianto": 21804, "points": [{"type": "Feature", "properties": {}, "geometry": {"type": "Point", "coordinates": [10.21184032418978, 45.52116838825391]}}], "price": 2.194, "ultima_rilevazione": "14/06/2022 09:08:35"}, {"Gestore": "GRECHI ALESSANDRO", "Bandiera": "Agip Eni", "Tipo impianto": "Strada Statale", "Indirizzo": "Statale 510 Sebina Orientale, Km. 5 + 075, dir. Brescia 25050", "Nome impianto": "Agip", "Comune": "RODENGO SAIANO", "idImpianto": 24037, "points": [{"type": "Feature", "properties": {}, "geometry": {"type": "Point", "coordinates": [10.110132247209547, 45.58235114708773]}}], "price": 2.129, "ultima_rilevazione": "14/06/2022 10:16:12"}, {"Gestore": "MUSCIO ROBERTO", "Bandiera": "Agip Eni", "Tipo impianto": "Altro", "Indirizzo": "Via Caporalino 16/A 25060", "Nome impianto": "Distributore Eni di Muscio Roberto", "Comune": "CELLATICA", "idImpianto": 50798, "points": [{"type": "Feature", "properties": {}, "geometry": {"type": "Point", "coordinates": [10.169373022022656, 45.58321478190136]}}], "price": 2.059, "ultima_rilevazione": "15/06/2022 14:07:17"}, {"Gestore": "ROZZINI STEFANIA", "Bandiera": "Agip Eni", "Tipo impianto": "Altro", "Indirizzo": "VIA XXV APRILE 1 25020", "Nome impianto": "agip 1762", "Comune": "FLERO", "idImpianto": 5693, "points": [{"type": "Feature", "properties": {}, "geometry": {"type": "Point", "coordinates": [10.178846418857574, 45.48325291140423]}}], "price": 2.169, "ultima_rilevazione": "16/06/2022 08:32:03"}, {"Gestore": "BRIXIA FINANZIARIA S.R.L.", "Bandiera": "Agip Eni", "Tipo impianto": "Altro", "Indirizzo": "Viale Piave 2 51743", "Nome impianto": "Brixia Finanziaria Srl - Brescia Viale Piave", "Comune": "BRESCIA", "idImpianto": 47737, "points": [{"type": "Feature", "properties": {}, "geometry": {"type": "Point", "coordinates": [10.238080831590825, 45.53086391657703]}}], "price": 2.164, "ultima_rilevazione": "16/06/2022 09:02:10"}, {"Gestore": "G.M. CARBURANTI SNC DI GRAFFIGNA MANUEL & C.", "Bandiera": "Agip Eni", "Tipo impianto": "Altro", "Indirizzo": "VIA BREDA VECCHIA 1 25060", "Nome impianto": "GM CARBURANTI SNC", "Comune": "CELLATICA", "idImpianto": 49811, "points": [{"type": "Feature", "properties": {}, "geometry": {"type": "Point", "coordinates": [10.178110152482986, 45.57952321129192]}}], "price": 2.234, "ultima_rilevazione": "16/06/2022 09:11:18"}, {"Gestore": "G.M. CARBURANTI SNC DI GRAFFIGNA MANUEL & C.", "Bandiera": "Agip Eni", "Tipo impianto": "Altro", "Indirizzo": "VIA BREDA VECCHIA 1 25060", "Nome impianto": "GM CARBURANTI SNC", "Comune": "CELLATICA", "idImpianto": 49811, "points": [{"type": "Feature", "properties": {}, "geometry": {"type": "Point", "coordinates": [10.178110152482986, 45.57952321129192]}}], "price": 2.084, "ultima_rilevazione": "16/06/2022 09:11:18"}, {"Gestore": "LOIUDICE FABIO SNC DI LOIUDICE FABIO E CASALOTTI NICOLA", "Bandiera": "Agip Eni", "Tipo impianto": "Altro", "Indirizzo": "PIAZZALE CORVI SNC 25128", "Nome impianto": "ENI CAFE' ", "Comune": "BRESCIA", "idImpianto": 13073, "points": [{"type": "Feature", "properties": {}, "geometry": {"type": "Point", "coordinates": [10.227285772562029, 45.55475616932155]}}], "price": 2.164, "ultima_rilevazione": "16/06/2022 12:34:26"}, {"Gestore": "LOIUDICE FABIO SNC DI LOIUDICE FABIO E CASALOTTI NICOLA", "Bandiera": "Agip Eni", "Tipo impianto": "Altro", "Indirizzo": "PIAZZALE CORVI SNC 25128", "Nome impianto": "ENI CAFE' ", "Comune": "BRESCIA", "idImpianto": 13073, "points": [{"type": "Feature", "properties": {}, "geometry": {"type": "Point", "coordinates": [10.227285772562029, 45.55475616932155]}}], "price": 2.214, "ultima_rilevazione": "16/06/2022 12:34:26"}, {"Gestore": "BREDA RAMON", "Bandiera": "Agip Eni", "Tipo impianto": "Altro", "Indirizzo": "VIA XXV APRILE 28 25121", "Nome impianto": "IMPIANTO N. 1736", "Comune": "BRESCIA", "idImpianto": 49041, "points": [{"type": "Feature", "properties": {}, "geometry": {"type": "Point", "coordinates": [10.228936647221415, 45.5316793292002]}}], "price": 2.164, "ultima_rilevazione": "16/06/2022 14:03:06"}, {"Gestore": "GOZIO PIERCARLO", "Bandiera": "Agip Eni", "Tipo impianto": "Altro", "Indirizzo": "VIA FILIPPO TURATI 30 25123", "Nome impianto": "GOZIO PIERCARLO", "Comune": "BRESCIA", "idImpianto": 37423, "points": [{"type": "Feature", "properties": {}, "geometry": {"type": "Point", "coordinates": [10.231937865676173, 45.5392568891075]}}], "price": 2.164, "ultima_rilevazione": "16/06/2022 16:44:02"}, {"Gestore": "ENI FUEL S.P.A.", "Bandiera": "Agip Eni", "Tipo impianto": "Altro", "Indirizzo": "Via Montelungo, Tang. Ovest 10 25123", "Nome impianto": "BRESCIA", "Comune": "BRESCIA", "idImpianto": 5454, "points": [{"type": "Feature", "properties": {}, "geometry": {"type": "Point", "coordinates": [10.216546034393332, 45.572186409669925]}}], "price": 2.149, "ultima_rilevazione": "17/06/2022 07:38:04"}, {"Gestore": "ENI FUEL S.P.A.", "Bandiera": "Agip Eni", "Tipo impianto": "Altro", "Indirizzo": "Via Montelungo, Tang. Ovest 10 25123", "Nome impianto": "BRESCIA", "Comune": "BRESCIA", "idImpianto": 5454, "points": [{"type": "Feature", "properties": {}, "geometry": {"type": "Point", "coordinates": [10.216546034393332, 45.572186409669925]}}], "price": 2.219, "ultima_rilevazione": "17/06/2022 07:38:04"}, {"Gestore": "HM CARBURANTI E AUTOLAVAGGIO DI HUSNAIN MUAZZAM", "Bandiera": "Agip Eni", "Tipo impianto": "Altro", "Indirizzo": "VIA QUIANZANO  14 25020", "Nome impianto": "HM CARBURANTI DI HUSNAIN MUAZZAM", "Comune": "FLERO", "idImpianto": 47521, "points": [{"type": "Feature", "properties": {}, "geometry": {"type": "Point", "coordinates": [10.155970000123, 45.490781000123]}}], "price": 2.164, "ultima_rilevazione": "17/06/2022 06:33:31"}, {"Gestore": "HM CARBURANTI E AUTOLAVAGGIO DI HUSNAIN MUAZZAM", "Bandiera": "Agip Eni", "Tipo impianto": "Altro", "Indirizzo": "VIA QUIANZANO  14 25020", "Nome impianto": "HM CARBURANTI DI HUSNAIN MUAZZAM", "Comune": "FLERO", "idImpianto": 47521, "points": [{"type": "Feature", "properties": {}, "geometry": {"type": "Point", "coordinates": [10.155970000123, 45.490781000123]}}], "price": 2.234, "ultima_rilevazione": "17/06/2022 06:33:31"}, {"Gestore": "P. & B. S.R.L.", "Bandiera": "Agip Eni", "Tipo impianto": "Strada Statale", "Indirizzo": "Statale 11 Padana Superiore, Km. 4, dir. verona", "Nome impianto": "eni", "Comune": "BRESCIA", "idImpianto": 23813, "points": [{"type": "Feature", "properties": {}, "geometry": {"type": "Point", "coordinates": [10.203112363815308, 45.5175778013362]}}], "price": 2.169, "ultima_rilevazione": "17/06/2022 07:23:25"}, {"Gestore": "P. & B. S.R.L.", "Bandiera": "Agip Eni", "Tipo impianto": "Strada Statale", "Indirizzo": "Statale 11 Padana Superiore, Km. 4, dir. verona", "Nome impianto": "eni", "Comune": "BRESCIA", "idImpianto": 23813, "points": [{"type": "Feature", "properties": {}, "geometry": {"type": "Point", "coordinates": [10.203112363815308, 45.5175778013362]}}], "price": 2.239, "ultima_rilevazione": "17/06/2022 07:23:25"}]}, "Gasolio High Quality": {"1": [{"Gestore": "GE.DI.A. S.R.L.", "Bandiera": "Api-Ip", "Tipo impianto": "Autostradale", "Indirizzo": "Autostrada A4 MILANO-BRESCIA, Km. 214, dir. venezia 25030", "Nome impianto": "VALTROMPIA SUD", "Comune": "RONCADELLE", "idImpianto": 31429, "points": [{"type": "Feature", "properties": {}, "geometry": {"type": "Point", "coordinates": [10.149385035037994, 45.532129602677465]}}], "price": 2.145, "ultima_rilevazione": "16/06/2022 06:05:16"}, {"Gestore": "MEHDI MUHAMMAD ZAMAN", "Bandiera": "Esso", "Tipo impianto": "Altro", "Indirizzo": "VIA VALCAMONICA 16/O 25127", "Nome impianto": "Stazione di Servizio Esso", "Comune": "BRESCIA", "idImpianto": 42209, "points": [{"type": "Feature", "properties": {}, "geometry": {"type": "Point", "coordinates": [10.169743001461027, 45.54720923179941]}}], "price": 2.156, "ultima_rilevazione": "16/06/2022 08:15:17"}], "3": [{"Gestore": "F.LLI MARCHESE SNC DI FRANCESCO E STEFANO MARCHESE", "Bandiera": "Esso", "Tipo impianto": "Altro", "Indirizzo": "VIA MILANO 44/46 25126", "Nome impianto": "F.LLI MARCHESE SNC DI FRANCESCO E STEFANO MARCHESE", "Comune": "BRESCIA", "idImpianto": 23963, "points": [{"type": "Feature", "properties": {}, "geometry": {"type": "Point", "coordinates": [10.201670431213415, 45.54412479365685]}}], "price": 2.036, "ultima_rilevazione": "18/05/2022 08:09:07"}, {"Gestore": "A. & C. DI ARMOGIDA R. E C. SNC", "Bandiera": "Api-Ip", "Tipo impianto": "Altro", "Indirizzo": "Via Orzinuovi 56/z", "Nome impianto": "Stazione di servizio IP", "Comune": "BRESCIA", "idImpianto": 24341, "points": [{"type": "Feature", "properties": {}, "geometry": {"type": "Point", "coordinates": [10.187611877918243, 45.52985870371099]}}], "price": 2.164, "ultima_rilevazione": "17/06/2022 07:24:27"}], "5": [{"Gestore": "SOLA RENATO E UBERTI MARCO S.N.C.", "Bandiera": "Esso", "Tipo impianto": "Altro", "Indirizzo": "VIA CAPORALINO 11 25060", "Nome impianto": "sola renato e uberti marco snc", "Comune": "CELLATICA", "idImpianto": 12253, "points": [{"type": "Feature", "properties": {}, "geometry": {"type": "Point", "coordinates": [10.170008540153503, 45.58271082383399]}}], "price": 2.109, "ultima_rilevazione": "15/06/2022 07:30:48"}, {"Gestore": "BRESCIA PUSTERLA DI CAPRIOLI MARIO E C. S.N.C.", "Bandiera": "Esso", "Tipo impianto": "Altro", "Indirizzo": "VIA PUSTERLA 69 25128", "Nome impianto": "BRESCIA PUSTERLA SNC", "Comune": "BRESCIA", "idImpianto": 21495, "points": [{"type": "Feature", "properties": {}, "geometry": {"type": "Point", "coordinates": [10.230036592590295, 45.544076594564494]}}], "price": 2.169, "ultima_rilevazione": "17/06/2022 07:54:35"}]}, "Benzina": {"1": [{"Gestore": "B13 SNC DI BUIZZA MARIO & C.", "Bandiera": "Q8", "Tipo impianto": "Altro", "Indirizzo": "VIA SANTA GIULIA 24 25039", "Nome impianto": "Q8", "Comune": "TRAVAGLIATO", "idImpianto": 6113, "points": [{"type": "Feature", "properties": {}, "geometry": {"type": "Point", "coordinates": [10.106172281228623, 45.53300249528117]}}], "price": 2.049, "ultima_rilevazione": "15/06/2022 10:52:01"}, {"Gestore": "GI.MA S.N.C. DI FERLUCCI G.  &  GAZZOLI M.", "Bandiera": "Api-Ip", "Tipo impianto": "Altro", "Indirizzo": "VIA CHIUSURE 30 25127", "Nome impianto": "gima snc", "Comune": "BRESCIA", "idImpianto": 13202, "points": [{"type": "Feature", "properties": {}, "geometry": {"type": "Point", "coordinates": [10.18580338332822, 45.54992621615376]}}], "price": 2.099, "ultima_rilevazione": "15/06/2022 12:17:14"}, {"Gestore": "GE.DI.A. S.R.L.", "Bandiera": "Api-Ip", "Tipo impianto": "Autostradale", "Indirizzo": "Autostrada A4 MILANO-BRESCIA, Km. 214, dir. venezia 25030", "Nome impianto": "VALTROMPIA SUD", "Comune": "RONCADELLE", "idImpianto": 31429, "points": [{"type": "Feature", "properties": {}, "geometry": {"type": "Point", "coordinates": [10.149385035037994, 45.532129602677465]}}], "price": 2.198, "ultima_rilevazione": "16/06/2022 06:05:16"}, {"Gestore": "BERTOLANI GIUSEPPE & C. S.A.S.", "Bandiera": "Agip Eni", "Tipo impianto": "Altro", "Indirizzo": "VIA MARTIRI DELLA LIBERTA' 14/E 25030", "Nome impianto": "Stazione di Servizio ENI", "Comune": "TORBOLE CASAGLIA", "idImpianto": 35681, "points": [{"type": "Feature", "properties": {}, "geometry": {"type": "Point", "coordinates": [10.13001948595047, 45.5167707820845]}}], "price": 2.089, "ultima_rilevazione": "16/06/2022 06:44:43"}, {"Gestore": "FRAU CRISTIAN", "Bandiera": "Api-Ip", "Tipo impianto": "Altro", "Indirizzo": "VIA ORZINUOVI 127 25125", "Nome impianto": "Distributore IP di Frau Cristian", "Comune": "BRESCIA", "idImpianto": 36313, "points": [{"type": "Feature", "properties": {}, "geometry": {"type": "Point", "coordinates": [10.183759555220604, 45.5305154061553]}}], "price": 2.129, "ultima_rilevazione": "16/06/2022 07:52:17"}, {"Gestore": "MEHDI MUHAMMAD ZAMAN", "Bandiera": "Esso", "Tipo impianto": "Altro", "Indirizzo": "VIA VALCAMONICA 16/O 25127", "Nome impianto": "Stazione di Servizio Esso", "Comune": "BRESCIA", "idImpianto": 42209, "points": [{"type": "Feature", "properties": {}, "geometry": {"type": "Point", "coordinates": [10.169743001461027, 45.54720923179941]}}], "price": 2.046, "ultima_rilevazione": "16/06/2022 08:15:17"}, {"Gestore": "ri.val.sas di Girelli Mario & c", "Bandiera": "Api-Ip", "Tipo impianto": "Autostradale", "Indirizzo": "Autostrada A4 MILANO-BRESCIA, Km. 213+706, dir. Ovest 25030", "Nome impianto": "VALTROMPIA NORD", "Comune": "RONCADELLE", "idImpianto": 3594, "points": [{"type": "Feature", "properties": {}, "geometry": {"type": "Point", "coordinates": [10.150197073817251, 45.53283606917308]}}], "price": 2.198, "ultima_rilevazione": "16/06/2022 08:30:06"}, {"Gestore": "EGI-2GO S.R.L.", "Bandiera": "Esso", "Tipo impianto": "Strada Statale", "Indirizzo": "11 Padana Superiore, Km. 2, nord 25030", "Nome impianto": "Roncadelle nord", "Comune": "RONCADELLE", "idImpianto": 47997, "points": [{"type": "Feature", "properties": {}, "geometry": {"type": "Point", "coordinates": [10.152566602634732, 45.537858847438685]}}], "price": 2.029, "ultima_rilevazione": "16/06/2022 10:49:35"}, {"Gestore": "EGI-2GO S.R.L.", "Bandiera": "Esso", "Tipo impianto": "Strada Statale", "Indirizzo": "11 Padana Superiore, Km. 2+450, sud 25030", "Nome impianto": "Roncadelle Sud", "Comune": "RONCADELLE", "idImpianto": 47998, "points": [{"type": "Feature", "properties": {}, "geometry": {"type": "Point", "coordinates": [10.151906321211074, 45.53713153813316]}}], "price": 2.029, "ultima_rilevazione": "16/06/2022 10:50:32"}, {"Gestore": "T.D.M. S.R.L.", "Bandiera": "Tamoil", "Tipo impianto": "Altro", "Indirizzo": "Via Padana Superiore 16 25045", "Nome impianto": "6059", "Comune": "CASTEGNATO", "idImpianto": 27165, "points": [{"type": "Feature", "properties": {}, "geometry": {"type": "Point", "coordinates": [10.13626366853714, 45.55016238763048]}}], "price": 2.039, "ultima_rilevazione": "16/06/2022 12:32:08"}, {"Gestore": "IP SERVICES S.R.L.", "Bandiera": "Api-Ip", "Tipo impianto": "Altro", "Indirizzo": "VIA MARTIRI LIBERTA'  25030", "Nome impianto": "RONCADELLE - V. MARTIRI LIBERTA'", "Comune": "RONCADELLE", "idImpianto": 25072, "points": [{"type": "Feature", "properties": {}, "geometry": {"type": "Point", "coordinates": [10.155743673610688, 45.52497369189068]}}], "price": 2.019, "ultima_rilevazione": "16/06/2022 12:02:08"}, {"Gestore": "IP SERVICES S.R.L.", "Bandiera": "Api-Ip", "Tipo impianto": "Altro", "Indirizzo": "Via Valcamonica 9 25126", "Nome impianto": "Brescia Valcamonica", "Comune": "BRESCIA", "idImpianto": 28043, "points": [{"type": "Feature", "properties": {}, "geometry": {"type": "Point", "coordinates": [10.180791020393372, 45.54693836466013]}}], "price": 2.039, "ultima_rilevazione": "16/06/2022 12:05:50"}, {"Gestore": "SISTI TIZIANA", "Bandiera": "Api-Ip", "Tipo impianto": "Altro", "Indirizzo": "VIA VALCAMONICA 3 25126", "Nome impianto": "stazione di servizio IP", "Comune": "BRESCIA", "idImpianto": 15855, "points": [{"type": "Feature", "properties": {}, "geometry": {"type": "Point", "coordinates": [10.18236987546311, 45.547234737552536]}}], "price": 2.064, "ultima_rilevazione": "16/06/2022 14:46:08"}, {"Gestore": "MARELLI IVO", "Bandiera": "Q8", "Tipo impianto": "Altro", "Indirizzo": "VIA VALLECAMONICA SNC 25132", "Nome impianto": "MARELLI IVO", "Comune": "BRESCIA", "idImpianto": 13585, "points": [{"type": "Feature", "properties": {}, "geometry": {"type": "Point", "coordinates": [10.160254687070848, 45.54807329293446]}}], "price": 2.059, "ultima_rilevazione": "16/06/2022 15:05:01"}, {"Gestore": "IPERSTAROIL S.R.L.", "Bandiera": "Auchan", "Tipo impianto": "Altro", "Indirizzo": "VIA CASCINA FIORITA SNC 25030", "Nome impianto": "Roncadelle", "Comune": "RONCADELLE", "idImpianto": 50290, "points": [{"type": "Feature", "properties": {}, "geometry": {"type": "Point", "coordinates": [10.148647302190271, 45.53383276403651]}}], "price": 1.999, "ultima_rilevazione": "16/06/2022 20:36:09"}, {"Gestore": "SERVIZI & GESTIONI ITALIA S.R.L.", "Bandiera": "Q8", "Tipo impianto": "Altro", "Indirizzo": "VIA ORZINUOVI 74 25125", "Nome impianto": "BRESCIA-VIA ORZINUOVI 74", "Comune": "BRESCIA", "idImpianto": 11529, "points": [{"type": "Feature", "properties": {}, "geometry": {"type": "Point", "coordinates": [10.182807927751584, 45.53114028989275]}}], "price": 2.059, "ultima_rilevazione": "17/06/2022 01:38:38"}], "3": [{"Gestore": "BUIZZA ANGELO", "Bandiera": "Q8", "Tipo impianto": "Altro", "Indirizzo": "via Carducci 64 25126", "Nome impianto": "Stazione di Servizio Q8", "Comune": "BRESCIA", "idImpianto": 37605, "points": [{"type": "Feature", "properties": {}, "geometry": {"type": "Point", "coordinates": [10.202002660852031, 45.54739686397269]}}], "price": 1.636, "ultima_rilevazione": "18/11/2021 17:51:25"}, {"Gestore": "F.LLI MARCHESE SNC DI FRANCESCO E STEFANO MARCHESE", "Bandiera": "Esso", "Tipo impianto": "Altro", "Indirizzo": "VIA MILANO 44/46 25126", "Nome impianto": "F.LLI MARCHESE SNC DI FRANCESCO E STEFANO MARCHESE", "Comune": "BRESCIA", "idImpianto": 23963, "points": [{"type": "Feature", "properties": {}, "geometry": {"type": "Point", "coordinates": [10.201670431213415, 45.54412479365685]}}], "price": 1.866, "ultima_rilevazione": "18/05/2022 08:09:07"}, {"Gestore": "PIETROBONI FELICE E C. S.N.C.", "Bandiera": "Agip Eni", "Tipo impianto": "Altro", "Indirizzo": "VIA OBERDAN 104 25128", "Nome impianto": "pietroboni felice e c snc", "Comune": "BRESCIA", "idImpianto": 11207, "points": [{"type": "Feature", "properties": {}, "geometry": {"type": "Point", "coordinates": [10.209791468786648, 45.56068365491621]}}], "price": 2.004, "ultima_rilevazione": "07/06/2022 16:25:55"}, {"Gestore": "BROGNOLI MOTO DI BROGNOLI MARCO", "Bandiera": "Retitalia", "Tipo impianto": "Altro", "Indirizzo": "VIALE DEI CADUTI  30 25030", "Nome impianto": "Area servizio Retitalia", "Comune": "CASTEL MELLA", "idImpianto": 43816, "points": [{"type": "Feature", "properties": {}, "geometry": {"type": "Point", "coordinates": [10.152601317790982, 45.49351594010082]}}], "price": 1.997, "ultima_rilevazione": "11/06/2022 09:33:40"}, {"Gestore": "AMIDANI SCIASCIA", "Bandiera": "Q8", "Tipo impianto": "Altro", "Indirizzo": "via corsica 152 25125", "Nome impianto": "amidani sciascia", "Comune": "BRESCIA", "idImpianto": 11430, "points": [{"type": "Feature", "properties": {}, "geometry": {"type": "Point", "coordinates": [10.2040296792984, 45.52675659702511]}}], "price": 2.099, "ultima_rilevazione": "14/06/2022 07:37:08"}, {"Gestore": "BOSCHETTI ELISA", "Bandiera": "Q8", "Tipo impianto": "Altro", "Indirizzo": "via labirinto 318 25130", "Nome impianto": "Q8", "Comune": "BRESCIA", "idImpianto": 37579, "points": [{"type": "Feature", "properties": {}, "geometry": {"type": "Point", "coordinates": [10.184950699405704, 45.51378395409887]}}], "price": 2.039, "ultima_rilevazione": "14/06/2022 15:44:31"}, {"Gestore": "SORETTI SILVANO", "Bandiera": "Esso", "Tipo impianto": "Altro", "Indirizzo": "VIA DALMAZIA 70 25125", "Nome impianto": "Stazione di servizio - Soretti Silvano", "Comune": "BRESCIA", "idImpianto": 15934, "points": [{"type": "Feature", "properties": {}, "geometry": {"type": "Point", "coordinates": [10.199276804924011, 45.52991018794497]}}], "price": 2.094, "ultima_rilevazione": "14/06/2022 16:40:16"}, {"Gestore": "SERVIZIO DI J.S. DI SINGH JAGDEEP", "Bandiera": "Api-Ip", "Tipo impianto": "Altro", "Indirizzo": "via Dalmazia  58 25125", "Nome impianto": "IP BRESCIA VIA DALMAZIA", "Comune": "BRESCIA", "idImpianto": 44738, "points": [{"type": "Feature", "properties": {}, "geometry": {"type": "Point", "coordinates": [10.199764966964722, 45.53099660729657]}}], "price": 2.039, "ultima_rilevazione": "14/06/2022 17:20:16"}, {"Gestore": "BRAGA ANGELO", "Bandiera": "Api-Ip", "Tipo impianto": "Strada Statale", "Indirizzo": "Statale 235 di Orzinuovi, Km. 48, dir. Brescia 25030", "Nome impianto": "40962", "Comune": "TORBOLE CASAGLIA", "idImpianto": 27583, "points": [{"type": "Feature", "properties": {}, "geometry": {"type": "Point", "coordinates": [10.12176901102066, 45.514672928637125]}}], "price": 2.069, "ultima_rilevazione": "14/06/2022 18:05:38"}, {"Gestore": "BUIZZA PIETRO", "Bandiera": "Q8", "Tipo impianto": "Altro", "Indirizzo": "VIA FLERO 18 25125", "Nome impianto": "BUIZZA PIETRO", "Comune": "BRESCIA", "idImpianto": 13438, "points": [{"type": "Feature", "properties": {}, "geometry": {"type": "Point", "coordinates": [10.198878279762312, 45.52307242408842]}}], "price": 2.029, "ultima_rilevazione": "14/06/2022 20:17:57"}, {"Gestore": "AUTOCCASIONI DI CASTELLANO ENRICO E C. S.N.C.", "Bandiera": "Pompe Bianche", "Tipo impianto": "Altro", "Indirizzo": "VIA CROTTE  45 25127", "Nome impianto": "AUTOCCASIONI ", "Comune": "BRESCIA", "idImpianto": 36795, "points": [{"type": "Feature", "properties": {}, "geometry": {"type": "Point", "coordinates": [10.197480928870732, 45.55728354781038]}}], "price": 2.049, "ultima_rilevazione": "15/06/2022 07:45:13"}, {"Gestore": "LA PICCOLA S.A.S. DI COSTA ALESSANDRO & C.", "Bandiera": "Agip Eni", "Tipo impianto": "Altro", "Indirizzo": "VIA DALMAZIA 44 25125", "Nome impianto": "enicaf\u00e8", "Comune": "BRESCIA", "idImpianto": 32506, "points": [{"type": "Feature", "properties": {}, "geometry": {"type": "Point", "coordinates": [10.20012131282806, 45.53201968694268]}}], "price": 2.064, "ultima_rilevazione": "15/06/2022 08:04:11"}, {"Gestore": "SA.MAR. DI MARIOTTI GRAZIELLA E C. SNC O BREVEMENTE \"SA.MAR. SNC\"", "Bandiera": "Total Erg", "Tipo impianto": "Altro", "Indirizzo": "tangenziale ovest, Km. 1, quinzano 1 25030", "Nome impianto": "IP", "Comune": "CASTEL MELLA", "idImpianto": 7111, "points": [{"type": "Feature", "properties": {}, "geometry": {"type": "Point", "coordinates": [10.160425115466296, 45.49708643319849]}}], "price": 2.069, "ultima_rilevazione": "15/06/2022 11:05:28"}, {"Gestore": "SO.LO.ERRE S.A.S. DI RANDISI LEO E C.", "Bandiera": "Q8", "Tipo impianto": "Altro", "Indirizzo": "VIA ORZINUOVI 40/44 25125", "Nome impianto": "Q8 soloerre Brescia", "Comune": "BRESCIA", "idImpianto": 7911, "points": [{"type": "Feature", "properties": {}, "geometry": {"type": "Point", "coordinates": [10.18974356353283, 45.52925272685685]}}], "price": 2.079, "ultima_rilevazione": "15/06/2022 13:16:07"}, {"Gestore": "MUSCIO ROBERTO", "Bandiera": "Retitalia", "Tipo impianto": "Altro", "Indirizzo": "VIA BRESCIA 21 25039", "Nome impianto": "RETITALIA SPA", "Comune": "TRAVAGLIATO", "idImpianto": 37436, "points": [{"type": "Feature", "properties": {}, "geometry": {"type": "Point", "coordinates": [10.087012072422, 45.52273395217381]}}], "price": 1.999, "ultima_rilevazione": "15/06/2022 14:06:26"}, {"Gestore": "LU.DA. SERVICE DI BIGNOTTI LEONARDO & C. SAS", "Bandiera": "Agip Eni", "Tipo impianto": "Altro", "Indirizzo": "Via Sale 96 25064", "Nome impianto": "Non Solo Service - Lavaggio Auto & more", "Comune": "GUSSAGO", "idImpianto": 14829, "points": [{"type": "Feature", "properties": {}, "geometry": {"type": "Point", "coordinates": [10.134335137547623, 45.57249752442318]}}], "price": 2.084, "ultima_rilevazione": "15/06/2022 18:38:33"}, {"Gestore": "F.LLI UBERTI  DI UBERTI ANDREA E MAURO SNC", "Bandiera": "Q8", "Tipo impianto": "Altro", "Indirizzo": "VIA TORRICELLA DI SOPRA 148 25127", "Nome impianto": "Q8 ", "Comune": "BRESCIA", "idImpianto": 12809, "points": [{"type": "Feature", "properties": {}, "geometry": {"type": "Point", "coordinates": [10.187760125933892, 45.56263187447065]}}], "price": 2.029, "ultima_rilevazione": "15/06/2022 21:56:30"}, {"Gestore": "PERLETTI GIOVANNI BATTISTA", "Bandiera": "Agip Eni", "Tipo impianto": "Strada Statale", "Indirizzo": "11 Padana Superiore, Km. 224,521, est 25035", "Nome impianto": "Perletti Giovanni Battista", "Comune": "OSPITALETTO", "idImpianto": 48169, "points": [{"type": "Feature", "properties": {}, "geometry": {"type": "Point", "coordinates": [10.09650943435861, 45.553381025617696]}}], "price": 2.084, "ultima_rilevazione": "16/06/2022 06:03:55"}, {"Gestore": "T.D.M. S.R.L.", "Bandiera": "Tamoil", "Tipo impianto": "Altro", "Indirizzo": "SS. 11 via Padana Superiore  25045", "Nome impianto": "8035", "Comune": "CASTEGNATO", "idImpianto": 40083, "points": [{"type": "Feature", "properties": {}, "geometry": {"type": "Point", "coordinates": [10.10773703455925, 45.55253803848632]}}], "price": 2.039, "ultima_rilevazione": "16/06/2022 12:32:14"}, {"Gestore": "T.D.M. S.R.L.", "Bandiera": "Tamoil", "Tipo impianto": "Altro", "Indirizzo": "Via Flero, 65 - 25124", "Nome impianto": "2599", "Comune": "BRESCIA", "idImpianto": 25373, "points": [{"type": "Feature", "properties": {}, "geometry": {"type": "Point", "coordinates": [10.19464746871722, 45.51442799442947]}}], "price": 2.029, "ultima_rilevazione": "16/06/2022 12:38:13"}, {"Gestore": "IP SERVICES S.R.L.", "Bandiera": "Api-Ip", "Tipo impianto": "Altro", "Indirizzo": "VIA FRANCHI (SP 45) 108 25045", "Nome impianto": "CASTEGNATO - FRANCHI", "Comune": "CASTEGNATO", "idImpianto": 25070, "points": [{"type": "Feature", "properties": {}, "geometry": {"type": "Point", "coordinates": [10.111473936176251, 45.55624085815493]}}], "price": 2.059, "ultima_rilevazione": "16/06/2022 12:02:00"}, {"Gestore": "T.D.M. S.R.L.", "Bandiera": "Tamoil", "Tipo impianto": "Altro", "Indirizzo": "VIA MILANO 28 25126", "Nome impianto": "4205", "Comune": "BRESCIA", "idImpianto": 51263, "points": [{"type": "Feature", "properties": {}, "geometry": {"type": "Point", "coordinates": [10.205213828836063, 45.54339528219658]}}], "price": 2.049, "ultima_rilevazione": "16/06/2022 12:30:12"}, {"Gestore": "FERRARINI S.A.S. DI BETTONI ANGELA", "Bandiera": "Pompe Bianche", "Tipo impianto": "Altro", "Indirizzo": "VIA LABIRINTO  snc 25125", "Nome impianto": "IDEAVERDE Fuel", "Comune": "BRESCIA", "idImpianto": 36638, "points": [{"type": "Feature", "properties": {}, "geometry": {"type": "Point", "coordinates": [10.185224711894987, 45.51335125216836]}}], "price": 1.999, "ultima_rilevazione": "16/06/2022 15:04:21"}, {"Gestore": "SCALVINI FRANCESCO", "Bandiera": "Api-Ip", "Tipo impianto": "Altro", "Indirizzo": "VIA BRESCIA 30 25100", "Nome impianto": "SCALVINI FRANCESCO", "Comune": "TRAVAGLIATO", "idImpianto": 17770, "points": [{"type": "Feature", "properties": {}, "geometry": {"type": "Point", "coordinates": [10.087964741803034, 45.52236189185017]}}], "price": 2.129, "ultima_rilevazione": "16/06/2022 15:21:44"}, {"Gestore": "IP SERVICES S.R.L.", "Bandiera": "Api-Ip", "Tipo impianto": "Altro", "Indirizzo": "Via DALMAZIA 80 25125", "Nome impianto": "BRESCIA - DALMAZIA 80", "Comune": "BRESCIA", "idImpianto": 49466, "points": [{"type": "Feature", "properties": {}, "geometry": {"type": "Point", "coordinates": [10.19902829447747, 45.52914602106733]}}], "price": 2.029, "ultima_rilevazione": "16/06/2022 23:01:23"}, {"Gestore": "SERVIZI & GESTIONI ITALIA S.R.L.", "Bandiera": "Q8", "Tipo impianto": "Altro", "Indirizzo": "VIA G.VENDER 96 25127", "Nome impianto": "BRESCIA G.VENDER 96", "Comune": "BRESCIA", "idImpianto": 22096, "points": [{"type": "Feature", "properties": {}, "geometry": {"type": "Point", "coordinates": [10.204567781614742, 45.56104353032975]}}], "price": 2.069, "ultima_rilevazione": "17/06/2022 01:38:20"}, {"Gestore": "SERVIZI & GESTIONI ITALIA S.R.L.", "Bandiera": "Q8", "Tipo impianto": "Altro", "Indirizzo": "VIA NUOVA CIRCONVALLAZIONE S/N 25035", "Nome impianto": "OSPITALETTO-VIA NUOVA CIRCONVALLAZIONE", "Comune": "OSPITALETTO", "idImpianto": 11539, "points": [{"type": "Feature", "properties": {}, "geometry": {"type": "Point", "coordinates": [10.090091953372962, 45.55230893789719]}}], "price": 2.059, "ultima_rilevazione": "17/06/2022 01:38:42"}, {"Gestore": "CORINI S.N.C. DI CORINI NICOLA, CLAUDIO E RAINERI MAURO", "Bandiera": "Api-Ip", "Tipo impianto": "Altro", "Indirizzo": "TANGENZIALE DE GASPERI 5 25100", "Nome impianto": "DISTRIBUTORE IP DI CORINI S.N.C. DI CORINI NICOLA, CLAUDIO E RAINERI MAURO", "Comune": "BRESCIA", "idImpianto": 17041, "points": [{"type": "Feature", "properties": {}, "geometry": {"type": "Point", "coordinates": [10.200886130332949, 45.51882570797936]}}], "price": 2.094, "ultima_rilevazione": "17/06/2022 06:43:51"}, {"Gestore": "Q8 DEI FRATELLI VENTURINI DI VENTURINI MARCO", "Bandiera": "Q8", "Tipo impianto": "Altro", "Indirizzo": "VIA S. EUSTACCHIO 3 25128", "Nome impianto": "Q8 F.lli Venturini", "Comune": "BRESCIA", "idImpianto": 11245, "points": [{"type": "Feature", "properties": {}, "geometry": {"type": "Point", "coordinates": [10.212703918385388, 45.54951954662496]}}], "price": 2.069, "ultima_rilevazione": "17/06/2022 07:20:53"}, {"Gestore": "3S DI SOLA LUCA", "Bandiera": "Esso", "Tipo impianto": "Altro", "Indirizzo": "VIA LABIRINTO 6 25128", "Nome impianto": "Stazione di servizio 3s ", "Comune": "BRESCIA", "idImpianto": 50191, "points": [{"type": "Feature", "properties": {}, "geometry": {"type": "Point", "coordinates": [10.196567317790992, 45.5225431546276]}}], "price": 2.159, "ultima_rilevazione": "17/06/2022 07:21:50"}, {"Gestore": "A. & C. DI ARMOGIDA R. E C. SNC", "Bandiera": "Api-Ip", "Tipo impianto": "Altro", "Indirizzo": "Via Orzinuovi 56/z", "Nome impianto": "Stazione di servizio IP", "Comune": "BRESCIA", "idImpianto": 24341, "points": [{"type": "Feature", "properties": {}, "geometry": {"type": "Point", "coordinates": [10.187611877918243, 45.52985870371099]}}], "price": 2.064, "ultima_rilevazione": "17/06/2022 07:24:27"}, {"Gestore": "MARANGON LUCA & C. S.N.C.", "Bandiera": "Q8", "Tipo impianto": "Altro", "Indirizzo": "VIA VOLTURNO 80 25126", "Nome impianto": "Stazione Q8 Marangon Luca & C. Snc", "Comune": "BRESCIA", "idImpianto": 10026, "points": [{"type": "Feature", "properties": {}, "geometry": {"type": "Point", "coordinates": [10.20006202161312, 45.54888869150083]}}], "price": 2.089, "ultima_rilevazione": "17/06/2022 07:26:33"}], "5": [{"Gestore": "BAR SOSTA OBBLIGATA DI BONFIGLIO NORBERTO", "Bandiera": "Api-Ip", "Tipo impianto": "Altro", "Indirizzo": "strada provinciale 19 km 16+479  25046", "Nome impianto": "sostaobbligata", "Comune": "CAZZAGO SAN MARTINO", "idImpianto": 38757, "points": [{"type": "Feature", "properties": {}, "geometry": {"type": "Point", "coordinates": [10.053699314594269, 45.536250668013935]}}], "price": 1.929, "ultima_rilevazione": "02/03/2022 15:03:15"}, {"Gestore": "F.LLI MINGARDI SNC DI A. & G. MINGARDI", "Bandiera": "Total Erg", "Tipo impianto": "Altro", "Indirizzo": "via vallosa 34 25050", "Nome impianto": "MINGARDI TOTAL ERG", "Comune": "PASSIRANO", "idImpianto": 26946, "points": [{"type": "Feature", "properties": {}, "geometry": {"type": "Point", "coordinates": [10.068902671337128, 45.56805156499202]}}], "price": 1.829, "ultima_rilevazione": "10/05/2022 08:02:26"}, {"Gestore": "BIGNOTTI LUCIANO", "Bandiera": "Pompe Bianche", "Tipo impianto": "Altro", "Indirizzo": "VIA PADANA SUPERIORE  31 25035", "Nome impianto": "bignotti luciano", "Comune": "OSPITALETTO", "idImpianto": 17099, "points": [{"type": "Feature", "properties": {}, "geometry": {"type": "Point", "coordinates": [10.080133751034737, 45.555222137890205]}}], "price": 2.047, "ultima_rilevazione": "09/06/2022 11:32:28"}, {"Gestore": "SERVIZI & GESTIONI ITALIA S.R.L.", "Bandiera": "Q8", "Tipo impianto": "Altro", "Indirizzo": "FZ.FENILI BELASI VIA TRENTO 125 25020", "Nome impianto": "CAPRIANO DEL COLLE-FZ.FENILI BELASI VIA TRENTO 125", "Comune": "CAPRIANO DEL COLLE", "idImpianto": 11536, "points": [{"type": "Feature", "properties": {}, "geometry": {"type": "Point", "coordinates": [10.136845707893372, 45.47786414217547]}}], "price": 2.089, "ultima_rilevazione": "11/06/2022 01:40:31"}, {"Gestore": "FOUR S.N.C. DI ZAMBELLI NICOLA & C.", "Bandiera": "Agip Eni", "Tipo impianto": "Altro", "Indirizzo": "sp 19 km 16+480  25046", "Nome impianto": "stazione di servizio agip", "Comune": "CAZZAGO SAN MARTINO", "idImpianto": 43492, "points": [{"type": "Feature", "properties": {}, "geometry": {"type": "Point", "coordinates": [10.05456850429914, 45.53638739384982]}}], "price": 2.064, "ultima_rilevazione": "11/06/2022 08:35:29"}, {"Gestore": "MARCHINA GIUSEPPE E C. S.A.S.", "Bandiera": "Agip Eni", "Tipo impianto": "Altro", "Indirizzo": "VIA LAMARMORA 150 25124", "Nome impianto": " MARCHINA GIUSEPPE E C. SAS", "Comune": "BRESCIA", "idImpianto": 21804, "points": [{"type": "Feature", "properties": {}, "geometry": {"type": "Point", "coordinates": [10.21184032418978, 45.52116838825391]}}], "price": 2.044, "ultima_rilevazione": "14/06/2022 09:08:35"}, {"Gestore": "GRECHI ALESSANDRO", "Bandiera": "Agip Eni", "Tipo impianto": "Strada Statale", "Indirizzo": "Statale 510 Sebina Orientale, Km. 5 + 075, dir. Brescia 25050", "Nome impianto": "Agip", "Comune": "RODENGO SAIANO", "idImpianto": 24037, "points": [{"type": "Feature", "properties": {}, "geometry": {"type": "Point", "coordinates": [10.110132247209547, 45.58235114708773]}}], "price": 2.069, "ultima_rilevazione": "14/06/2022 10:16:12"}, {"Gestore": "NDOJ E ARI S.N.C. DI NDOJ TONIN & C.", "Bandiera": "Total Erg", "Tipo impianto": "Altro", "Indirizzo": "VIA ALESSANDRO LAMARMORA 156 25124", "Nome impianto": "NDOJ E ARI SNC DI NDOJ TONIN & C.", "Comune": "BRESCIA", "idImpianto": 33648, "points": [{"type": "Feature", "properties": {}, "geometry": {"type": "Point", "coordinates": [10.213218927383425, 45.520845228172966]}}], "price": 2.019, "ultima_rilevazione": "14/06/2022 15:58:47"}, {"Gestore": "SOLA RENATO E UBERTI MARCO S.N.C.", "Bandiera": "Esso", "Tipo impianto": "Altro", "Indirizzo": "VIA CAPORALINO 11 25060", "Nome impianto": "sola renato e uberti marco snc", "Comune": "CELLATICA", "idImpianto": 12253, "points": [{"type": "Feature", "properties": {}, "geometry": {"type": "Point", "coordinates": [10.170008540153503, 45.58271082383399]}}], "price": 2.049, "ultima_rilevazione": "15/06/2022 07:30:48"}, {"Gestore": "GHI.MAR DI GHIDETTI ROBERTO E CALEGARI F.LLI SNC", "Bandiera": "Pompe Bianche", "Tipo impianto": "Altro", "Indirizzo": "VIA ORZINUOVI 10 25039", "Nome impianto": "GHI MAR", "Comune": "TRAVAGLIATO", "idImpianto": 24755, "points": [{"type": "Feature", "properties": {}, "geometry": {"type": "Point", "coordinates": [10.07020499073792, 45.51719798235722]}}], "price": 2.089, "ultima_rilevazione": "15/06/2022 08:45:25"}, {"Gestore": "MUSCIO ROBERTO", "Bandiera": "Agip Eni", "Tipo impianto": "Altro", "Indirizzo": "Via Caporalino 16/A 25060", "Nome impianto": "Distributore Eni di Muscio Roberto", "Comune": "CELLATICA", "idImpianto": 50798, "points": [{"type": "Feature", "properties": {}, "geometry": {"type": "Point", "coordinates": [10.169373022022656, 45.58321478190136]}}], "price": 2.059, "ultima_rilevazione": "15/06/2022 14:07:17"}, {"Gestore": "SILVI DI BERTAZZI SILVANA E C. S.N.C.", "Bandiera": "Q8", "Tipo impianto": "Altro", "Indirizzo": " S.P.19 KM.20+900 DIR.CONCESIO  25039", "Nome impianto": "STAZIONE DI SERVIZIO Q8 GEST. SILVI", "Comune": "TRAVAGLIATO", "idImpianto": 27587, "points": [{"type": "Feature", "properties": {}, "geometry": {"type": "Point", "coordinates": [10.078003406524658, 45.50080468089395]}}], "price": 2.059, "ultima_rilevazione": "15/06/2022 15:09:34"}, {"Gestore": "I ROSSI SOCIETA' A RESPONSABILITA' LIMITATA", "Bandiera": "Esso", "Tipo impianto": "Altro", "Indirizzo": "Via Triumplina 141 25136", "Nome impianto": "Distributore Esso", "Comune": "BRESCIA", "idImpianto": 34323, "points": [{"type": "Feature", "properties": {}, "geometry": {"type": "Point", "coordinates": [10.230908830656972, 45.573809041272746]}}], "price": 2.079, "ultima_rilevazione": "15/06/2022 15:31:18"}, {"Gestore": "F.LLI CASTA GIORGIO & FULVIO SNC", "Bandiera": "Api-Ip", "Tipo impianto": "Altro", "Indirizzo": "borgosatollo 16 25123 25123", "Nome impianto": "TotalErg", "Comune": "BRESCIA", "idImpianto": 45053, "points": [{"type": "Feature", "properties": {}, "geometry": {"type": "Point", "coordinates": [10.228157958335942, 45.51318792389381]}}], "price": 2.119, "ultima_rilevazione": "15/06/2022 17:40:33"}, {"Gestore": "ROZZINI STEFANIA", "Bandiera": "Agip Eni", "Tipo impianto": "Altro", "Indirizzo": "VIA XXV APRILE 1 25020", "Nome impianto": "agip 1762", "Comune": "FLERO", "idImpianto": 5693, "points": [{"type": "Feature", "properties": {}, "geometry": {"type": "Point", "coordinates": [10.178846418857574, 45.48325291140423]}}], "price": 2.069, "ultima_rilevazione": "16/06/2022 08:32:03"}, {"Gestore": "BRIXIA FINANZIARIA S.R.L.", "Bandiera": "Agip Eni", "Tipo impianto": "Altro", "Indirizzo": "Viale Piave 2 51743", "Nome impianto": "Brixia Finanziaria Srl - Brescia Viale Piave", "Comune": "BRESCIA", "idImpianto": 47737, "points": [{"type": "Feature", "properties": {}, "geometry": {"type": "Point", "coordinates": [10.238080831590825, 45.53086391657703]}}], "price": 2.064, "ultima_rilevazione": "16/06/2022 09:02:10"}, {"Gestore": "G.M. CARBURANTI SNC DI GRAFFIGNA MANUEL & C.", "Bandiera": "Agip Eni", "Tipo impianto": "Altro", "Indirizzo": "VIA BREDA VECCHIA 1 25060", "Nome impianto": "GM CARBURANTI SNC", "Comune": "CELLATICA", "idImpianto": 49811, "points": [{"type": "Feature", "properties": {}, "geometry": {"type": "Point", "coordinates": [10.178110152482986, 45.57952321129192]}}], "price": 2.084, "ultima_rilevazione": "16/06/2022 09:11:18"}, {"Gestore": "SPE-FER DI SPEZIA DAVIDE E C. S.N.C.", "Bandiera": "Api-Ip", "Tipo impianto": "Altro", "Indirizzo": "VIA TRIUMPLINA 102 25133", "Nome impianto": "spe.fer", "Comune": "BRESCIA", "idImpianto": 10412, "points": [{"type": "Feature", "properties": {}, "geometry": {"type": "Point", "coordinates": [10.2307391166687, 45.56763095601818]}}], "price": 2.119, "ultima_rilevazione": "16/06/2022 09:17:10"}, {"Gestore": "IP SERVICES S.R.L.", "Bandiera": "Api-Ip", "Tipo impianto": "Altro", "Indirizzo": "Via duca degli Abruzzi  25124", "Nome impianto": "Brescia Abruzzi", "Comune": "BRESCIA", "idImpianto": 20098, "points": [{"type": "Feature", "properties": {}, "geometry": {"type": "Point", "coordinates": [10.230162017196676, 45.523314574143065]}}], "price": 2.039, "ultima_rilevazione": "16/06/2022 12:06:45"}, {"Gestore": "IP SERVICES S.R.L.", "Bandiera": "Api-Ip", "Tipo impianto": "Altro", "Indirizzo": "Via Triumplina 16 25123", "Nome impianto": "Brescia", "Comune": "BRESCIA", "idImpianto": 10148, "points": [{"type": "Feature", "properties": {}, "geometry": {"type": "Point", "coordinates": [10.228484719991684, 45.56033213782611]}}], "price": 2.069, "ultima_rilevazione": "16/06/2022 12:06:48"}, {"Gestore": "LOIUDICE FABIO SNC DI LOIUDICE FABIO E CASALOTTI NICOLA", "Bandiera": "Agip Eni", "Tipo impianto": "Altro", "Indirizzo": "PIAZZALE CORVI SNC 25128", "Nome impianto": "ENI CAFE' ", "Comune": "BRESCIA", "idImpianto": 13073, "points": [{"type": "Feature", "properties": {}, "geometry": {"type": "Point", "coordinates": [10.227285772562029, 45.55475616932155]}}], "price": 2.064, "ultima_rilevazione": "16/06/2022 12:34:26"}, {"Gestore": "BREDA RAMON", "Bandiera": "Agip Eni", "Tipo impianto": "Altro", "Indirizzo": "VIA XXV APRILE 28 25121", "Nome impianto": "IMPIANTO N. 1736", "Comune": "BRESCIA", "idImpianto": 49041, "points": [{"type": "Feature", "properties": {}, "geometry": {"type": "Point", "coordinates": [10.228936647221415, 45.5316793292002]}}], "price": 2.064, "ultima_rilevazione": "16/06/2022 14:03:06"}, {"Gestore": "GOZIO PIERCARLO", "Bandiera": "Agip Eni", "Tipo impianto": "Altro", "Indirizzo": "VIA FILIPPO TURATI 30 25123", "Nome impianto": "GOZIO PIERCARLO", "Comune": "BRESCIA", "idImpianto": 37423, "points": [{"type": "Feature", "properties": {}, "geometry": {"type": "Point", "coordinates": [10.231937865676173, 45.5392568891075]}}], "price": 2.064, "ultima_rilevazione": "16/06/2022 16:44:02"}, {"Gestore": "IPERSTAROIL S.R.L.", "Bandiera": "Auchan", "Tipo impianto": "Altro", "Indirizzo": "VIA DEL BORGO VIA INDUSTRIALE SNC 25050", "Nome impianto": "Rodengo Saiano", "Comune": "RODENGO SAIANO", "idImpianto": 50292, "points": [{"type": "Feature", "properties": {}, "geometry": {"type": "Point", "coordinates": [10.118279196383078, 45.579106358984845]}}], "price": 2.059, "ultima_rilevazione": "16/06/2022 17:59:24"}, {"Gestore": "ENI FUEL S.P.A.", "Bandiera": "Agip Eni", "Tipo impianto": "Altro", "Indirizzo": "Via Montelungo, Tang. Ovest 10 25123", "Nome impianto": "BRESCIA", "Comune": "BRESCIA", "idImpianto": 5454, "points": [{"type": "Feature", "properties": {}, "geometry": {"type": "Point", "coordinates": [10.216546034393332, 45.572186409669925]}}], "price": 2.069, "ultima_rilevazione": "17/06/2022 07:38:04"}, {"Gestore": "SERVIZI & GESTIONI ITALIA S.R.L.", "Bandiera": "Q8", "Tipo impianto": "Altro", "Indirizzo": "VIA TRIUMPLINA 8 25123", "Nome impianto": "BRESCIA-VIA TRIUMPLINA 8", "Comune": "BRESCIA", "idImpianto": 11525, "points": [{"type": "Feature", "properties": {}, "geometry": {"type": "Point", "coordinates": [10.228703847885072, 45.56203145405235]}}], "price": 2.069, "ultima_rilevazione": "17/06/2022 01:38:37"}, {"Gestore": "HM CARBURANTI E AUTOLAVAGGIO DI HUSNAIN MUAZZAM", "Bandiera": "Agip Eni", "Tipo impianto": "Altro", "Indirizzo": "VIA QUIANZANO  14 25020", "Nome impianto": "HM CARBURANTI DI HUSNAIN MUAZZAM", "Comune": "FLERO", "idImpianto": 47521, "points": [{"type": "Feature", "properties": {}, "geometry": {"type": "Point", "coordinates": [10.155970000123, 45.490781000123]}}], "price": 2.084, "ultima_rilevazione": "17/06/2022 06:33:31"}, {"Gestore": "P. & B. S.R.L.", "Bandiera": "Agip Eni", "Tipo impianto": "Strada Statale", "Indirizzo": "Statale 11 Padana Superiore, Km. 4, dir. verona", "Nome impianto": "eni", "Comune": "BRESCIA", "idImpianto": 23813, "points": [{"type": "Feature", "properties": {}, "geometry": {"type": "Point", "coordinates": [10.203112363815308, 45.5175778013362]}}], "price": 2.109, "ultima_rilevazione": "17/06/2022 07:23:25"}, {"Gestore": "P. & B. S.R.L.", "Bandiera": "Esso", "Tipo impianto": "Altro", "Indirizzo": "VIA BRESCIA 3 25020", "Nome impianto": "ESSO", "Comune": "FLERO", "idImpianto": 47379, "points": [{"type": "Feature", "properties": {}, "geometry": {"type": "Point", "coordinates": [10.176081000123, 45.488935000123]}}], "price": 2.124, "ultima_rilevazione": "17/06/2022 07:24:00"}, {"Gestore": "FUMIA MICHEL", "Bandiera": "Esso", "Tipo impianto": "Altro", "Indirizzo": "VIA TRIUMPLINA 84 25123", "Nome impianto": "Stazione di rifornimento esso", "Comune": "BRESCIA", "idImpianto": 43784, "points": [{"type": "Feature", "properties": {}, "geometry": {"type": "Point", "coordinates": [10.229396728836036, 45.56537575560221]}}], "price": 2.049, "ultima_rilevazione": "17/06/2022 07:37:46"}, {"Gestore": "BRESCIA PUSTERLA DI CAPRIOLI MARIO E C. S.N.C.", "Bandiera": "Esso", "Tipo impianto": "Altro", "Indirizzo": "VIA PUSTERLA 69 25128", "Nome impianto": "BRESCIA PUSTERLA SNC", "Comune": "BRESCIA", "idImpianto": 21495, "points": [{"type": "Feature", "properties": {}, "geometry": {"type": "Point", "coordinates": [10.230036592590295, 45.544076594564494]}}], "price": 2.079, "ultima_rilevazione": "17/06/2022 07:54:35"}]}, "null": {}, "GPL": {"1": [{"Gestore": "B13 SNC DI BUIZZA MARIO & C.", "Bandiera": "Q8", "Tipo impianto": "Altro", "Indirizzo": "VIA SANTA GIULIA 24 25039", "Nome impianto": "Q8", "Comune": "TRAVAGLIATO", "idImpianto": 6113, "points": [{"type": "Feature", "properties": {}, "geometry": {"type": "Point", "coordinates": [10.106172281228623, 45.53300249528117]}}], "price": 0.799, "ultima_rilevazione": "15/06/2022 10:52:01"}, {"Gestore": "GI.MA S.N.C. DI FERLUCCI G.  &  GAZZOLI M.", "Bandiera": "Api-Ip", "Tipo impianto": "Altro", "Indirizzo": "VIA CHIUSURE 30 25127", "Nome impianto": "gima snc", "Comune": "BRESCIA", "idImpianto": 13202, "points": [{"type": "Feature", "properties": {}, "geometry": {"type": "Point", "coordinates": [10.18580338332822, 45.54992621615376]}}], "price": 0.855, "ultima_rilevazione": "15/06/2022 12:17:14"}, {"Gestore": "GE.DI.A. S.R.L.", "Bandiera": "Api-Ip", "Tipo impianto": "Autostradale", "Indirizzo": "Autostrada A4 MILANO-BRESCIA, Km. 214, dir. venezia 25030", "Nome impianto": "VALTROMPIA SUD", "Comune": "RONCADELLE", "idImpianto": 31429, "points": [{"type": "Feature", "properties": {}, "geometry": {"type": "Point", "coordinates": [10.149385035037994, 45.532129602677465]}}], "price": 0.965, "ultima_rilevazione": "16/06/2022 06:05:16"}, {"Gestore": "BERTOLANI GIUSEPPE & C. S.A.S.", "Bandiera": "Agip Eni", "Tipo impianto": "Altro", "Indirizzo": "VIA MARTIRI DELLA LIBERTA' 14/E 25030", "Nome impianto": "Stazione di Servizio ENI", "Comune": "TORBOLE CASAGLIA", "idImpianto": 35681, "points": [{"type": "Feature", "properties": {}, "geometry": {"type": "Point", "coordinates": [10.13001948595047, 45.5167707820845]}}], "price": 0.799, "ultima_rilevazione": "16/06/2022 06:44:43"}, {"Gestore": "FRAU CRISTIAN", "Bandiera": "Api-Ip", "Tipo impianto": "Altro", "Indirizzo": "VIA ORZINUOVI 127 25125", "Nome impianto": "Distributore IP di Frau Cristian", "Comune": "BRESCIA", "idImpianto": 36313, "points": [{"type": "Feature", "properties": {}, "geometry": {"type": "Point", "coordinates": [10.183759555220604, 45.5305154061553]}}], "price": 0.854, "ultima_rilevazione": "16/06/2022 07:52:17"}, {"Gestore": "ri.val.sas di Girelli Mario & c", "Bandiera": "Api-Ip", "Tipo impianto": "Autostradale", "Indirizzo": "Autostrada A4 MILANO-BRESCIA, Km. 213+706, dir. Ovest 25030", "Nome impianto": "VALTROMPIA NORD", "Comune": "RONCADELLE", "idImpianto": 3594, "points": [{"type": "Feature", "properties": {}, "geometry": {"type": "Point", "coordinates": [10.150197073817251, 45.53283606917308]}}], "price": 0.965, "ultima_rilevazione": "16/06/2022 08:30:06"}, {"Gestore": "SOCIETA' IMPRESA SALA AUTOMOBILI S.I.S.A. DI SALA GIANFRANCO E C. SOCIETA' IN ACCOMANDITA SEMPLICE", "Bandiera": "Api-Ip", "Tipo impianto": "Altro", "Indirizzo": "VIA FERMI 7 25064", "Nome impianto": "SISA GUSSAGO VIA FERMI", "Comune": "GUSSAGO", "idImpianto": 33607, "points": [{"type": "Feature", "properties": {}, "geometry": {"type": "Point", "coordinates": [10.15151470899582, 45.548917692967535]}}], "price": 0.777, "ultima_rilevazione": "16/06/2022 08:59:50"}, {"Gestore": "MARELLI IVO", "Bandiera": "Q8", "Tipo impianto": "Altro", "Indirizzo": "VIA VALLECAMONICA SNC 25132", "Nome impianto": "MARELLI IVO", "Comune": "BRESCIA", "idImpianto": 13585, "points": [{"type": "Feature", "properties": {}, "geometry": {"type": "Point", "coordinates": [10.160254687070848, 45.54807329293446]}}], "price": 0.789, "ultima_rilevazione": "16/06/2022 15:05:01"}], "3": [{"Gestore": "BUIZZA ANGELO", "Bandiera": "Q8", "Tipo impianto": "Altro", "Indirizzo": "via Carducci 64 25126", "Nome impianto": "Stazione di Servizio Q8", "Comune": "BRESCIA", "idImpianto": 37605, "points": [{"type": "Feature", "properties": {}, "geometry": {"type": "Point", "coordinates": [10.202002660852031, 45.54739686397269]}}], "price": 0.769, "ultima_rilevazione": "18/11/2021 17:51:25"}, {"Gestore": "F.LLI UBERTI  DI UBERTI ANDREA E MAURO SNC", "Bandiera": "Q8", "Tipo impianto": "Altro", "Indirizzo": "VIA TORRICELLA DI SOPRA 148 25127", "Nome impianto": "Q8 ", "Comune": "BRESCIA", "idImpianto": 12809, "points": [{"type": "Feature", "properties": {}, "geometry": {"type": "Point", "coordinates": [10.187760125933892, 45.56263187447065]}}], "price": 0.889, "ultima_rilevazione": "15/06/2022 21:56:30"}, {"Gestore": "BOSCHETTI ELISA", "Bandiera": "Q8", "Tipo impianto": "Altro", "Indirizzo": "via labirinto 318 25130", "Nome impianto": "Q8", "Comune": "BRESCIA", "idImpianto": 37579, "points": [{"type": "Feature", "properties": {}, "geometry": {"type": "Point", "coordinates": [10.184950699405704, 45.51378395409887]}}], "price": 0.789, "ultima_rilevazione": "14/06/2022 15:44:31"}, {"Gestore": "SOCIETA' IMPRESA SALA AUTOMOBILI S.I.S.A. DI SALA GIANFRANCO E C. SOCIETA' IN ACCOMANDITA SEMPLICE", "Bandiera": "Retitalia", "Tipo impianto": "Altro", "Indirizzo": "VIA LABIRINTO 260 25125", "Nome impianto": "SISA BS VIA LABIRINTO", "Comune": "BRESCIA", "idImpianto": 34986, "points": [{"type": "Feature", "properties": {}, "geometry": {"type": "Point", "coordinates": [10.186837390065191, 45.515745546326485]}}], "price": 0.777, "ultima_rilevazione": "16/06/2022 08:57:21"}, {"Gestore": "CORINI S.N.C. DI CORINI NICOLA, CLAUDIO E RAINERI MAURO", "Bandiera": "Api-Ip", "Tipo impianto": "Altro", "Indirizzo": "TANGENZIALE DE GASPERI 5 25100", "Nome impianto": "DISTRIBUTORE IP DI CORINI S.N.C. DI CORINI NICOLA, CLAUDIO E RAINERI MAURO", "Comune": "BRESCIA", "idImpianto": 17041, "points": [{"type": "Feature", "properties": {}, "geometry": {"type": "Point", "coordinates": [10.200886130332949, 45.51882570797936]}}], "price": 0.789, "ultima_rilevazione": "17/06/2022 06:43:51"}, {"Gestore": "A. & C. DI ARMOGIDA R. E C. SNC", "Bandiera": "Api-Ip", "Tipo impianto": "Altro", "Indirizzo": "Via Orzinuovi 56/z", "Nome impianto": "Stazione di servizio IP", "Comune": "BRESCIA", "idImpianto": 24341, "points": [{"type": "Feature", "properties": {}, "geometry": {"type": "Point", "coordinates": [10.187611877918243, 45.52985870371099]}}], "price": 0.789, "ultima_rilevazione": "17/06/2022 07:24:27"}], "5": [{"Gestore": "FOUR S.N.C. DI ZAMBELLI NICOLA & C.", "Bandiera": "Agip Eni", "Tipo impianto": "Altro", "Indirizzo": "sp 19 km 16+480  25046", "Nome impianto": "stazione di servizio agip", "Comune": "CAZZAGO SAN MARTINO", "idImpianto": 43492, "points": [{"type": "Feature", "properties": {}, "geometry": {"type": "Point", "coordinates": [10.05456850429914, 45.53638739384982]}}], "price": 0.779, "ultima_rilevazione": "11/06/2022 08:35:29"}, {"Gestore": "GRECHI ALESSANDRO", "Bandiera": "Agip Eni", "Tipo impianto": "Strada Statale", "Indirizzo": "Statale 510 Sebina Orientale, Km. 5 + 075, dir. Brescia 25050", "Nome impianto": "Agip", "Comune": "RODENGO SAIANO", "idImpianto": 24037, "points": [{"type": "Feature", "properties": {}, "geometry": {"type": "Point", "coordinates": [10.110132247209547, 45.58235114708773]}}], "price": 0.799, "ultima_rilevazione": "14/06/2022 10:16:12"}, {"Gestore": "G.M. CARBURANTI SNC DI GRAFFIGNA MANUEL & C.", "Bandiera": "Agip Eni", "Tipo impianto": "Altro", "Indirizzo": "VIA BREDA VECCHIA 1 25060", "Nome impianto": "GM CARBURANTI SNC", "Comune": "CELLATICA", "idImpianto": 49811, "points": [{"type": "Feature", "properties": {}, "geometry": {"type": "Point", "coordinates": [10.178110152482986, 45.57952321129192]}}], "price": 0.822, "ultima_rilevazione": "16/06/2022 09:11:18"}, {"Gestore": "SPE-FER DI SPEZIA DAVIDE E C. S.N.C.", "Bandiera": "Api-Ip", "Tipo impianto": "Altro", "Indirizzo": "VIA TRIUMPLINA 102 25133", "Nome impianto": "spe.fer", "Comune": "BRESCIA", "idImpianto": 10412, "points": [{"type": "Feature", "properties": {}, "geometry": {"type": "Point", "coordinates": [10.2307391166687, 45.56763095601818]}}], "price": 0.88, "ultima_rilevazione": "16/06/2022 09:17:10"}, {"Gestore": "HM CARBURANTI E AUTOLAVAGGIO DI HUSNAIN MUAZZAM", "Bandiera": "Agip Eni", "Tipo impianto": "Altro", "Indirizzo": "VIA QUIANZANO  14 25020", "Nome impianto": "HM CARBURANTI DI HUSNAIN MUAZZAM", "Comune": "FLERO", "idImpianto": 47521, "points": [{"type": "Feature", "properties": {}, "geometry": {"type": "Point", "coordinates": [10.155970000123, 45.490781000123]}}], "price": 0.812, "ultima_rilevazione": "17/06/2022 06:33:31"}, {"Gestore": "P. & B. S.R.L.", "Bandiera": "Agip Eni", "Tipo impianto": "Strada Statale", "Indirizzo": "Statale 11 Padana Superiore, Km. 4, dir. verona", "Nome impianto": "eni", "Comune": "BRESCIA", "idImpianto": 23813, "points": [{"type": "Feature", "properties": {}, "geometry": {"type": "Point", "coordinates": [10.203112363815308, 45.5175778013362]}}], "price": 0.789, "ultima_rilevazione": "17/06/2022 07:23:25"}, {"Gestore": "ENI FUEL S.P.A.", "Bandiera": "Agip Eni", "Tipo impianto": "Altro", "Indirizzo": "Via Montelungo, Tang. Ovest 10 25123", "Nome impianto": "BRESCIA", "Comune": "BRESCIA", "idImpianto": 5454, "points": [{"type": "Feature", "properties": {}, "geometry": {"type": "Point", "coordinates": [10.216546034393332, 45.572186409669925]}}], "price": 0.752, "ultima_rilevazione": "17/06/2022 07:38:04"}]}, "Gasolio": {"1": [{"Gestore": "B13 SNC DI BUIZZA MARIO & C.", "Bandiera": "Q8", "Tipo impianto": "Altro", "Indirizzo": "VIA SANTA GIULIA 24 25039", "Nome impianto": "Q8", "Comune": "TRAVAGLIATO", "idImpianto": 6113, "points": [{"type": "Feature", "properties": {}, "geometry": {"type": "Point", "coordinates": [10.106172281228623, 45.53300249528117]}}], "price": 1.999, "ultima_rilevazione": "15/06/2022 10:52:01"}, {"Gestore": "GI.MA S.N.C. DI FERLUCCI G.  &  GAZZOLI M.", "Bandiera": "Api-Ip", "Tipo impianto": "Altro", "Indirizzo": "VIA CHIUSURE 30 25127", "Nome impianto": "gima snc", "Comune": "BRESCIA", "idImpianto": 13202, "points": [{"type": "Feature", "properties": {}, "geometry": {"type": "Point", "coordinates": [10.18580338332822, 45.54992621615376]}}], "price": 2.039, "ultima_rilevazione": "15/06/2022 12:17:14"}, {"Gestore": "GE.DI.A. S.R.L.", "Bandiera": "Api-Ip", "Tipo impianto": "Autostradale", "Indirizzo": "Autostrada A4 MILANO-BRESCIA, Km. 214, dir. venezia 25030", "Nome impianto": "VALTROMPIA SUD", "Comune": "RONCADELLE", "idImpianto": 31429, "points": [{"type": "Feature", "properties": {}, "geometry": {"type": "Point", "coordinates": [10.149385035037994, 45.532129602677465]}}], "price": 2.145, "ultima_rilevazione": "16/06/2022 06:05:16"}, {"Gestore": "BERTOLANI GIUSEPPE & C. S.A.S.", "Bandiera": "Agip Eni", "Tipo impianto": "Altro", "Indirizzo": "VIA MARTIRI DELLA LIBERTA' 14/E 25030", "Nome impianto": "Stazione di Servizio ENI", "Comune": "TORBOLE CASAGLIA", "idImpianto": 35681, "points": [{"type": "Feature", "properties": {}, "geometry": {"type": "Point", "coordinates": [10.13001948595047, 45.5167707820845]}}], "price": 2.069, "ultima_rilevazione": "16/06/2022 06:44:43"}, {"Gestore": "FRAU CRISTIAN", "Bandiera": "Api-Ip", "Tipo impianto": "Altro", "Indirizzo": "VIA ORZINUOVI 127 25125", "Nome impianto": "Distributore IP di Frau Cristian", "Comune": "BRESCIA", "idImpianto": 36313, "points": [{"type": "Feature", "properties": {}, "geometry": {"type": "Point", "coordinates": [10.183759555220604, 45.5305154061553]}}], "price": 2.079, "ultima_rilevazione": "16/06/2022 07:52:17"}, {"Gestore": "MEHDI MUHAMMAD ZAMAN", "Bandiera": "Esso", "Tipo impianto": "Altro", "Indirizzo": "VIA VALCAMONICA 16/O 25127", "Nome impianto": "Stazione di Servizio Esso", "Comune": "BRESCIA", "idImpianto": 42209, "points": [{"type": "Feature", "properties": {}, "geometry": {"type": "Point", "coordinates": [10.169743001461027, 45.54720923179941]}}], "price": 2.006, "ultima_rilevazione": "16/06/2022 08:15:17"}, {"Gestore": "ri.val.sas di Girelli Mario & c", "Bandiera": "Api-Ip", "Tipo impianto": "Autostradale", "Indirizzo": "Autostrada A4 MILANO-BRESCIA, Km. 213+706, dir. Ovest 25030", "Nome impianto": "VALTROMPIA NORD", "Comune": "RONCADELLE", "idImpianto": 3594, "points": [{"type": "Feature", "properties": {}, "geometry": {"type": "Point", "coordinates": [10.150197073817251, 45.53283606917308]}}], "price": 2.145, "ultima_rilevazione": "16/06/2022 08:30:06"}, {"Gestore": "EGI-2GO S.R.L.", "Bandiera": "Esso", "Tipo impianto": "Strada Statale", "Indirizzo": "11 Padana Superiore, Km. 2, nord 25030", "Nome impianto": "Roncadelle nord", "Comune": "RONCADELLE", "idImpianto": 47997, "points": [{"type": "Feature", "properties": {}, "geometry": {"type": "Point", "coordinates": [10.152566602634732, 45.537858847438685]}}], "price": 1.999, "ultima_rilevazione": "16/06/2022 10:49:35"}, {"Gestore": "EGI-2GO S.R.L.", "Bandiera": "Esso", "Tipo impianto": "Strada Statale", "Indirizzo": "11 Padana Superiore, Km. 2+450, sud 25030", "Nome impianto": "Roncadelle Sud", "Comune": "RONCADELLE", "idImpianto": 47998, "points": [{"type": "Feature", "properties": {}, "geometry": {"type": "Point", "coordinates": [10.151906321211074, 45.53713153813316]}}], "price": 1.999, "ultima_rilevazione": "16/06/2022 10:50:32"}, {"Gestore": "IP SERVICES S.R.L.", "Bandiera": "Api-Ip", "Tipo impianto": "Altro", "Indirizzo": "VIA MARTIRI LIBERTA'  25030", "Nome impianto": "RONCADELLE - V. MARTIRI LIBERTA'", "Comune": "RONCADELLE", "idImpianto": 25072, "points": [{"type": "Feature", "properties": {}, "geometry": {"type": "Point", "coordinates": [10.155743673610688, 45.52497369189068]}}], "price": 1.949, "ultima_rilevazione": "16/06/2022 12:02:08"}, {"Gestore": "IP SERVICES S.R.L.", "Bandiera": "Api-Ip", "Tipo impianto": "Altro", "Indirizzo": "Via Valcamonica 9 25126", "Nome impianto": "Brescia Valcamonica", "Comune": "BRESCIA", "idImpianto": 28043, "points": [{"type": "Feature", "properties": {}, "geometry": {"type": "Point", "coordinates": [10.180791020393372, 45.54693836466013]}}], "price": 1.999, "ultima_rilevazione": "16/06/2022 12:05:50"}, {"Gestore": "T.D.M. S.R.L.", "Bandiera": "Tamoil", "Tipo impianto": "Altro", "Indirizzo": "Via Padana Superiore 16 25045", "Nome impianto": "6059", "Comune": "CASTEGNATO", "idImpianto": 27165, "points": [{"type": "Feature", "properties": {}, "geometry": {"type": "Point", "coordinates": [10.13626366853714, 45.55016238763048]}}], "price": 2.039, "ultima_rilevazione": "16/06/2022 12:32:08"}, {"Gestore": "SISTI TIZIANA", "Bandiera": "Api-Ip", "Tipo impianto": "Altro", "Indirizzo": "VIA VALCAMONICA 3 25126", "Nome impianto": "stazione di servizio IP", "Comune": "BRESCIA", "idImpianto": 15855, "points": [{"type": "Feature", "properties": {}, "geometry": {"type": "Point", "coordinates": [10.18236987546311, 45.547234737552536]}}], "price": 2.064, "ultima_rilevazione": "16/06/2022 14:46:08"}, {"Gestore": "MARELLI IVO", "Bandiera": "Q8", "Tipo impianto": "Altro", "Indirizzo": "VIA VALLECAMONICA SNC 25132", "Nome impianto": "MARELLI IVO", "Comune": "BRESCIA", "idImpianto": 13585, "points": [{"type": "Feature", "properties": {}, "geometry": {"type": "Point", "coordinates": [10.160254687070848, 45.54807329293446]}}], "price": 2.039, "ultima_rilevazione": "16/06/2022 15:05:01"}, {"Gestore": "IPERSTAROIL S.R.L.", "Bandiera": "Auchan", "Tipo impianto": "Altro", "Indirizzo": "VIA CASCINA FIORITA SNC 25030", "Nome impianto": "Roncadelle", "Comune": "RONCADELLE", "idImpianto": 50290, "points": [{"type": "Feature", "properties": {}, "geometry": {"type": "Point", "coordinates": [10.148647302190271, 45.53383276403651]}}], "price": 1.939, "ultima_rilevazione": "16/06/2022 20:36:09"}, {"Gestore": "SERVIZI & GESTIONI ITALIA S.R.L.", "Bandiera": "Q8", "Tipo impianto": "Altro", "Indirizzo": "VIA ORZINUOVI 74 25125", "Nome impianto": "BRESCIA-VIA ORZINUOVI 74", "Comune": "BRESCIA", "idImpianto": 11529, "points": [{"type": "Feature", "properties": {}, "geometry": {"type": "Point", "coordinates": [10.182807927751584, 45.53114028989275]}}], "price": 2.019, "ultima_rilevazione": "17/06/2022 01:38:38"}], "3": [{"Gestore": "BUIZZA ANGELO", "Bandiera": "Q8", "Tipo impianto": "Altro", "Indirizzo": "via Carducci 64 25126", "Nome impianto": "Stazione di Servizio Q8", "Comune": "BRESCIA", "idImpianto": 37605, "points": [{"type": "Feature", "properties": {}, "geometry": {"type": "Point", "coordinates": [10.202002660852031, 45.54739686397269]}}], "price": 1.506, "ultima_rilevazione": "18/11/2021 17:51:25"}, {"Gestore": "F.LLI MARCHESE SNC DI FRANCESCO E STEFANO MARCHESE", "Bandiera": "Esso", "Tipo impianto": "Altro", "Indirizzo": "VIA MILANO 44/46 25126", "Nome impianto": "F.LLI MARCHESE SNC DI FRANCESCO E STEFANO MARCHESE", "Comune": "BRESCIA", "idImpianto": 23963, "points": [{"type": "Feature", "properties": {}, "geometry": {"type": "Point", "coordinates": [10.201670431213415, 45.54412479365685]}}], "price": 1.856, "ultima_rilevazione": "18/05/2022 08:09:07"}, {"Gestore": "PIETROBONI FELICE E C. S.N.C.", "Bandiera": "Agip Eni", "Tipo impianto": "Altro", "Indirizzo": "VIA OBERDAN 104 25128", "Nome impianto": "pietroboni felice e c snc", "Comune": "BRESCIA", "idImpianto": 11207, "points": [{"type": "Feature", "properties": {}, "geometry": {"type": "Point", "coordinates": [10.209791468786648, 45.56068365491621]}}], "price": 1.944, "ultima_rilevazione": "07/06/2022 16:25:55"}, {"Gestore": "BROGNOLI MOTO DI BROGNOLI MARCO", "Bandiera": "Retitalia", "Tipo impianto": "Altro", "Indirizzo": "VIALE DEI CADUTI  30 25030", "Nome impianto": "Area servizio Retitalia", "Comune": "CASTEL MELLA", "idImpianto": 43816, "points": [{"type": "Feature", "properties": {}, "geometry": {"type": "Point", "coordinates": [10.152601317790982, 45.49351594010082]}}], "price": 1.947, "ultima_rilevazione": "11/06/2022 09:33:40"}, {"Gestore": "AMIDANI SCIASCIA", "Bandiera": "Q8", "Tipo impianto": "Altro", "Indirizzo": "via corsica 152 25125", "Nome impianto": "amidani sciascia", "Comune": "BRESCIA", "idImpianto": 11430, "points": [{"type": "Feature", "properties": {}, "geometry": {"type": "Point", "coordinates": [10.2040296792984, 45.52675659702511]}}], "price": 2.039, "ultima_rilevazione": "14/06/2022 07:37:08"}, {"Gestore": "BOSCHETTI ELISA", "Bandiera": "Q8", "Tipo impianto": "Altro", "Indirizzo": "via labirinto 318 25130", "Nome impianto": "Q8", "Comune": "BRESCIA", "idImpianto": 37579, "points": [{"type": "Feature", "properties": {}, "geometry": {"type": "Point", "coordinates": [10.184950699405704, 45.51378395409887]}}], "price": 2.009, "ultima_rilevazione": "14/06/2022 15:44:31"}, {"Gestore": "SORETTI SILVANO", "Bandiera": "Esso", "Tipo impianto": "Altro", "Indirizzo": "VIA DALMAZIA 70 25125", "Nome impianto": "Stazione di servizio - Soretti Silvano", "Comune": "BRESCIA", "idImpianto": 15934, "points": [{"type": "Feature", "properties": {}, "geometry": {"type": "Point", "coordinates": [10.199276804924011, 45.52991018794497]}}], "price": 1.999, "ultima_rilevazione": "14/06/2022 16:40:16"}, {"Gestore": "SERVIZIO DI J.S. DI SINGH JAGDEEP", "Bandiera": "Api-Ip", "Tipo impianto": "Altro", "Indirizzo": "via Dalmazia  58 25125", "Nome impianto": "IP BRESCIA VIA DALMAZIA", "Comune": "BRESCIA", "idImpianto": 44738, "points": [{"type": "Feature", "properties": {}, "geometry": {"type": "Point", "coordinates": [10.199764966964722, 45.53099660729657]}}], "price": 1.999, "ultima_rilevazione": "14/06/2022 17:20:16"}, {"Gestore": "BRAGA ANGELO", "Bandiera": "Api-Ip", "Tipo impianto": "Strada Statale", "Indirizzo": "Statale 235 di Orzinuovi, Km. 48, dir. Brescia 25030", "Nome impianto": "40962", "Comune": "TORBOLE CASAGLIA", "idImpianto": 27583, "points": [{"type": "Feature", "properties": {}, "geometry": {"type": "Point", "coordinates": [10.12176901102066, 45.514672928637125]}}], "price": 1.999, "ultima_rilevazione": "14/06/2022 18:05:38"}, {"Gestore": "BUIZZA PIETRO", "Bandiera": "Q8", "Tipo impianto": "Altro", "Indirizzo": "VIA FLERO 18 25125", "Nome impianto": "BUIZZA PIETRO", "Comune": "BRESCIA", "idImpianto": 13438, "points": [{"type": "Feature", "properties": {}, "geometry": {"type": "Point", "coordinates": [10.198878279762312, 45.52307242408842]}}], "price": 1.989, "ultima_rilevazione": "14/06/2022 20:17:57"}, {"Gestore": "AUTOCCASIONI DI CASTELLANO ENRICO E C. S.N.C.", "Bandiera": "Pompe Bianche", "Tipo impianto": "Altro", "Indirizzo": "VIA CROTTE  45 25127", "Nome impianto": "AUTOCCASIONI ", "Comune": "BRESCIA", "idImpianto": 36795, "points": [{"type": "Feature", "properties": {}, "geometry": {"type": "Point", "coordinates": [10.197480928870732, 45.55728354781038]}}], "price": 1.999, "ultima_rilevazione": "15/06/2022 07:45:13"}, {"Gestore": "LA PICCOLA S.A.S. DI COSTA ALESSANDRO & C.", "Bandiera": "Agip Eni", "Tipo impianto": "Altro", "Indirizzo": "VIA DALMAZIA 44 25125", "Nome impianto": "enicaf\u00e8", "Comune": "BRESCIA", "idImpianto": 32506, "points": [{"type": "Feature", "properties": {}, "geometry": {"type": "Point", "coordinates": [10.20012131282806, 45.53201968694268]}}], "price": 2.044, "ultima_rilevazione": "15/06/2022 08:04:11"}, {"Gestore": "SO.LO.ERRE S.A.S. DI RANDISI LEO E C.", "Bandiera": "Q8", "Tipo impianto": "Altro", "Indirizzo": "VIA ORZINUOVI 40/44 25125", "Nome impianto": "Q8 soloerre Brescia", "Comune": "BRESCIA", "idImpianto": 7911, "points": [{"type": "Feature", "properties": {}, "geometry": {"type": "Point", "coordinates": [10.18974356353283, 45.52925272685685]}}], "price": 1.999, "ultima_rilevazione": "15/06/2022 13:16:07"}, {"Gestore": "MUSCIO ROBERTO", "Bandiera": "Retitalia", "Tipo impianto": "Altro", "Indirizzo": "VIA BRESCIA 21 25039", "Nome impianto": "RETITALIA SPA", "Comune": "TRAVAGLIATO", "idImpianto": 37436, "points": [{"type": "Feature", "properties": {}, "geometry": {"type": "Point", "coordinates": [10.087012072422, 45.52273395217381]}}], "price": 1.979, "ultima_rilevazione": "15/06/2022 14:06:26"}, {"Gestore": "LU.DA. SERVICE DI BIGNOTTI LEONARDO & C. SAS", "Bandiera": "Agip Eni", "Tipo impianto": "Altro", "Indirizzo": "Via Sale 96 25064", "Nome impianto": "Non Solo Service - Lavaggio Auto & more", "Comune": "GUSSAGO", "idImpianto": 14829, "points": [{"type": "Feature", "properties": {}, "geometry": {"type": "Point", "coordinates": [10.134335137547623, 45.57249752442318]}}], "price": 1.984, "ultima_rilevazione": "15/06/2022 18:38:33"}, {"Gestore": "F.LLI UBERTI  DI UBERTI ANDREA E MAURO SNC", "Bandiera": "Q8", "Tipo impianto": "Altro", "Indirizzo": "VIA TORRICELLA DI SOPRA 148 25127", "Nome impianto": "Q8 ", "Comune": "BRESCIA", "idImpianto": 12809, "points": [{"type": "Feature", "properties": {}, "geometry": {"type": "Point", "coordinates": [10.187760125933892, 45.56263187447065]}}], "price": 1.999, "ultima_rilevazione": "15/06/2022 21:56:30"}, {"Gestore": "PERLETTI GIOVANNI BATTISTA", "Bandiera": "Agip Eni", "Tipo impianto": "Strada Statale", "Indirizzo": "11 Padana Superiore, Km. 224,521, est 25035", "Nome impianto": "Perletti Giovanni Battista", "Comune": "OSPITALETTO", "idImpianto": 48169, "points": [{"type": "Feature", "properties": {}, "geometry": {"type": "Point", "coordinates": [10.09650943435861, 45.553381025617696]}}], "price": 2.049, "ultima_rilevazione": "16/06/2022 06:03:55"}, {"Gestore": "IP SERVICES S.R.L.", "Bandiera": "Api-Ip", "Tipo impianto": "Altro", "Indirizzo": "VIA FRANCHI (SP 45) 108 25045", "Nome impianto": "CASTEGNATO - FRANCHI", "Comune": "CASTEGNATO", "idImpianto": 25070, "points": [{"type": "Feature", "properties": {}, "geometry": {"type": "Point", "coordinates": [10.111473936176251, 45.55624085815493]}}], "price": 2.019, "ultima_rilevazione": "16/06/2022 12:02:00"}, {"Gestore": "T.D.M. S.R.L.", "Bandiera": "Tamoil", "Tipo impianto": "Altro", "Indirizzo": "VIA MILANO 28 25126", "Nome impianto": "4205", "Comune": "BRESCIA", "idImpianto": 51263, "points": [{"type": "Feature", "properties": {}, "geometry": {"type": "Point", "coordinates": [10.205213828836063, 45.54339528219658]}}], "price": 2.049, "ultima_rilevazione": "16/06/2022 12:30:12"}, {"Gestore": "T.D.M. S.R.L.", "Bandiera": "Tamoil", "Tipo impianto": "Altro", "Indirizzo": "SS. 11 via Padana Superiore  25045", "Nome impianto": "8035", "Comune": "CASTEGNATO", "idImpianto": 40083, "points": [{"type": "Feature", "properties": {}, "geometry": {"type": "Point", "coordinates": [10.10773703455925, 45.55253803848632]}}], "price": 2.039, "ultima_rilevazione": "16/06/2022 12:32:14"}, {"Gestore": "T.D.M. S.R.L.", "Bandiera": "Tamoil", "Tipo impianto": "Altro", "Indirizzo": "Via Flero, 65 - 25124", "Nome impianto": "2599", "Comune": "BRESCIA", "idImpianto": 25373, "points": [{"type": "Feature", "properties": {}, "geometry": {"type": "Point", "coordinates": [10.19464746871722, 45.51442799442947]}}], "price": 2.019, "ultima_rilevazione": "16/06/2022 12:38:13"}, {"Gestore": "FERRARINI S.A.S. DI BETTONI ANGELA", "Bandiera": "Pompe Bianche", "Tipo impianto": "Altro", "Indirizzo": "VIA LABIRINTO  snc 25125", "Nome impianto": "IDEAVERDE Fuel", "Comune": "BRESCIA", "idImpianto": 36638, "points": [{"type": "Feature", "properties": {}, "geometry": {"type": "Point", "coordinates": [10.185224711894987, 45.51335125216836]}}], "price": 1.975, "ultima_rilevazione": "16/06/2022 15:04:21"}, {"Gestore": "SCALVINI FRANCESCO", "Bandiera": "Api-Ip", "Tipo impianto": "Altro", "Indirizzo": "VIA BRESCIA 30 25100", "Nome impianto": "SCALVINI FRANCESCO", "Comune": "TRAVAGLIATO", "idImpianto": 17770, "points": [{"type": "Feature", "properties": {}, "geometry": {"type": "Point", "coordinates": [10.087964741803034, 45.52236189185017]}}], "price": 2.059, "ultima_rilevazione": "16/06/2022 15:21:44"}, {"Gestore": "IP SERVICES S.R.L.", "Bandiera": "Api-Ip", "Tipo impianto": "Altro", "Indirizzo": "Via DALMAZIA 80 25125", "Nome impianto": "BRESCIA - DALMAZIA 80", "Comune": "BRESCIA", "idImpianto": 49466, "points": [{"type": "Feature", "properties": {}, "geometry": {"type": "Point", "coordinates": [10.19902829447747, 45.52914602106733]}}], "price": 1.989, "ultima_rilevazione": "16/06/2022 23:01:23"}, {"Gestore": "SERVIZI & GESTIONI ITALIA S.R.L.", "Bandiera": "Q8", "Tipo impianto": "Altro", "Indirizzo": "VIA G.VENDER 96 25127", "Nome impianto": "BRESCIA G.VENDER 96", "Comune": "BRESCIA", "idImpianto": 22096, "points": [{"type": "Feature", "properties": {}, "geometry": {"type": "Point", "coordinates": [10.204567781614742, 45.56104353032975]}}], "price": 2.019, "ultima_rilevazione": "17/06/2022 01:38:20"}, {"Gestore": "SERVIZI & GESTIONI ITALIA S.R.L.", "Bandiera": "Q8", "Tipo impianto": "Altro", "Indirizzo": "VIA NUOVA CIRCONVALLAZIONE S/N 25035", "Nome impianto": "OSPITALETTO-VIA NUOVA CIRCONVALLAZIONE", "Comune": "OSPITALETTO", "idImpianto": 11539, "points": [{"type": "Feature", "properties": {}, "geometry": {"type": "Point", "coordinates": [10.090091953372962, 45.55230893789719]}}], "price": 2.035, "ultima_rilevazione": "17/06/2022 01:38:42"}, {"Gestore": "CORINI S.N.C. DI CORINI NICOLA, CLAUDIO E RAINERI MAURO", "Bandiera": "Api-Ip", "Tipo impianto": "Altro", "Indirizzo": "TANGENZIALE DE GASPERI 5 25100", "Nome impianto": "DISTRIBUTORE IP DI CORINI S.N.C. DI CORINI NICOLA, CLAUDIO E RAINERI MAURO", "Comune": "BRESCIA", "idImpianto": 17041, "points": [{"type": "Feature", "properties": {}, "geometry": {"type": "Point", "coordinates": [10.200886130332949, 45.51882570797936]}}], "price": 2.084, "ultima_rilevazione": "17/06/2022 06:43:51"}, {"Gestore": "Q8 DEI FRATELLI VENTURINI DI VENTURINI MARCO", "Bandiera": "Q8", "Tipo impianto": "Altro", "Indirizzo": "VIA S. EUSTACCHIO 3 25128", "Nome impianto": "Q8 F.lli Venturini", "Comune": "BRESCIA", "idImpianto": 11245, "points": [{"type": "Feature", "properties": {}, "geometry": {"type": "Point", "coordinates": [10.212703918385388, 45.54951954662496]}}], "price": 2.069, "ultima_rilevazione": "17/06/2022 07:20:53"}, {"Gestore": "3S DI SOLA LUCA", "Bandiera": "Esso", "Tipo impianto": "Altro", "Indirizzo": "VIA LABIRINTO 6 25128", "Nome impianto": "Stazione di servizio 3s ", "Comune": "BRESCIA", "idImpianto": 50191, "points": [{"type": "Feature", "properties": {}, "geometry": {"type": "Point", "coordinates": [10.196567317790992, 45.5225431546276]}}], "price": 2.069, "ultima_rilevazione": "17/06/2022 07:21:50"}, {"Gestore": "A. & C. DI ARMOGIDA R. E C. SNC", "Bandiera": "Api-Ip", "Tipo impianto": "Altro", "Indirizzo": "Via Orzinuovi 56/z", "Nome impianto": "Stazione di servizio IP", "Comune": "BRESCIA", "idImpianto": 24341, "points": [{"type": "Feature", "properties": {}, "geometry": {"type": "Point", "coordinates": [10.187611877918243, 45.52985870371099]}}], "price": 2.064, "ultima_rilevazione": "17/06/2022 07:24:27"}, {"Gestore": "MARANGON LUCA & C. S.N.C.", "Bandiera": "Q8", "Tipo impianto": "Altro", "Indirizzo": "VIA VOLTURNO 80 25126", "Nome impianto": "Stazione Q8 Marangon Luca & C. Snc", "Comune": "BRESCIA", "idImpianto": 10026, "points": [{"type": "Feature", "properties": {}, "geometry": {"type": "Point", "coordinates": [10.20006202161312, 45.54888869150083]}}], "price": 2.069, "ultima_rilevazione": "17/06/2022 07:26:33"}], "5": [{"Gestore": "BAR SOSTA OBBLIGATA DI BONFIGLIO NORBERTO", "Bandiera": "Api-Ip", "Tipo impianto": "Altro", "Indirizzo": "strada provinciale 19 km 16+479  25046", "Nome impianto": "sostaobbligata", "Comune": "CAZZAGO SAN MARTINO", "idImpianto": 38757, "points": [{"type": "Feature", "properties": {},