{"area_comune": "[{\"type\": \"Feature\", \"properties\": {}, \"geometry\": {\"type\": \"Polygon\", \"coordinates\": [[[15.116775539390806, 37.57519658244575], [15.114942271593119, 37.56863619139175], [15.115472647912535, 37.56735756953313], [15.117405591613329, 37.56594749564122], [15.11975933841572, 37.56499024417759], [15.12307447207802, 37.56501795940585], [15.120686738913792, 37.5567157363209], [15.118500150220097, 37.55139103994183], [15.115930041974847, 37.54847362591505], [15.11212936284298, 37.54495066700321], [15.108846547883198, 37.54230522852582], [15.107881711888963, 37.541720804698166], [15.105074564866412, 37.540550228278086], [15.10258647755562, 37.53975780155743], [15.098728674952726, 37.54420216557573], [15.099316632273814, 37.54445806859677], [15.099769147104743, 37.54496336646684], [15.10060984231148, 37.546422833375296], [15.100642473041047, 37.547089419097624], [15.100375355934977, 37.54951536646017], [15.098826915640238, 37.551436250607885], [15.097609772920535, 37.555646270517464], [15.099450732082223, 37.56892987963753], [15.099756159769914, 37.569397826479026], [15.100505618010008, 37.569876471444424], [15.112707763589015, 37.57476005915439], [15.116459615200311, 37.57557527153022], [15.116775539390806, 37.57519658244575]]]}}]", "comune": "san-gregorio-di-catania", "buffer_1": "[{\"type\": \"Feature\", \"properties\": {}, \"geometry\": {\"type\": \"Polygon\", \"coordinates\": [[[15.112107416941505, 37.58337337767955], [15.113117330508594, 37.58369282322373], [15.114161176857728, 37.58393347311873], [15.11522927304249, 37.58409309530004], [15.11631171099861, 37.5841702093536], [15.117398449553178, 37.58416410025216], [15.118479407672476, 37.58407482498375], [15.119544558078767, 37.58390321201067], [15.120584020362891, 37.58365085356464], [15.121588152724497, 37.58332009085035], [15.122547641484712, 37.58291399229571], [15.1234535875375, 37.58243632505205], [15.124297588934704, 37.58189152001021], [15.125071818836814, 37.581284630658864], [15.125769098105012, 37.580621286168444], [15.126382961860969, 37.579907639138035], [15.126907719397629, 37.57915030849133], [15.127338506886804, 37.578356318053544], [15.12767133239724, 37.57753303138014], [15.127903112808744, 37.57668808344335], [15.13181151967264, 37.55820710320965], [15.131940446769663, 37.557343961042456], [15.131963958314685, 37.55647493937775], [15.131881837779453, 37.555608178196216], [15.13169485798827, 37.55475179602526], [15.131404773744697, 37.553913813912025], [15.131014305269272, 37.55310208031899], [15.130527112608194, 37.55232419764475], [15.12994776125668, 37.55158745105694], [15.12928167932255, 37.55089874030193], [15.111181239237226, 37.53394217300063], [15.110425470021626, 37.53330046224616], [15.10959449924591, 37.53272070992872], [15.108696299779785, 37.53220847775019], [15.107739488893058, 37.531768679637175], [15.106733245628863, 37.53140553463894], [15.105687222811008, 37.53112252648624], [15.104611454526434, 37.53092237019739], [15.10351625996644, 37.53080698605076], [15.10241214454458, 37.53077748117255], [15.101309699234772, 37.53083413891564], [15.100219499089992, 37.53097641613193], [15.099152001909724, 37.53120294836396], [15.098117448023062, 37.53151156290747], [15.097125762144005, 37.531899299620136], [15.09618645823619, 37.53236243927876], [15.095308548296103, 37.53289653921429], [15.094500455927156, 37.53349647588511], [15.093769935531975, 37.534156493981996], [15.093123997897461, 37.53487026159591], [15.092568842886816, 37.53563093092151], [15.092109799885822, 37.53643120391615], [15.091751276577066, 37.53726340228581], [15.091496716537046, 37.53811954112877], [15.091348566067103, 37.53899140553111], [15.088208357302976, 37.56816356563392], [15.088167619294953, 37.56901208327609], [15.088227735628555, 37.569859870906214], [15.088388172346507, 37.57069935028036], [15.088647498593124, 37.57152301717599], [15.089003399290322, 37.5723235084916], [15.089452695728362, 37.573093668092845], [15.089991373890957, 37.5738266108152], [15.0906146202646, 37.57451578404971], [15.09131686481463, 37.57515502636004], [15.092091830745527, 37.57573862260478], [15.092932590601709, 37.576261355071], [15.093831628207415, 37.57671855015968], [15.094780905891447, 37.577106120204654], [15.112107416941505, 37.58337337767955]]]}}]", "buffer_3": "[{\"type\": \"Feature\", \"properties\": {}, \"geometry\": {\"type\": \"Polygon\", \"coordinates\": [[[15.102768380457773, 37.599726664254234], [15.105798753632234, 37.600685165203146], [15.108931005142475, 37.6014072236795], [15.11213605976109, 37.60188613945325], [15.115384164918016, 37.602117469453134], [15.11864516778062, 37.602099069044165], [15.12188879608461, 37.60183111189661], [15.12508494006625, 37.60131608826291], [15.128203932836254, 37.60055878168272], [15.131216826552157, 37.599566224339426], [15.134095661788457, 37.598347631492935], [15.136813727571917, 37.5969143156101], [15.13934580964228, 37.595279581004206], [15.14166842461524, 37.59345859997802], [15.143760037863366, 37.59146827163665], [15.145601263090319, 37.589327064698104], [15.147175041752178, 37.58705484577676], [15.14846680067528, 37.58467269474936], [15.149464586430081, 37.58220270893046], [15.150159175243543, 37.57966779788645], [15.15406199518025, 37.56118655142832], [15.154447986937148, 37.558597118979904], [15.154517727496359, 37.55599010987994], [15.154270596956414, 37.553389941969904], [15.153708942524478, 37.55082096649898], [15.152838055323016, 37.54830724020575], [15.151666119706007, 37.54587230024542], [15.150204135601347, 37.54353894406077], [15.148465814643725, 37.54132901624579], [15.146467451101786, 37.539263204382955], [15.12836665724922, 37.522309371429046], [15.12609938621227, 37.52038455963134], [15.123606666201576, 37.51864560734173], [15.120912408445408, 37.51710918801402], [15.118042451701925, 37.515790032828896], [15.115024314879278, 37.51470078979244], [15.111886933755109, 37.51385190276129], [15.108660384291971, 37.51325151154067], [15.105375595166233, 37.512905374001974], [15.102064052225957, 37.51281681095838], [15.098757497666268, 37.51298667432325], [15.095487626759134, 37.51341333885537], [15.09228578499733, 37.51409271757376], [15.08918266850984, 37.51501830070069], [15.086208030577659, 37.516181217770054], [15.083390397025553, 37.51757032231831], [15.080756793186497, 37.51917229836205], [15.078332485032368, 37.52097178765838], [15.076140736937337, 37.52295153654695], [15.07420258839025, 37.525092560984596], [15.072536651800343, 37.52737432820927], [15.071158933347863, 37.52977495330904], [15.07008267861963, 37.532271408827626], [15.0693182445399, 37.53483974541019], [15.068872998862533, 37.537455321384556], [15.065723864671996, 37.566627642204125], [15.065600873252182, 37.56917323853739], [15.06578046331768, 37.57171670240471], [15.066261060077252, 37.574235295482325], [15.067038396427803, 37.57670649958372], [15.06810555007284, 37.579108218154865], [15.069453004474745, 37.581418974070196], [15.071068733128984, 37.58361810195132], [15.072938306435313, 37.58568593327693], [15.07504502023319, 37.58760397261515], [15.077370044868445, 37.589355063387885], [15.07989259346756, 37.59092354166971], [15.082590107916701, 37.59229537663014], [15.085438460876967, 37.59345829634899], [15.102768380457773, 37.599726664254234]]]}}]", "buffer_5": "[{\"type\": \"Feature\", \"properties\": {}, \"geometry\": {\"type\": \"Polygon\", \"coordinates\": [[[15.093425618080934, 37.61607954452171], [15.098477294711161, 37.617677320360535], [15.103698902151827, 37.6188809328041], [15.109041937642349, 37.61967920804481], [15.114456766185931, 37.620064737894644], [15.119893084110823, 37.62003394869664], [15.125300388942009, 37.61958713441346], [15.130628451099314, 37.61872845358851], [15.13582778292146, 37.617465890219044], [15.140850100545938, 37.61581117892512], [15.145648774250576, 37.61377969513822], [15.150179262983949, 37.61139031136485], [15.154399528975976, 37.60866522090123], [15.158270428525588, 37.60562973068176], [15.161756075306004, 37.60231202523245], [15.164824172807311, 37.59874290396956], [15.167446312846582, 37.59495549432944], [15.169598237414602, 37.590984943436816], [15.171260061490687, 37.58686809121298], [15.172416454839233, 37.58264312799086], [15.176313685706832, 37.564161617966775], [15.176955689074015, 37.559845887951745], [15.177070599875, 37.555500966611724], [15.176657434413151, 37.551167546804976], [15.175720152563187, 37.54688620668276], [15.174267617329017, 37.54269703010058], [15.172313508713582, 37.5386392319005], [15.169876192823088, 37.53475079154597], [15.166978547533864, 37.53106809850432], [15.163647746439704, 37.527625612656195], [15.145546603731349, 37.5106745132794], [15.141767880545856, 37.50746702750936], [15.137613668313127, 37.50456928113852], [15.133123806728264, 37.502009043872526], [15.12834133861288, 37.49981085005505], [15.123312098451201, 37.49799576450256], [15.118084274751311, 37.49658118145748], [15.112707950347763, 37.49558065854736], [15.107234624953337, 37.49500378731115], [15.101716724422154, 37.49485610151102], [15.096207101302252, 37.49513902409675], [15.090758531332753, 37.49584985332922], [15.085423210578154, 37.496981788204586], [15.080252257890074, 37.498523992954546], [15.07529522734443, 37.50046170003222], [15.070599635219978, 37.50277635063346], [15.066210505962434, 37.5054457714499], [15.062169941417723, 37.508444386008], [15.058516717418819, 37.51174345862094], [15.055285911574309, 37.51531136866792], [15.052508565834499, 37.5191139126248], [15.05021138710408, 37.523114631000894], [15.04841648883118, 37.52727515709326], [15.047141176133179, 37.53155558425408], [15.046397776622653, 37.53591484818128], [15.043239718551824, 37.56508732527979], [15.043033437256495, 37.56933005752647], [15.04333148888377, 37.57356933162236], [15.04413129393634, 37.57776724441425], [15.04542578306005, 37.581886256429435], [15.04720345738856, 37.585889528024886], [15.049448488758587, 37.58974124947484], [15.052140858992193, 37.593406962018136], [15.055256537080142, 37.5968538669612], [15.058767692745883, 37.6000511200348], [15.062642944525999, 37.602970108330915], [15.066847640174727, 37.60558470729995], [15.07134416689019, 37.60787151546655], [15.076092288572383, 37.60981006472282], [15.093425618080934, 37.61607954452171]]]}}]", "centroid": "[{\"type\": \"Feature\", \"properties\": {}, \"geometry\": {\"type\": \"Point\", \"coordinates\": [15.108754400581573, 37.558309048633255]}}]", "Diesel High Quality": {"1": [{"Gestore": "SERVIZI & GESTIONI ITALIA S.R.L.", "Bandiera": "Q8", "Tipo impianto": "Altro", "Indirizzo": "NUOVALUCE ANG.VIA NIZZETI  95030", "Nome impianto": "TREMESTIERI ETNEO NUOVALUCE ANG.VIA NIZZETI", "Comune": "TREMESTIERI ETNEO", "idImpianto": 33188, "points": [{"type": "Feature", "properties": {}, "geometry": {"type": "Point", "coordinates": [15.101969987154009, 37.53937722243106]}}], "price": 2.329, "ultima_rilevazione": "24/06/2022 11:07:32"}, {"Gestore": "SERVIZI & GESTIONI ITALIA S.R.L.", "Bandiera": "Q8", "Tipo impianto": "Altro", "Indirizzo": "NUOVALUCE ANG.VIA NIZZETI  95030", "Nome impianto": "TREMESTIERI ETNEO NUOVALUCE ANG.VIA NIZZETI", "Comune": "TREMESTIERI ETNEO", "idImpianto": 33188, "points": [{"type": "Feature", "properties": {}, "geometry": {"type": "Point", "coordinates": [15.101969987154009, 37.53937722243106]}}], "price": 2.389, "ultima_rilevazione": "24/06/2022 11:07:32"}], "3": [{"Gestore": "PADDOCK MOTOSTORE DI MASSIMILIANO CALABRESE", "Bandiera": "Q8", "Tipo impianto": "Altro", "Indirizzo": "via Messina 656 95126", "Nome impianto": "Q8 di Calabrese Massimiliano", "Comune": "CATANIA", "idImpianto": 38325, "points": [{"type": "Feature", "properties": {}, "geometry": {"type": "Point", "coordinates": [15.115645265081753, 37.53396704535048]}}], "price": 2.169, "ultima_rilevazione": "22/04/2022 07:50:38"}, {"Gestore": "T & T SERVICE S.R.L.", "Bandiera": "Q8", "Tipo impianto": "Altro", "Indirizzo": "VIA ETNEA ANG.ARDIZZONE GIOENI, 95100", "Nome impianto": "T&T SERVICE SRL", "Comune": "CATANIA", "idImpianto": 10759, "points": [{"type": "Feature", "properties": {}, "geometry": {"type": "Point", "coordinates": [15.081546306610107, 37.52573095543272]}}], "price": 2.297, "ultima_rilevazione": "24/06/2022 07:49:42"}, {"Gestore": "SERVIZI & GESTIONI ITALIA S.R.L.", "Bandiera": "Q8", "Tipo impianto": "Altro", "Indirizzo": "V.LE V. VENETO 115 95127", "Nome impianto": "CATANIA V.LE V. VENETO 115", "Comune": "CATANIA", "idImpianto": 46799, "points": [{"type": "Feature", "properties": {}, "geometry": {"type": "Point", "coordinates": [15.09638838343244, 37.520451400461766]}}], "price": 2.329, "ultima_rilevazione": "24/06/2022 11:07:32"}, {"Gestore": "SERVIZI & GESTIONI ITALIA S.R.L.", "Bandiera": "Q8", "Tipo impianto": "Altro", "Indirizzo": "V.LE V. VENETO 115 95127", "Nome impianto": "CATANIA V.LE V. VENETO 115", "Comune": "CATANIA", "idImpianto": 46799, "points": [{"type": "Feature", "properties": {}, "geometry": {"type": "Point", "coordinates": [15.09638838343244, 37.520451400461766]}}], "price": 2.389, "ultima_rilevazione": "24/06/2022 11:07:32"}, {"Gestore": "GFR GROUP DI CASTORINA ALESSANDRO", "Bandiera": "Esso", "Tipo impianto": "Altro", "Indirizzo": "Via Vincenzo Giuffrida 204-206 95128", "Nome impianto": "Stazione di Servizio ESSO", "Comune": "CATANIA", "idImpianto": 41944, "points": [{"type": "Feature", "properties": {}, "geometry": {"type": "Point", "coordinates": [15.091084612268446, 37.52523744527056]}}], "price": 2.169, "ultima_rilevazione": "27/06/2022 15:15:52"}], "5": [{"Gestore": "FISICHELLA ANGELO", "Bandiera": "Q8", "Tipo impianto": "Altro", "Indirizzo": "via Plebiscito 883 95124", "Nome impianto": "q8 VIA PLEBISCITO 883", "Comune": "CATANIA", "idImpianto": 49586, "points": [{"type": "Feature", "properties": {}, "geometry": {"type": "Point", "coordinates": [15.08122336794406, 37.50709812349649]}}], "price": 2.499, "ultima_rilevazione": "27/06/2022 10:42:15"}, {"Gestore": "EGI-2GO S.R.L.", "Bandiera": "Esso", "Tipo impianto": "Altro", "Indirizzo": "VIA CESARE BECCARIA 35 95123", "Nome impianto": "beccaria", "Comune": "CATANIA", "idImpianto": 48965, "points": [{"type": "Feature", "properties": {}, "geometry": {"type": "Point", "coordinates": [15.0765913348348, 37.51569815859536]}}], "price": 2.129, "ultima_rilevazione": "25/06/2022 07:01:47"}, {"Gestore": "S.M.T. DI FILIPPO TENERELLO & C. S.A.S.", "Bandiera": "Q8", "Tipo impianto": "Altro", "Indirizzo": "VIA LORENZO BOLANO 42 95123", "Nome impianto": "smt di Filippo Tenerello", "Comune": "CATANIA", "idImpianto": 42218, "points": [{"type": "Feature", "properties": {}, "geometry": {"type": "Point", "coordinates": [15.056099431946564, 37.517802231926446]}}], "price": 2.379, "ultima_rilevazione": "17/06/2022 17:45:09"}, {"Gestore": "CASTORINA SANTO E TOMARCHIO GIOVANNI S.N.C.", "Bandiera": "Q8", "Tipo impianto": "Strada Statale", "Indirizzo": "Statale 114 Orientale Sicula, Km. 85,426, dir. Catania 95021", "Nome impianto": "Stazione di servizio Q8", "Comune": "ACI CASTELLO", "idImpianto": 27147, "points": [{"type": "Feature", "properties": {}, "geometry": {"type": "Point", "coordinates": [15.167317986488342, 37.57546290579067]}}], "price": 2.089, "ultima_rilevazione": "23/06/2022 07:03:06"}, {"Gestore": "SERVIZI & GESTIONI ITALIA S.R.L.", "Bandiera": "Q8", "Tipo impianto": "Altro", "Indirizzo": "STRADA PROVINCIALE 42  95030", "Nome impianto": "PEDARA STRADA PROVINCIALE 42", "Comune": "PEDARA", "idImpianto": 32493, "points": [{"type": "Feature", "properties": {}, "geometry": {"type": "Point", "coordinates": [15.065449561376909, 37.60186980344919]}}], "price": 2.319, "ultima_rilevazione": "24/06/2022 11:07:32"}, {"Gestore": "SERVIZI & GESTIONI ITALIA S.R.L.", "Bandiera": "Q8", "Tipo impianto": "Altro", "Indirizzo": "STRADA PROVINCIALE 42  95030", "Nome impianto": "PEDARA STRADA PROVINCIALE 42", "Comune": "PEDARA", "idImpianto": 32493, "points": [{"type": "Feature", "properties": {}, "geometry": {"type": "Point", "coordinates": [15.065449561376909, 37.60186980344919]}}], "price": 2.379, "ultima_rilevazione": "24/06/2022 11:07:32"}, {"Gestore": "GE.I.CA. DI INGAGLIO ANGELO E C.  S.N.C.", "Bandiera": "Q8", "Tipo impianto": "Altro", "Indirizzo": "VIA ETNEA  92 95030", "Nome impianto": "Q8", "Comune": "GRAVINA DI CATANIA", "idImpianto": 41283, "points": [{"type": "Feature", "properties": {}, "geometry": {"type": "Point", "coordinates": [15.06601832807064, 37.54889390753284]}}], "price": 2.299, "ultima_rilevazione": "27/06/2022 12:19:07"}, {"Gestore": "GE.I.CA. DI INGAGLIO ANGELO E C.  S.N.C.", "Bandiera": "Q8", "Tipo impianto": "Altro", "Indirizzo": "VIA ETNEA  92 95030", "Nome impianto": "Q8", "Comune": "GRAVINA DI CATANIA", "idImpianto": 41283, "points": [{"type": "Feature", "properties": {}, "geometry": {"type": "Point", "coordinates": [15.06601832807064, 37.54889390753284]}}], "price": 2.299, "ultima_rilevazione": "27/06/2022 12:19:07"}]}, "Blue Diesel": {"1": [{"Gestore": "ENI FUEL S.P.A.", "Bandiera": "Agip Eni", "Tipo impianto": "Altro", "Indirizzo": "VIA CATIRA SNC 95037", "Nome impianto": "SAN GIOVANNI LA PUNTA", "Comune": "SAN GIOVANNI LA PUNTA", "idImpianto": 5449, "points": [{"type": "Feature", "properties": {}, "geometry": {"type": "Point", "coordinates": [15.103942711639434, 37.57997073015499]}}], "price": 2.129, "ultima_rilevazione": "29/06/2022 00:18:03"}], "3": [{"Gestore": "PREDA ALINA COSTINELA", "Bandiera": "Agip Eni", "Tipo impianto": "Altro", "Indirizzo": "VIA FRANCESCO LO JACONO 75 95030", "Nome impianto": "ENI STATION", "Comune": "SANT'AGATA LI BATTIATI", "idImpianto": 48664, "points": [{"type": "Feature", "properties": {}, "geometry": {"type": "Point", "coordinates": [15.08074415944222, 37.5408619009466]}}], "price": 1.669, "ultima_rilevazione": "11/10/2021 18:23:37"}, {"Gestore": "PETER PAN DI MARINO TIZIANA", "Bandiera": "Agip Eni", "Tipo impianto": "Altro", "Indirizzo": "Viale Vittorio Veneto 188 95126", "Nome impianto": "29577", "Comune": "CATANIA", "idImpianto": 41508, "points": [{"type": "Feature", "properties": {}, "geometry": {"type": "Point", "coordinates": [15.095917582511902, 37.525756907350925]}}], "price": 2.084, "ultima_rilevazione": "16/06/2022 15:25:27"}, {"Gestore": "D'URSO SALVATORE", "Bandiera": "Agip Eni", "Tipo impianto": "Altro", "Indirizzo": "VIA ETNEA 400 95030", "Nome impianto": "eni station 58304 di d'urso salvatore", "Comune": "TREMESTIERI ETNEO", "idImpianto": 15650, "points": [{"type": "Feature", "properties": {}, "geometry": {"type": "Point", "coordinates": [15.070404649737611, 37.5810188349678]}}], "price": 2.104, "ultima_rilevazione": "17/06/2022 10:17:00"}, {"Gestore": "D'URSO SALVATORE", "Bandiera": "Agip Eni", "Tipo impianto": "Altro", "Indirizzo": "VIA ETNEA 400 95030", "Nome impianto": "eni station 58304 di d'urso salvatore", "Comune": "TREMESTIERI ETNEO", "idImpianto": 15650, "points": [{"type": "Feature", "properties": {}, "geometry": {"type": "Point", "coordinates": [15.070404649737611, 37.5810188349678]}}], "price": 2.214, "ultima_rilevazione": "17/06/2022 10:17:00"}, {"Gestore": "PUSILLICO CARMELO", "Bandiera": "Agip Eni", "Tipo impianto": "Altro", "Indirizzo": "viale marco polo  16 95126", "Nome impianto": "eni 29591", "Comune": "CATANIA", "idImpianto": 49414, "points": [{"type": "Feature", "properties": {}, "geometry": {"type": "Point", "coordinates": [15.093339061206072, 37.52808796299364]}}], "price": 2.109, "ultima_rilevazione": "21/06/2022 07:52:44"}, {"Gestore": "STAZIONE ENI DI ZUCCARO RICCARDO", "Bandiera": "Agip Eni", "Tipo impianto": "Altro", "Indirizzo": "VIALE ANDREA DORIA 8 95125", "Nome impianto": "ENI PV 55106", "Comune": "CATANIA", "idImpianto": 42894, "points": [{"type": "Feature", "properties": {}, "geometry": {"type": "Point", "coordinates": [15.075013271163924, 37.52520395415928]}}], "price": 2.129, "ultima_rilevazione": "22/06/2022 09:08:31"}, {"Gestore": "JONICA CARBURANTI F.LLI D'AGATA DI D'AGATA LAURA ANGELA & C. S.A.S.", "Bandiera": "Agip Eni", "Tipo impianto": "Strada Statale", "Indirizzo": "Statale 114 Orientale Sicula, Km. 117, dir. CATANIA-SIRACUSA 95126", "Nome impianto": " ENI STATION JONICA CARBURANTI F.LLI D'AGATA ", "Comune": "CATANIA", "idImpianto": 4102, "points": [{"type": "Feature", "properties": {}, "geometry": {"type": "Point", "coordinates": [15.115076496329948, 37.5334419698132]}}], "price": 2.304, "ultima_rilevazione": "22/06/2022 10:32:18"}, {"Gestore": "GE.R.G. GESTIONE RIFORNIMENTI GRASSO S.N.C. DI GRASSO MARIO E C.", "Bandiera": "Agip Eni", "Tipo impianto": "Altro", "Indirizzo": "VIALE MARCO POLO 46 95126", "Nome impianto": "gerg snc di grasso mario e c.", "Comune": "CATANIA", "idImpianto": 28722, "points": [{"type": "Feature", "properties": {}, "geometry": {"type": "Point", "coordinates": [15.09532642142642, 37.528386390914]}}], "price": 2.239, "ultima_rilevazione": "22/06/2022 15:09:32"}, {"Gestore": "GE.R.G. GESTIONE RIFORNIMENTI GRASSO S.N.C. DI GRASSO MARIO E C.", "Bandiera": "Agip Eni", "Tipo impianto": "Altro", "Indirizzo": "VIALE MARCO POLO 46 95126", "Nome impianto": "gerg snc di grasso mario e c.", "Comune": "CATANIA", "idImpianto": 28722, "points": [{"type": "Feature", "properties": {}, "geometry": {"type": "Point", "coordinates": [15.09532642142642, 37.528386390914]}}], "price": 2.129, "ultima_rilevazione": "22/06/2022 15:09:32"}, {"Gestore": "DD CARBURANTI DI VALERIA D'AGATA", "Bandiera": "Agip Eni", "Tipo impianto": "Altro", "Indirizzo": "VIA MESSINA 630 95126", "Nome impianto": "DD Carburanti di V. D'Agata", "Comune": "CATANIA", "idImpianto": 36883, "points": [{"type": "Feature", "properties": {}, "geometry": {"type": "Point", "coordinates": [15.11507861316204, 37.53341296426081]}}], "price": 2.129, "ultima_rilevazione": "22/06/2022 16:45:13"}, {"Gestore": "IOZZIA OMAR PIETRO", "Bandiera": "Agip Eni", "Tipo impianto": "Altro", "Indirizzo": "Viale Ruggero di Lauria 39 95127", "Nome impianto": "Eni Lauria", "Comune": "CATANIA", "idImpianto": 38833, "points": [{"type": "Feature", "properties": {}, "geometry": {"type": "Point", "coordinates": [15.11172682209019, 37.52107872661672]}}], "price": 2.129, "ultima_rilevazione": "23/06/2022 09:01:09"}, {"Gestore": "ZAPPALA' SALVATORE E C. S.N.C.", "Bandiera": "Agip Eni", "Tipo impianto": "Altro", "Indirizzo": "VIA PIETRO DELL'OVA  95030", "Nome impianto": "ENI tremestieri", "Comune": "TREMESTIERI ETNEO", "idImpianto": 27313, "points": [{"type": "Feature", "properties": {}, "geometry": {"type": "Point", "coordinates": [15.090911935912343, 37.53988182865211]}}], "price": 2.129, "ultima_rilevazione": "27/06/2022 13:57:23"}, {"Gestore": "ZAPPALA' SALVATORE E C. S.N.C.", "Bandiera": "Agip Eni", "Tipo impianto": "Altro", "Indirizzo": "VIA BARRIERA DEL BOSCO 5 95030", "Nome impianto": "ENI battiati", "Comune": "SANT'AGATA LI BATTIATI", "idImpianto": 27314, "points": [{"type": "Feature", "properties": {}, "geometry": {"type": "Point", "coordinates": [15.08294641971588, 37.54728154343967]}}], "price": 2.129, "ultima_rilevazione": "27/06/2022 13:57:30"}, {"Gestore": "ENI FUEL S.P.A.", "Bandiera": "Agip Eni", "Tipo impianto": "Autostradale", "Indirizzo": "Autostrada A18 MESSINA-CATANIA, Km. 72, dir. Nord 95025", "Nome impianto": "ACI S.ANTONIO EST", "Comune": "ACI SANT'ANTONIO", "idImpianto": 3851, "points": [{"type": "Feature", "properties": {}, "geometry": {"type": "Point", "coordinates": [15.130577087402344, 37.59817985174349]}}], "price": 2.194, "ultima_rilevazione": "29/06/2022 00:00:02"}, {"Gestore": "ENI FUEL S.P.A.", "Bandiera": "Agip Eni", "Tipo impianto": "Autostradale", "Indirizzo": "Autostrada A18 MESSINA-CATANIA, Km. 72, dir. Sud 95025", "Nome impianto": "ACI S.ANTONIO OVEST", "Comune": "ACI SANT'ANTONIO", "idImpianto": 3852, "points": [{"type": "Feature", "properties": {}, "geometry": {"type": "Point", "coordinates": [15.129335224628448, 37.59797583817629]}}], "price": 2.194, "ultima_rilevazione": "29/06/2022 00:02:04"}], "5": [{"Gestore": "CALANNA GIUSEPPE", "Bandiera": "Agip Eni", "Tipo impianto": "Altro", "Indirizzo": "VIA NAZIONALE 102 95024", "Nome impianto": "ENI", "Comune": "ACIREALE", "idImpianto": 43292, "points": [{"type": "Feature", "properties": {}, "geometry": {"type": "Point", "coordinates": [15.16636848449707, 37.5883908203809]}}], "price": 2.009, "ultima_rilevazione": "07/06/2022 13:15:28"}, {"Gestore": "PUSILLICO CARMELO", "Bandiera": "Agip Eni", "Tipo impianto": "Altro", "Indirizzo": "via della misericordia snc 95123", "Nome impianto": "eni39227", "Comune": "CATANIA", "idImpianto": 49415, "points": [{"type": "Feature", "properties": {}, "geometry": {"type": "Point", "coordinates": [15.04657818067865, 37.54374333421922]}}], "price": 2.109, "ultima_rilevazione": "21/06/2022 07:54:13"}, {"Gestore": "CALABRESE IVAN", "Bandiera": "Agip Eni", "Tipo impianto": "Altro", "Indirizzo": "VIA A. GRAMSCI 16 95030", "Nome impianto": "Distributore Eni di Ivan Calabrese", "Comune": "GRAVINA DI CATANIA", "idImpianto": 38013, "points": [{"type": "Feature", "properties": {}, "geometry": {"type": "Point", "coordinates": [15.065124168986586, 37.55249895261787]}}], "price": 2.129, "ultima_rilevazione": "22/06/2022 06:58:00"}, {"Gestore": "FKM OIL S.R.L.", "Bandiera": "Agip Eni", "Tipo impianto": "Altro", "Indirizzo": "VIA ALCIDE DE GASPERI SN 95030", "Nome impianto": "FKM OIL SRL", "Comune": "MASCALUCIA", "idImpianto": 44028, "points": [{"type": "Feature", "properties": {}, "geometry": {"type": "Point", "coordinates": [15.058175000123, 37.573192000123]}}], "price": 2.129, "ultima_rilevazione": "22/06/2022 09:28:50"}, {"Gestore": "FKM OIL S.R.L.", "Bandiera": "Agip Eni", "Tipo impianto": "Altro", "Indirizzo": "VIA ALCIDE DE GASPERI SN 95030", "Nome impianto": "FKM OIL SRL", "Comune": "MASCALUCIA", "idImpianto": 47065, "points": [{"type": "Feature", "properties": {}, "geometry": {"type": "Point", "coordinates": [15.058175000123, 37.573192000123]}}], "price": 2.129, "ultima_rilevazione": "22/06/2022 09:33:07"}, {"Gestore": "IOZZIA OMAR PIETRO", "Bandiera": "Agip Eni", "Tipo impianto": "Altro", "Indirizzo": "VIALE LORENZO BOLANO 50 95125", "Nome impianto": "Eni Bolano", "Comune": "CATANIA", "idImpianto": 38832, "points": [{"type": "Feature", "properties": {}, "geometry": {"type": "Point", "coordinates": [15.05875088274479, 37.51864425759192]}}], "price": 2.129, "ultima_rilevazione": "23/06/2022 09:00:04"}]}, "Gasolio High Quality": {"1": [], "3": [{"Gestore": "ORONERO S.R.L.", "Bandiera": "Esso", "Tipo impianto": "Altro", "Indirizzo": "VIA MESSINA 684", "Nome impianto": "ESSO", "Comune": "CATANIA", "idImpianto": 21593, "points": [{"type": "Feature", "properties": {}, "geometry": {"type": "Point", "coordinates": [15.117010837614773, 37.53494485459378]}}], "price": 1.999, "ultima_rilevazione": "04/03/2022 07:52:39"}, {"Gestore": "SICILCAR SICULA INDUSTRIALE LUBRIFICANTI CARBURANTI  S.R.L.", "Bandiera": "Esso", "Tipo impianto": "Altro", "Indirizzo": "VIA NIZZETI 183 A 95022", "Nome impianto": "SICILCAR", "Comune": "ACI CATENA", "idImpianto": 19476, "points": [{"type": "Feature", "properties": {}, "geometry": {"type": "Point", "coordinates": [15.138485867498048, 37.574493493520905]}}], "price": 2.129, "ultima_rilevazione": "17/06/2022 13:49:09"}, {"Gestore": "ACICASTELLO CARBURANTI MARCHESE RAGONA S.R.L.", "Bandiera": "Esso", "Tipo impianto": "Altro", "Indirizzo": "VIA XXI APRILE EX S.S.114 33 95021", "Nome impianto": "ACICASTELLOCARBURANTI", "Comune": "ACI CASTELLO", "idImpianto": 27726, "points": [{"type": "Feature", "properties": {}, "geometry": {"type": "Point", "coordinates": [15.143852680921556, 37.55061638930612]}}], "price": 2.189, "ultima_rilevazione": "24/06/2022 08:15:18"}], "5": [{"Gestore": "CAVALLARO LORENZO", "Bandiera": "Q8", "Tipo impianto": "Altro", "Indirizzo": "VIA VINCENZO CASAGRANDI S.N. 95123", "Nome impianto": "Area di Servizio Q8 di Cavallaro Lorenzo", "Comune": "CATANIA", "idImpianto": 28557, "points": [{"type": "Feature", "properties": {}, "geometry": {"type": "Point", "coordinates": [15.065513853717448, 37.51669921524486]}}], "price": 1.999, "ultima_rilevazione": "23/06/2022 07:43:43"}]}, "Benzina": {"1": [{"Gestore": "SERVIZI & GESTIONI ITALIA S.R.L.", "Bandiera": "Q8", "Tipo impianto": "Altro", "Indirizzo": "NUOVALUCE ANG.VIA NIZZETI  95030", "Nome impianto": "TREMESTIERI ETNEO NUOVALUCE ANG.VIA NIZZETI", "Comune": "TREMESTIERI ETNEO", "idImpianto": 33188, "points": [{"type": "Feature", "properties": {}, "geometry": {"type": "Point", "coordinates": [15.101969987154009, 37.53937722243106]}}], "price": 2.089, "ultima_rilevazione": "24/06/2022 11:07:32"}, {"Gestore": "SEBASTIANO ROMEO S.R.L.", "Bandiera": "SP Energia Siciliana", "Tipo impianto": "Altro", "Indirizzo": " IMMACOLATA SNC 95027", "Nome impianto": "SEBASTIANO ROMEO S.R.L  S.GREGORIO", "Comune": "SAN GREGORIO DI CATANIA", "idImpianto": 43296, "points": [{"type": "Feature", "properties": {}, "geometry": {"type": "Point", "coordinates": [15.114762011656694, 37.5708161610794]}}], "price": 2.017, "ultima_rilevazione": "24/06/2022 11:31:46"}, {"Gestore": "DBS SERVIZI PETROLIFERI S.R.L.", "Bandiera": "Sicilpetroli", "Tipo impianto": "Altro", "Indirizzo": "VIA BELLINI 22 95028", "Nome impianto": "DBS Serv. Petrol. srl impianto carb. Bellini", "Comune": "VALVERDE", "idImpianto": 23770, "points": [{"type": "Feature", "properties": {}, "geometry": {"type": "Point", "coordinates": [15.12380349933619, 37.58115864875118]}}], "price": 1.989, "ultima_rilevazione": "25/06/2022 10:24:40"}, {"Gestore": "SERVIZI & GESTIONI ITALIA srl", "Bandiera": "Q8", "Tipo impianto": "Altro", "Indirizzo": "VIA MARCO POLO SNC 95041", "Nome impianto": "SAN GIOVANNI LA PUNTA VIA MARCO POLO", "Comune": "SAN GIOVANNI LA PUNTA", "idImpianto": 6774, "points": [{"type": "Feature", "properties": {}, "geometry": {"type": "Point", "coordinates": [15.103755823348251, 37.5760649582489]}}], "price": 1.999, "ultima_rilevazione": "27/06/2022 00:37:11"}, {"Gestore": "GREEN ARC S.R.L.", "Bandiera": "Pompe Bianche", "Tipo impianto": "Altro", "Indirizzo": "VIALE EUROPA 63/65 95027", "Nome impianto": "Viale Europa 63/65", "Comune": "SAN GREGORIO DI CATANIA", "idImpianto": 44242, "points": [{"type": "Feature", "properties": {}, "geometry": {"type": "Point", "coordinates": [15.111220000123, 37.572477000123]}}], "price": 1.989, "ultima_rilevazione": "27/06/2022 09:22:36"}, {"Gestore": "PETROL SERVICE S.R.L.", "Bandiera": "Api-Ip", "Tipo impianto": "Altro", "Indirizzo": "VIA NUOVALUCELLO 172 95126", "Nome impianto": "PETROLSERVICE SRL", "Comune": "CATANIA", "idImpianto": 50668, "points": [{"type": "Feature", "properties": {}, "geometry": {"type": "Point", "coordinates": [15.108021721243858, 37.54151570605608]}}], "price": 2.099, "ultima_rilevazione": "28/06/2022 17:20:06"}, {"Gestore": "SICILPETROLI S.R.L.", "Bandiera": "Lukoil", "Tipo impianto": "Altro", "Indirizzo": "Via SS.Crocifisso snc 95037", "Nome impianto": "SICILPETROLI  FRAZ. TRAPPETO S.G. LA PUNTA", "Comune": "SAN GIOVANNI LA PUNTA", "idImpianto": 37727, "points": [{"type": "Feature", "properties": {}, "geometry": {"type": "Point", "coordinates": [15.090172290802002, 37.568324170633694]}}], "price": 1.999, "ultima_rilevazione": "28/06/2022 17:30:43"}, {"Gestore": "SERVIZI E GESTIONI ZENIT S.R.L. IN SIGLA - ZENIT S.R.L.", "Bandiera": "Agip Eni", "Tipo impianto": "Altro", "Indirizzo": "VIA MADONNA DELLE LACRIME 59 95037", "Nome impianto": "V.MAD.DELLE LACR", "Comune": "SAN GIOVANNI LA PUNTA", "idImpianto": 12040, "points": [{"type": "Feature", "properties": {}, "geometry": {"type": "Point", "coordinates": [15.09482690674588, 37.54728802487895]}}], "price": 1.999, "ultima_rilevazione": "28/06/2022 17:50:56"}, {"Gestore": "SERVIZI E GESTIONI ZENIT S.R.L. IN SIGLA - ZENIT S.R.L.", "Bandiera": "Esso", "Tipo impianto": "Altro", "Indirizzo": "VIA CERZA  95027", "Nome impianto": "VIA CERZA S.G.CT", "Comune": "SAN GREGORIO DI CATANIA", "idImpianto": 12053, "points": [{"type": "Feature", "properties": {}, "geometry": {"type": "Point", "coordinates": [15.10056241468044, 37.55013454230165]}}], "price": 1.999, "ultima_rilevazione": "28/06/2022 17:51:01"}, {"Gestore": "SERVIZI E GESTIONI ZENIT S.R.L. IN SIGLA - ZENIT S.R.L.", "Bandiera": "Esso", "Tipo impianto": "Altro", "Indirizzo": "Viale Ulisse  95100", "Nome impianto": "VIALE ULISSE - CATANIA", "Comune": "CATANIA", "idImpianto": 42015, "points": [{"type": "Feature", "properties": {}, "geometry": {"type": "Point", "coordinates": [15.103940069675446, 37.53178601419955]}}], "price": 1.999, "ultima_rilevazione": "28/06/2022 17:51:02"}, {"Gestore": "CARBOMIX - S.R.L.", "Bandiera": "Petrol Company", "Tipo impianto": "Altro", "Indirizzo": "VIA CATIRA S.N. 95027", "Nome impianto": "PETROL COMPANY SAN GREGORIO", "Comune": "SAN GREGORIO DI CATANIA", "idImpianto": 33273, "points": [{"type": "Feature", "properties": {}, "geometry": {"type": "Point", "coordinates": [15.101032555103302, 37.56641755762781]}}], "price": 1.999, "ultima_rilevazione": "29/06/2022 00:14:12"}, {"Gestore": "ENI FUEL S.P.A.", "Bandiera": "Agip Eni", "Tipo impianto": "Altro", "Indirizzo": "VIA CATIRA SNC 95037", "Nome impianto": "SAN GIOVANNI LA PUNTA", "Comune": "SAN GIOVANNI LA PUNTA", "idImpianto": 5449, "points": [{"type": "Feature", "properties": {}, "geometry": {"type": "Point", "coordinates": [15.103942711639434, 37.57997073015499]}}], "price": 2.089, "ultima_rilevazione": "29/06/2022 00:18:03"}], "3": [{"Gestore": "PREDA ALINA COSTINELA", "Bandiera": "Agip Eni", "Tipo impianto": "Altro", "Indirizzo": "VIA FRANCESCO LO JACONO 75 95030", "Nome impianto": "ENI STATION", "Comune": "SANT'AGATA LI BATTIATI", "idImpianto": 48664, "points": [{"type": "Feature", "properties": {}, "geometry": {"type": "Point", "coordinates": [15.08074415944222, 37.5408619009466]}}], "price": 1.679, "ultima_rilevazione": "11/10/2021 18:23:37"}, {"Gestore": "SICULA PETROLI S.R.L.", "Bandiera": "Esso", "Tipo impianto": "Altro", "Indirizzo": "VIALE O.DA PORDENONE 42 95126", "Nome impianto": "Sicula Petroli S.r.l. - Impianto Distrib. Carburante Esso Italiana Srl", "Comune": "CATANIA", "idImpianto": 28735, "points": [{"type": "Feature", "properties": {}, "geometry": {"type": "Point", "coordinates": [15.08646346628666, 37.5281306179167]}}], "price": 1.789, "ultima_rilevazione": "04/02/2022 09:57:56"}, {"Gestore": "ORONERO S.R.L.", "Bandiera": "Esso", "Tipo impianto": "Altro", "Indirizzo": "VIA MESSINA 684", "Nome impianto": "ESSO", "Comune": "CATANIA", "idImpianto": 21593, "points": [{"type": "Feature", "properties": {}, "geometry": {"type": "Point", "coordinates": [15.117010837614773, 37.53494485459378]}}], "price": 1.959, "ultima_rilevazione": "04/03/2022 07:52:39"}, {"Gestore": "SAPIENZA MARIA ELENA", "Bandiera": "Esso", "Tipo impianto": "Altro", "Indirizzo": "VIA ETNEA 20 95030", "Nome impianto": "RIFORNIMENTO ESSO DI SAPIENZA MARIA ELENA", "Comune": "GRAVINA DI CATANIA", "idImpianto": 26895, "points": [{"type": "Feature", "properties": {}, "geometry": {"type": "Point", "coordinates": [15.07476031780243, 37.54353779808862]}}], "price": 1.529, "ultima_rilevazione": "21/06/2022 13:32:25"}, {"Gestore": "PADDOCK MOTOSTORE DI MASSIMILIANO CALABRESE", "Bandiera": "Q8", "Tipo impianto": "Altro", "Indirizzo": "via Messina 656 95126", "Nome impianto": "Q8 di Calabrese Massimiliano", "Comune": "CATANIA", "idImpianto": 38325, "points": [{"type": "Feature", "properties": {}, "geometry": {"type": "Point", "coordinates": [15.115645265081753, 37.53396704535048]}}], "price": 1.819, "ultima_rilevazione": "22/04/2022 07:50:38"}, {"Gestore": "GIUFFRIDA CLAUDIO", "Bandiera": "Sicilpetroli", "Tipo impianto": "Altro", "Indirizzo": "VIA UMBERTO 31 95030", "Nome impianto": "GIUFFRIDA CLAUDIO", "Comune": "SANT'AGATA LI BATTIATI", "idImpianto": 32423, "points": [{"type": "Feature", "properties": {}, "geometry": {"type": "Point", "coordinates": [15.08115292883599, 37.55594657704682]}}], "price": 1.779, "ultima_rilevazione": "09/05/2022 18:52:59"}, {"Gestore": "PETER PAN DI MARINO TIZIANA", "Bandiera": "Agip Eni", "Tipo impianto": "Altro", "Indirizzo": "Viale Vittorio Veneto 188 95126", "Nome impianto": "29577", "Comune": "CATANIA", "idImpianto": 41508, "points": [{"type": "Feature", "properties": {}, "geometry": {"type": "Point", "coordinates": [15.095917582511902, 37.525756907350925]}}], "price": 2.064, "ultima_rilevazione": "16/06/2022 15:25:27"}, {"Gestore": "D'URSO SALVATORE", "Bandiera": "Agip Eni", "Tipo impianto": "Altro", "Indirizzo": "VIA ETNEA 400 95030", "Nome impianto": "eni station 58304 di d'urso salvatore", "Comune": "TREMESTIERI ETNEO", "idImpianto": 15650, "points": [{"type": "Feature", "properties": {}, "geometry": {"type": "Point", "coordinates": [15.070404649737611, 37.5810188349678]}}], "price": 2.064, "ultima_rilevazione": "17/06/2022 10:17:00"}, {"Gestore": "SICILCAR SICULA INDUSTRIALE LUBRIFICANTI CARBURANTI  S.R.L.", "Bandiera": "Esso", "Tipo impianto": "Altro", "Indirizzo": "VIA NIZZETI 183 A 95022", "Nome impianto": "SICILCAR", "Comune": "ACI CATENA", "idImpianto": 19476, "points": [{"type": "Feature", "properties": {}, "geometry": {"type": "Point", "coordinates": [15.138485867498048, 37.574493493520905]}}], "price": 2.069, "ultima_rilevazione": "17/06/2022 13:49:09"}, {"Gestore": "LEONARDI ANTONIO", "Bandiera": "Pompe Bianche", "Tipo impianto": "Altro", "Indirizzo": "via Bellini 19 95030", "Nome impianto": "Stazione di servizio Nobile Oil di Antonio Leonardi", "Comune": "SANT'AGATA LI BATTIATI", "idImpianto": 38127, "points": [{"type": "Feature", "properties": {}, "geometry": {"type": "Point", "coordinates": [15.076740458607674, 37.55907638682088]}}], "price": 2.049, "ultima_rilevazione": "21/06/2022 06:34:34"}, {"Gestore": "PUSILLICO CARMELO", "Bandiera": "Agip Eni", "Tipo impianto": "Altro", "Indirizzo": "viale marco polo  16 95126", "Nome impianto": "eni 29591", "Comune": "CATANIA", "idImpianto": 49414, "points": [{"type": "Feature", "properties": {}, "geometry": {"type": "Point", "coordinates": [15.093339061206072, 37.52808796299364]}}], "price": 2.069, "ultima_rilevazione": "21/06/2022 07:52:44"}, {"Gestore": "CO.GE.KAT. S.R.L.", "Bandiera": "Pompe Bianche", "Tipo impianto": "Altro", "Indirizzo": "CONTRADA RAVANUSA SNC 95030", "Nome impianto": "CO.GE.KAT. T.E.", "Comune": "TREMESTIERI ETNEO", "idImpianto": 33515, "points": [{"type": "Feature", "properties": {}, "geometry": {"type": "Point", "coordinates": [15.08382886648178, 37.56856398202246]}}], "price": 1.999, "ultima_rilevazione": "21/06/2022 08:57:31"}, {"Gestore": "MOBILITY POINT S.R.L.", "Bandiera": "Api-Ip", "Tipo impianto": "Altro", "Indirizzo": "VIA CARUSO S.N. 95037", "Nome impianto": "mobility point srl", "Comune": "SAN GIOVANNI LA PUNTA", "idImpianto": 13782, "points": [{"type": "Feature", "properties": {}, "geometry": {"type": "Point", "coordinates": [15.092028379440308, 37.58899018580353]}}], "price": 2.099, "ultima_rilevazione": "21/06/2022 09:40:57"}, {"Gestore": "STAZIONE ENI DI ZUCCARO RICCARDO", "Bandiera": "Agip Eni", "Tipo impianto": "Altro", "Indirizzo": "VIALE ANDREA DORIA 8 95125", "Nome impianto": "ENI PV 55106", "Comune": "CATANIA", "idImpianto": 42894, "points": [{"type": "Feature", "properties": {}, "geometry": {"type": "Point", "coordinates": [15.075013271163924, 37.52520395415928]}}], "price": 2.089, "ultima_rilevazione": "22/06/2022 09:08:31"}, {"Gestore": "JONICA CARBURANTI F.LLI D'AGATA DI D'AGATA LAURA ANGELA & C. S.A.S.", "Bandiera": "Agip Eni", "Tipo impianto": "Strada Statale", "Indirizzo": "Statale 114 Orientale Sicula, Km. 117, dir. CATANIA-SIRACUSA 95126", "Nome impianto": " ENI STATION JONICA CARBURANTI F.LLI D'AGATA ", "Comune": "CATANIA", "idImpianto": 4102, "points": [{"type": "Feature", "properties": {}, "geometry": {"type": "Point", "coordinates": [15.115076496329948, 37.5334419698132]}}], "price": 2.224, "ultima_rilevazione": "22/06/2022 10:32:18"}, {"Gestore": "FOOD&OIL DI CRISTIANO TITOLA", "Bandiera": "Esso", "Tipo impianto": "Altro", "Indirizzo": "via del bosco  380 95125", "Nome impianto": "esso", "Comune": "CATANIA", "idImpianto": 46818, "points": [{"type": "Feature", "properties": {}, "geometry": {"type": "Point", "coordinates": [15.078447991029408, 37.54390100392222]}}], "price": 2.019, "ultima_rilevazione": "22/06/2022 13:24:06"}, {"Gestore": "STAZIONE DI SERVIZIO COFFA S.A.S. DI COFFA MICHELANGELO", "Bandiera": "Agip Eni", "Tipo impianto": "Altro", "Indirizzo": "VIA VINCENZO GIUFFRIDA 171/173 95128", "Nome impianto": "stazione di servizio coffa s.a.s. di coffa michelangelo", "Comune": "CATANIA", "idImpianto": 44337, "points": [{"type": "Feature", "properties": {}, "geometry": {"type": "Point", "coordinates": [15.090807000123, 37.523215000123]}}], "price": 2.089, "ultima_rilevazione": "22/06/2022 14:00:39"}, {"Gestore": "GE.R.G. GESTIONE RIFORNIMENTI GRASSO S.N.C. DI GRASSO MARIO E C.", "Bandiera": "Agip Eni", "Tipo impianto": "Altro", "Indirizzo": "VIALE MARCO POLO 46 95126", "Nome impianto": "gerg snc di grasso mario e c.", "Comune": "CATANIA", "idImpianto": 28722, "points": [{"type": "Feature", "properties": {}, "geometry": {"type": "Point", "coordinates": [15.09532642142642, 37.528386390914]}}], "price": 2.089, "ultima_rilevazione": "22/06/2022 15:09:32"}, {"Gestore": "DD CARBURANTI DI VALERIA D'AGATA", "Bandiera": "Agip Eni", "Tipo impianto": "Altro", "Indirizzo": "VIA MESSINA 630 95126", "Nome impianto": "DD Carburanti di V. D'Agata", "Comune": "CATANIA", "idImpianto": 36883, "points": [{"type": "Feature", "properties": {}, "geometry": {"type": "Point", "coordinates": [15.11507861316204, 37.53341296426081]}}], "price": 2.089, "ultima_rilevazione": "22/06/2022 16:45:13"}, {"Gestore": "IOZZIA OMAR PIETRO", "Bandiera": "Agip Eni", "Tipo impianto": "Altro", "Indirizzo": "Viale Ruggero di Lauria 39 95127", "Nome impianto": "Eni Lauria", "Comune": "CATANIA", "idImpianto": 38833, "points": [{"type": "Feature", "properties": {}, "geometry": {"type": "Point", "coordinates": [15.11172682209019, 37.52107872661672]}}], "price": 2.089, "ultima_rilevazione": "23/06/2022 09:01:09"}, {"Gestore": "PERCOLLA DARIO", "Bandiera": "Esso", "Tipo impianto": "Altro", "Indirizzo": "via della regione 2 95030", "Nome impianto": "esso percolla dario", "Comune": "SAN GIOVANNI LA PUNTA", "idImpianto": 13970, "points": [{"type": "Feature", "properties": {}, "geometry": {"type": "Point", "coordinates": [15.086534619331356, 37.57166488976966]}}], "price": 2.039, "ultima_rilevazione": "24/06/2022 07:12:46"}, {"Gestore": "T & T SERVICE S.R.L.", "Bandiera": "Q8", "Tipo impianto": "Altro", "Indirizzo": "VIA ETNEA ANG.ARDIZZONE GIOENI, 95100", "Nome impianto": "T&T SERVICE SRL", "Comune": "CATANIA", "idImpianto": 10759, "points": [{"type": "Feature", "properties": {}, "geometry": {"type": "Point", "coordinates": [15.081546306610107, 37.52573095543272]}}], "price": 2.099, "ultima_rilevazione": "24/06/2022 07:49:42"}, {"Gestore": "ACICASTELLO CARBURANTI MARCHESE RAGONA S.R.L.", "Bandiera": "Esso", "Tipo impianto": "Altro", "Indirizzo": "VIA XXI APRILE EX S.S.114 33 95021", "Nome impianto": "ACICASTELLOCARBURANTI", "Comune": "ACI CASTELLO", "idImpianto": 27726, "points": [{"type": "Feature", "properties": {}, "geometry": {"type": "Point", "coordinates": [15.143852680921556, 37.55061638930612]}}], "price": 2.089, "ultima_rilevazione": "24/06/2022 08:15:18"}, {"Gestore": "ND PETROLI DI DIBENNARDO NUNZIO & C. S.R.L.", "Bandiera": "Tamoil", "Tipo impianto": "Altro", "Indirizzo": "VIA CATIRA SNC 95037", "Nome impianto": "SAN GIOVANNI LA PUNTA", "Comune": "SAN GIOVANNI LA PUNTA", "idImpianto": 14544, "points": [{"type": "Feature", "properties": {}, "geometry": {"type": "Point", "coordinates": [15.103398263454435, 37.58135492940338]}}], "price": 2.029, "ultima_rilevazione": "24/06/2022 09:18:56"}, {"Gestore": "SERVIZI & GESTIONI ITALIA S.R.L.", "Bandiera": "Q8", "Tipo impianto": "Altro", "Indirizzo": "V.LE V. VENETO 115 95127", "Nome impianto": "CATANIA V.LE V. VENETO 115", "Comune": "CATANIA", "idImpianto": 46799, "points": [{"type": "Feature", "properties": {}, "geometry": {"type": "Point", "coordinates": [15.09638838343244, 37.520451400461766]}}], "price": 2.089, "ultima_rilevazione": "24/06/2022 11:07:32"}, {"Gestore": "SEBASTIANO ROMEO S.R.L.", "Bandiera": "SP Energia Siciliana", "Tipo impianto": "Altro", "Indirizzo": "VIA DELLA REGIONE 263 95037", "Nome impianto": "SEBASTIANO ROMEO S.R.L SG LA PUNTA", "Comune": "SAN GIOVANNI LA PUNTA", "idImpianto": 48134, "points": [{"type": "Feature", "properties": {}, "geometry": {"type": "Point", "coordinates": [15.090571988892147, 37.58152066840477]}}], "price": 2.037, "ultima_rilevazione": "24/06/2022 11:31:53"}, {"Gestore": "CRISTALDI GAETANO", "Bandiera": "Api-Ip", "Tipo impianto": "Altro", "Indirizzo": "Via Vincenzo Giuffrida 156 95128", "Nome impianto": "IP DI CRISTALDI ", "Comune": "CATANIA", "idImpianto": 46881, "points": [{"type": "Feature", "properties": {}, "geometry": {"type": "Point", "coordinates": [15.091259030855554, 37.522634801715206]}}], "price": 2.168, "ultima_rilevazione": "24/06/2022 12:09:52"}, {"Gestore": "EGI-2GO S.R.L.", "Bandiera": "Esso", "Tipo impianto": "Altro", "Indirizzo": "VIALE ODORICO DA PORDENONE 42 95126", "Nome impianto": "odorico", "Comune": "CATANIA", "idImpianto": 50317, "points": [{"type": "Feature", "properties": {}, "geometry": {"type": "Point", "coordinates": [15.08649486737183, 37.52816015700585]}}], "price": 2.049, "ultima_rilevazione": "24/06/2022 14:10:48"}, {"Gestore": "CASTRO DANIELE", "Bandiera": "Esso", "Tipo impianto": "Altro", "Indirizzo": "Viale della Regione 134/136 95027", "Nome impianto": "Distributore Carburanti di Castro Daniele", "Comune": "SAN GIOVANNI LA PUNTA", "idImpianto": 29403, "points": [{"type": "Feature", "properties": {}, "geometry": {"type": "Point", "coordinates": [15.088679132185348, 37.576084544783306]}}], "price": 2.029, "ultima_rilevazione": "24/06/2022 20:53:30"}, {"Gestore": "MIRICI CAPPA GIUSY", "Bandiera": "Pompe Bianche", "Tipo impianto": "Altro", "Indirizzo": "VIA PIETRO DELL'OVA 190A 95125", "Nome impianto": "MIRICI CAPPA GIUSY", "Comune": "CATANIA", "idImpianto": 37075, "points": [{"type": "Feature", "properties": {}, "geometry": {"type": "Point", "coordinates": [15.087318420410156, 37.53437159110208]}}], "price": 2.039, "ultima_rilevazione": "25/06/2022 08:06:49"}, {"Gestore": "SERVIZI & GESTIONI ITALIA S.R.L.", "Bandiera": "Q8", "Tipo impianto": "Altro", "Indirizzo": "VIALE LAINO'  95126", "Nome impianto": "CATANIA VIALE LAINO'", "Comune": "CATANIA", "idImpianto": 6930, "points": [{"type": "Feature", "properties": {}, "geometry": {"type": "Point", "coordinates": [15.11833682656288, 37.538806169933615]}}], "price": 1.999, "ultima_rilevazione": "27/06/2022 00:37:10"}, {"Gestore": "SERVIZI & GESTIONI ITALIA S.R.L.", "Bandiera": "Q8", "Tipo impianto": "Altro", "Indirizzo": "VIA RE MARTINO ANG. GALATIOTO  95126", "Nome impianto": "CATANIA VIA RE MARTINO ANG. GALATIOTO", "Comune": "CATANIA", "idImpianto": 24619, "points": [{"type": "Feature", "properties": {}, "geometry": {"type": "Point", "coordinates": [15.107870244844094, 37.52564916030932]}}], "price": 1.999, "ultima_rilevazione": "27/06/2022 00:37:10"}, {"Gestore": "SERVIZI & GESTIONI ITALIA srl", "Bandiera": "Q8", "Tipo impianto": "Altro", "Indirizzo": "DUCA DEGLI ABRUZZI 203 95037", "Nome impianto": "SAN GIOVANNI LA PUNTA DUCA DEGLI ABRUZZI 203", "Comune": "SAN GIOVANNI LA PUNTA", "idImpianto": 6773, "points": [{"type": "Feature", "properties": {}, "geometry": {"type": "Point", "coordinates": [15.087661032540836, 37.55042545526232]}}], "price": 1.999, "ultima_rilevazione": "27/06/2022 00:37:11"}, {"Gestore": "ZAPPALA' SALVATORE E C. S.N.C.", "Bandiera": "Agip Eni", "Tipo impianto": "Altro", "Indirizzo": "VIA PIETRO DELL'OVA  95030", "Nome impianto": "ENI tremestieri", "Comune": "TREMESTIERI ETNEO", "idImpianto": 27313, "points": [{"type": "Feature", "properties": {}, "geometry": {"type": "Point", "coordinates": [15.090911935912343, 37.53988182865211]}}], "price": 2.089, "ultima_rilevazione": "27/06/2022 13:57:23"}, {"Gestore": "ZAPPALA' SALVATORE E C. S.N.C.", "Bandiera": "Agip Eni", "Tipo impianto": "Altro", "Indirizzo": "VIA BARRIERA DEL BOSCO 5 95030", "Nome impianto": "ENI battiati", "Comune": "SANT'AGATA LI BATTIATI", "idImpianto": 27314, "points": [{"type": "Feature", "properties": {}, "geometry": {"type": "Point", "coordinates": [15.08294641971588, 37.54728154343967]}}], "price": 2.089, "ultima_rilevazione": "27/06/2022 13:57:30"}, {"Gestore": "GFR GROUP DI CASTORINA ALESSANDRO", "Bandiera": "Esso", "Tipo impianto": "Altro", "Indirizzo": "Via Vincenzo Giuffrida 204-206 95128", "Nome impianto": "Stazione di Servizio ESSO", "Comune": "CATANIA", "idImpianto": 41944, "points": [{"type": "Feature", "properties": {}, "geometry": {"type": "Point", "coordinates": [15.091084612268446, 37.52523744527056]}}], "price": 2.049, "ultima_rilevazione": "27/06/2022 15:15:52"}, {"Gestore": "EOS SERVICES S.R.L. A SOCIO UNICO", "Bandiera": "Q8", "Tipo impianto": "Altro", "Indirizzo": "VIA NIZZETI FRAZ. ACI S. FILIPPO SNC 95022", "Nome impianto": "CT028", "Comune": "ACI CATENA", "idImpianto": 42555, "points": [{"type": "Feature", "properties": {}, "geometry": {"type": "Point", "coordinates": [15.141737491293156, 37.58534978406732]}}], "price": 2.059, "ultima_rilevazione": "27/06/2022 15:41:48"}, {"Gestore": "ZAFARANA ADRIANO", "Bandiera": "Api-Ip", "Tipo impianto": "Altro", "Indirizzo": "Via F. Lo Jacono 77 95030", "Nome impianto": "Stazione di servizio IP di Zafarana Adriano", "Comune": "SANT'AGATA LI BATTIATI", "idImpianto": 12149, "points": [{"type": "Feature", "properties": {}, "geometry": {"type": "Point", "coordinates": [15.0813048499665, 37.54070075287584]}}], "price": 2.019, "ultima_rilevazione": "27/06/2022 20:32:40"}, {"Gestore": "SERVIZI & GESTIONI ITALIA srl", "Bandiera": "Q8", "Tipo impianto": "Altro", "Indirizzo": "PIAZZA A. LINCON 10 95128", "Nome impianto": "CATANIA PIAZZA A. LINCON 10", "Comune": "CATANIA", "idImpianto": 6840, "points": [{"type": "Feature", "properties": {}, "geometry": {"type": "Point", "coordinates": [15.089203342795372, 37.5212056129115]}}], "price": 2.047, "ultima_rilevazione": "28/06/2022 01:38:22"}, {"Gestore": "MSA SERVICE S.R.L.", "Bandiera": "Nobile Oil", "Tipo impianto": "Altro", "Indirizzo": "VIA NIZZETI 134 95022", "Nome impianto": "NOBILE ", "Comune": "ACI CATENA", "idImpianto": 45096, "points": [{"type": "Feature", "properties": {}, "geometry": {"type": "Point", "coordinates": [15.140622000123, 37.579951000123]}}], "price": 2.069, "ultima_rilevazione": "28/06/2022 08:36:04"}, {"Gestore": "IP SERVICES S.R.L.", "Bandiera": "Api-Ip", "Tipo impianto": "Altro", "Indirizzo": "VIA M. CASALOTTO 32/I 95025", "Nome impianto": "ACI SANT'ANTONIO", "Comune": "ACI SANT'ANTONIO", "idImpianto": 35188, "points": [{"type": "Feature", "properties": {}, "geometry": {"type": "Point", "coordinates": [15.125057771801949, 37.59827208269665]}}], "price": 1.569, "ultima_rilevazione": "28/06/2022 09:03:48"}, {"Gestore": "G. & G. PETROLI S.R.L.", "Bandiera": "Lukoil", "Tipo impianto": "Altro", "Indirizzo": "VIA CAVOUR ANG. VIA C. SALANITRO  SN 95030", "Nome impianto": "G&G PETROLI SRL TREMESTIERI", "Comune": "TREMESTIERI ETNEO", "idImpianto": 49179, "points": [{"type": "Feature", "properties": {}, "geometry": {"type": "Point", "coordinates": [15.072303414344788, 37.56728667987174]}}], "price": 1.988, "ultima_rilevazione": "28/06/2022 09:13:36"}, {"Gestore": "NICOLOSI ANTONINO", "Bandiera": "Agip Eni", "Tipo impianto": "Altro", "Indirizzo": "via della regione n.151, 95037", "Nome impianto": "eni", "Comune": "SAN GIOVANNI LA PUNTA", "idImpianto": 19845, "points": [{"type": "Feature", "properties": {}, "geometry": {"type": "Point", "coordinates": [15.089331325131296, 37.578194666033376]}}], "price": 2.019, "ultima_rilevazione": "28/06/2022 12:20:14"}, {"Gestore": "SICILPETROLI S.R.L.", "Bandiera": "Sicilpetroli", "Tipo impianto": "Altro", "Indirizzo": "C.SO UMBERTO 12 95030", "Nome impianto": "SICILPETROLI SRL SALB", "Comune": "SANT'AGATA LI BATTIATI", "idImpianto": 41480, "points": [{"type": "Feature", "properties": {}, "geometry": {"type": "Point", "coordinates": [15.080917328596115, 37.55688631225984]}}], "price": 1.969, "ultima_rilevazione": "28/06/2022 17:31:02"}, {"Gestore": "SERVIZI E GESTIONI ZENIT S.R.L. IN SIGLA - ZENIT S.R.L.", "Bandiera": "Agip Eni", "Tipo impianto": "Altro", "Indirizzo": "VIA RAVANUSA 20 95037", "Nome impianto": "VIA RAVANUSA SGP", "Comune": "SAN GIOVANNI LA PUNTA", "idImpianto": 12035, "points": [{"type": "Feature", "properties": {}, "geometry": {"type": "Point", "coordinates": [15.087617580356664, 37.57209173411017]}}], "price": 2.028, "ultima_rilevazione": "28/06/2022 17:50:55"}, {"Gestore": "SERVIZI E GESTIONI ZENIT S.R.L. IN SIGLA - ZENIT S.R.L.", "Bandiera": "Giap", "Tipo impianto": "Altro", "Indirizzo": "VIA ODORICO DE PORDENONE  95126", "Nome impianto": "VIA ODORICO DE PORDENONE CT", "Comune": "CATANIA", "idImpianto": 19237, "points": [{"type": "Feature", "properties": {}, "geometry": {"type": "Point", "coordinates": [15.088770757517636, 37.52819427774569]}}], "price": 2.039, "ultima_rilevazione": "28/06/2022 17:50:57"}, {"Gestore": "SERVIZI E GESTIONI ZENIT S.R.L. IN SIGLA - ZENIT S.R.L.", "Bandiera": "Giap", "Tipo impianto": "Altro", "Indirizzo": "PIAZZA LUDOVICO ARIOSTO  95100", "Nome impianto": "P.ZZA LUDOVICO ARIOSTO CT", "Comune": "CATANIA", "idImpianto": 26174, "points": [{"type": "Feature", "properties": {}, "geometry": {"type": "Point", "coordinates": [15.10124863738224, 37.518646034523314]}}], "price": 2.109, "ultima_rilevazione": "28/06/2022 17:50:58"}, {"Gestore": "SERVIZI E GESTIONI ZENIT S.R.L. IN SIGLA - ZENIT S.R.L.", "Bandiera": "Giap", "Tipo impianto": "Altro", "Indirizzo": "VIA DELLA REGIONE 346 95037", "Nome impianto": "VIA DELLA REGIONE S. G. LA PUNTA", "Comune": "SAN GIOVANNI LA PUNTA", "idImpianto": 29575, "points": [{"type": "Feature", "properties": {}, "geometry": {"type": "Point", "coordinates": [15.09387508034706, 37.583276676503296]}}], "price": 2.028, "ultima_rilevazione": "28/06/2022 17:50:59"}, {"Gestore": "SERVIZI E GESTIONI ZENIT S.R.L. IN SIGLA - ZENIT S.R.L.", "Bandiera": "Giap", "Tipo impianto": "Strada Statale", "Indirizzo": "Statale 114 Orientale Sicula, Km. 87+758,50, dir. ACICASTELLO 95021", "Nome impianto": "SS 114 ACITREZZA", "Comune": "ACI CASTELLO", "idImpianto": 30498, "points": [{"type": "Feature", "properties": {}, "geometry": {"type": "Point", "coordinates": [15.153425484895706, 37.559577330760064]}}], "price": 2.059, "ultima_rilevazione": "28/06/2022 17:51:03"}, {"Gestore": "ENI FUEL S.P.A.", "Bandiera": "Agip Eni", "Tipo impianto": "Autostradale", "Indirizzo": "Autostrada A18 MESSINA-CATANIA, Km. 72, dir. Nord 95025", "Nome impianto": "ACI S.ANTONIO EST", "Comune": "ACI SANT'ANTONIO", "idImpianto": 3851, "points": [{"type": "Feature", "properties": {}, "geometry": {"type": "Point", "coordinates": [15.130577087402344, 37.59817985174349]}}], "price": 2.124, "ultima_rilevazione": "29/06/2022 00:00:02"}, {"Gestore": "ENI FUEL S.P.A.", "Bandiera": "Agip Eni", "Tipo impianto": "Autostradale", "Indirizzo": "Autostrada A18 MESSINA-CATANIA, Km. 72, dir. Sud 95025", "Nome impianto": "ACI S.ANTONIO OVEST", "Comune": "ACI SANT'ANTONIO", "idImpianto": 3852, "points": [{"type": "Feature", "properties": {}, "geometry": {"type": "Point", "coordinates": [15.129335224628448, 37.59797583817629]}}], "price": 2.124, "ultima_rilevazione": "29/06/2022 00:02:04"}, {"Gestore": "SOGECAR S.R.L.", "Bandiera": "Petrol Company", "Tipo impianto": "Altro", "Indirizzo": "VIA PASSO GRAVINA 170 95121", "Nome impianto": "PETROL COMPANY CATANIA PASSO GRAVINA", "Comune": "CATANIA", "idImpianto": 33267, "points": [{"type": "Feature", "properties": {}, "geometry": {"type": "Point", "coordinates": [15.074898451566696, 37.53532148519354]}}], "price": 1.999, "ultima_rilevazione": "29/06/2022 00:14:11"}, {"Gestore": "IBLEA PETROLI S.R.L.", "Bandiera": "Iblea Petroli", "Tipo impianto": "Altro", "Indirizzo": "VIA SAN GREGORIO 1/B 95030", "Nome impianto": "IBLEA PETROLI", "Comune": "SANT'AGATA LI BATTIATI", "idImpianto": 35774, "points": [{"type": "Feature", "properties": {}, "geometry": {"type": "Point", "coordinates": [15.090414360165596, 37.544031190395245]}}], "price": 2.029, "ultima_rilevazione": "29/06/2022 00:14:12"}], "5": [{"Gestore": "CALANNA GIUSEPPE", "Bandiera": "Agip Eni", "Tipo impianto": "Altro", "Indirizzo": "VIA NAZIONALE 102 95024", "Nome impianto": "ENI", "Comune": "ACIREALE", "idImpianto": 43292, "points": [{"type": "Feature", "properties": {}, "geometry": {"type": "Point", "coordinates": [15.16636848449707, 37.5883908203809]}}], "price": 1.749, "ultima_rilevazione": "07/06/2022 13:15:28"}, {"Gestore": "URZI' GIOVANNI", "Bandiera": "Sicilpetroli", "Tipo impianto": "Altro", "Indirizzo": "STRADA PROVINCIALE 8/III CONTRADA GROTTA BALLA SN 95039", "Nome impianto": "Rifornimento Sicilpetroli", "Comune": "TRECASTAGNI", "idImpianto": 19103, "points": [{"type": "Feature", "properties": {}, "geometry": {"type": "Point", "coordinates": [15.078606605529783, 37.60368163166154]}}], "price": 1.869, "ultima_rilevazione": "25/02/2022 18:17:04"}, {"Gestore": "FISICHELLA ANGELO", "Bandiera": "Q8", "Tipo impianto": "Altro", "Indirizzo": "via Plebiscito 883 95124", "Nome impianto": "q8 VIA PLEBISCITO 883", "Comune": "CATANIA", "idImpianto": 49586, "points": [{"type": "Feature", "properties": {}, "geometry": {"type": "Point", "coordinates": [15.08122336794406, 37.50709812349649]}}], "price": 2.099, "ultima_rilevazione": "27/06/2022 10:42:15"}, {"Gestore": "GUAGLIARDO GIANMARCO", "Bandiera": "Api-Ip", "Tipo impianto": "Altro", "Indirizzo": "VIA GALERMO ANG. VIA DEI GIACINTI SN 95123", "Nome impianto": "IP", "Comune": "CATANIA", "idImpianto": 42516, "points": [{"type": "Feature", "properties": {}, "geometry": {"type": "Point", "coordinates": [15.055889636278152, 37.53964286139565]}}], "price": 1.879, "ultima_rilevazione": "26/05/2022 19:40:02"}, {"Gestore": "S.M.T. DI FILIPPO TENERELLO & C. S.A.S.", "Bandiera": "Q8", "Tipo impianto": "Altro", "Indirizzo": "VIA LORENZO BOLANO 42 95123", "Nome impianto": "smt di Filippo Tenerello", "Comune": "CATANIA", "idImpianto": 42218, "points": [{"type": "Feature", "properties": {}, "geometry": {"type": "Point", "coordinates": [15.056099431946564, 37.517802231926446]}}], "price": 2.099, "ultima_rilevazione": "17/06/2022 17:45:09"}, {"Gestore": "PUSILLICO CARMELO", "Bandiera": "Agip Eni", "Tipo impianto": "Altro", "Indirizzo": "via della misericordia snc 95123", "Nome impianto": "eni39227", "Comune": "CATANIA", "idImpianto": 49415, "points": [{"type": "Feature", "properties": {}, "geometry": {"type": "Point", "coordinates": [15.04657818067865, 37.54374333421922]}}], "price": 2.069, "ultima_rilevazione": "21/06/2022 07:54:13"}, {"Gestore": "LIMONELLI VITO", "Bandiera": "Pompe Bianche", "Tipo impianto": "Altro", "Indirizzo": "VIA DOTTOR CONSOLI S.N. 95124", "Nome impianto": "Italpetroli srl", "Comune": "CATANIA", "idImpianto": 44664, "points": [{"type": "Feature", "properties": {}, "geometry": {"type": "Point", "coordinates": [15.081370826448165, 37.51000312816512]}}], "price": 2.129, "ultima_rilevazione": "21/06/2022 21:16:58"}, {"Gestore": "CALABRESE IVAN", "Bandiera": "Agip Eni", "Tipo impianto": "Altro", "Indirizzo": "VIA A. GRAMSCI 16 95030", "Nome impianto": "Distributore Eni di Ivan Calabrese", "Comune": "GRAVINA DI CATANIA", "idImpianto": 38013, "points": [{"type": "Feature", "properties": {}, "geometry": {"type": "Point", "coordinates": [15.065124168986586, 37.55249895261787]}}], "price": 2.089, "ultima_rilevazione": "22/06/2022 06:58:00"}, {"Gestore": "FKM OIL S.R.L.", "Bandiera": "Agip Eni", "Tipo impianto": "Altro", "Indirizzo": "VIA ALCIDE DE GASPERI SN 95030", "Nome impianto": "FKM OIL SRL", "Comune": "MASCALUCIA", "idImpianto": 44028, "points": [{"type": "Feature", "properties": {}, "geometry": {"type": "Point", "coordinates": [15.058175000123, 37.573192000123]}}], "price": 2.089, "ultima_rilevazione": "22/06/2022 09:28:50"}, {"Gestore": "FKM OIL S.R.L.", "Bandiera": "Agip Eni", "Tipo impianto": "Altro", "Indirizzo": "VIA ALCIDE DE GASPERI SN 95030", "Nome impianto": "FKM OIL SRL", "Comune": "MASCALUCIA", "idImpianto": 47065, "points": [{"type": "Feature", "properties": {}, "geometry": {"type": "Point", "coordinates": [15.058175000123, 37.573192000123]}}], "price": 2.089, "ultima_rilevazione": "22/06/2022 09:33:07"}, {"Gestore": "CASTORINA SANTO E TOMARCHIO GIOVANNI S.N.C.", "Bandiera": "Q8", "Tipo impianto": "Strada Statale", "Indirizzo": "Statale 114 Orientale Sicula, Km. 85,426, dir. Catania 95021", "Nome impianto": "Stazione di servizio Q8", "Comune": "ACI CASTELLO", "idImpianto": 27147, "points": [{"type": "Feature", "properties": {}, "geometry": {"type": "Point", "coordinates": [15.167317986488342, 37.57546290579067]}}], "price": 2.059, "ultima_rilevazione": "23/06/2022 07:03:06"}, {"Gestore": "CAVALLARO LORENZO", "Bandiera": "Q8", "Tipo impianto": "Altro", "Indirizzo": "VIA VINCENZO CASAGRANDI S.N. 95123", "Nome impianto": "Area di Servizio Q8 di Cavallaro Lorenzo", "Comune": "CATANIA", "idImpianto": 28557, "points": [{"type": "Feature", "properties": {}, "geometry": {"type": "Point", "coordinates": [15.065513853717448, 37.51669921524486]}}], "price": 2.129, "ultima_rilevazione": "23/06/2022 07:43:43"}, {"Gestore": "IOZZIA OMAR PIETRO", "Bandiera": "Agip Eni", "Tipo impianto": "Altro", "Indirizzo": "VIALE LORENZO BOLANO 50 95125", "Nome impianto": "Eni Bolano", "Comune": "CATANIA", "idImpianto": 38832, "points": [{"type": "Feature", "properties": {}, "geometry": {"type": "Point", "coordinates": [15.05875088274479, 37.51864425759192]}}], "price": 2.089, "ultima_rilevazione": "23/06/2022 09:00:04"}, {"Gestore": "SERVIZI & GESTIONI ITALIA S.R.L.", "Bandiera": "Q8", "Tipo impianto": "Altro", "Indirizzo": "STRADA PROVINCIALE 42  95030", "Nome impianto": "PEDARA STRADA PROVINCIALE 42", "Comune": "PEDARA", "idImpianto": 32493, "points": [{"type": "Feature", "properties": {}, "geometry": {"type": "Point", "coordinates": [15.065449561376909, 37.60186980344919]}}], "price": 2.079, "ultima_rilevazione": "24/06/2022 11:07:32"}, {"Gestore": "CUSIMANO SALVATORE", "Bandiera": "Pompe Bianche", "Tipo impianto": "Altro", "Indirizzo": "VIA CESARE BECCARIA  95100", "Nome impianto": " CUSIMANO SALVATORE - VIA  C. BECCARIA", "Comune": "CATANIA", "idImpianto": 50734, "points": [{"type": "Feature", "properties": {}, "geometry": {"type": "Point", "coordinates": [15.075100816701903, 37.514777347650345]}}], "price": 2.047, "ultima_rilevazione": "24/06/2022 11:38:34"}, {"Gestore": "CASTRO FRANCESCO", "Bandiera": "Esso", "Tipo impianto": "Altro", "Indirizzo": "VIALE FRATELLI VIVALDI SN 95123", "Nome impianto": "ESSO", "Comune": "CATANIA", "idImpianto": 47055, "points": [{"type": "Feature", "properties": {}, "geometry": {"type": "Point", "coordinates": [15.06784280625757, 37.5225585354149]}}], "price": 2.056, "ultima_rilevazione": "24/06/2022 19:13:06"}, {"Gestore": "EGI-2GO S.R.L.", "Bandiera": "Esso", "Tipo impianto": "Altro", "Indirizzo": "VIA CESARE BECCARIA 35 95123", "Nome impianto": "beccaria", "Comune": "CATANIA", "idImpianto": 48965, "points": [{"type": "Feature", "properties": {}, "geometry": {"type": "Point", "coordinates": [15.0765913348348, 37.51569815859536]}}], "price": 2.039, "ultima_rilevazione": "25/06/2022 07:01:47"}, {"Gestore": "G.M. PETROLI S.R.L.", "Bandiera": "Pompe Bianche", "Tipo impianto": "Altro", "Indirizzo": "VIA ALCIDE DE GASPERI S.N. 95030", "Nome impianto": "MASCALUCIA", "Comune": "MASCALUCIA", "idImpianto": 41744, "points": [{"type": "Feature", "properties": {}, "geometry": {"type": "Point", "coordinates": [15.058395637048308, 37.56848470004883]}}], "price": 1.999, "ultima_rilevazione": "25/06/2022 16:50:18"}, {"Gestore": "G.M. PETROLI S.R.L.", "Bandiera": "Pompe Bianche", "Tipo impianto": "Altro", "Indirizzo": "VIA NAZIONALE S.N. 95024", "Nome impianto": "ACIREALE", "Comune": "ACIREALE", "idImpianto": 41745, "points": [{"type": "Feature", "properties": {}, "geometry": {"type": "Point", "coordinates": [15.169026622823369, 37.5828805572494]}}], "price": 2.019, "ultima_rilevazione": "25/06/2022 18:43:09"}, {"Gestore": "SERVIZI & GESTIONI ITALIA S.R.L.", "Bandiera": "Q8", "Tipo impianto": "Altro", "Indirizzo": "VIA  CASAGRANDI  95123", "Nome impianto": "CATANIA CASAGRANDI", "Comune": "CATANIA", "idImpianto": 25589, "points": [{"type": "Feature", "properties": {}, "geometry": {"type": "Point", "coordinates": [15.065841546627098, 37.51657538270625]}}], "price": 2.039, "ultima_rilevazione": "27/06/2022 00:37:10"}, {"Gestore": "SERVIZI & GESTIONI ITALIA S.R.L.", "Bandiera": "Q8", "Tipo impianto": "Altro", "Indirizzo": "VIA A. DE GASPERI SNC 95028", "Nome impianto": "MASCALUCIA VIA A. DE GASPERI SNC", "Comune": "MASCALUCIA", "idImpianto": 41103, "points": [{"type": "Feature", "properties": {}, "geometry": {"type": "Point", "coordinates": [15.053292311674111, 37.58178450244323]}}], "price": 1.999, "ultima_rilevazione": "27/06/2022 00:37:14"}, {"Gestore": "GE.I.CA. DI INGAGLIO ANGELO E C.  S.N.C.", "Bandiera": "Q8", "Tipo impianto": "Altro", "Indirizzo": "VIA ETNEA  92 95030", "Nome impianto": "Q8", "Comune": "GRAVINA DI CATANIA", "idImpianto": 41283, "points": [{"type": "Feature", "properties": {}, "geometry": {"type": "Point", "coordinates": [15.06601832807064, 37.54889390753284]}}], "price": 2.039, "ultima_rilevazione": "27/06/2022 12:19:07"}, {"Gestore": "DISTRIBUTORE CARBURANTI SANT'ANTONIO DI D'AGATA ROSARIA & C. S.A. S.", "Bandiera": "Agip Eni", "Tipo impianto": "Altro", "Indirizzo": "VIA LAVINA 129/C 95025", "Nome impianto": "Distributore Carburanti Sant'Antonio", "Comune": "ACI SANT'ANTONIO", "idImpianto": 15182, "points": [{"type": "Feature", "properties": {}, "geometry": {"type": "Point", "coordinates": [15.116543769836426, 37.606871160154334]}}], "price": 2.099, "ultima_rilevazione": "27/06/2022 20:11:55"}, {"Gestore": "MAUGERI VINCENZO CARMELO", "Bandiera": "Esso", "Tipo impianto": "Altro", "Indirizzo": "VIA MATTEOTTI 105 95025", "Nome impianto": "area di servizio ESSO di Gestione Maugeri Vincenzo", "Comune": "ACI SANT'ANTONIO", "idImpianto": 47324, "points": [{"type": "Feature", "properties": {}, "geometry": {"type": "Point", "coordinates": [15.124733224511148, 37.61213092722968]}}], "price": 2.029, "ultima_rilevazione": "28/06/2022 09:03:49"}, {"Gestore": "ETNA CARBURANTI S.R.L.", "Bandiera": "Pompe Bianche", "Tipo impianto": "Altro", "Indirizzo": "Via Polveriera 52 95030", "Nome impianto": "Etna Carburanti", "Comune": "MASCALUCIA", "idImpianto": 22602, "points": [{"type": "Feature", "properties": {}, "geometry": {"type": "Point", "coordinates": [15.046859309077265, 37.56428850548005]}}], "price": 1.999, "ultima_rilevazione": "28/06/2022 11:26:37"}, {"Gestore": "T.D.M. S.R.L.", "Bandiera": "Tamoil", "Tipo impianto": "Altro", "Indirizzo": "VIA ETNEA 498 95030", "Nome impianto": "8405", "Comune": "GRAVINA DI CATANIA", "idImpianto": 42411, "points": [{"type": "Feature", "properties": {}, "geometry": {"type": "Point", "coordinates": [15.059654787182808, 37.56473519901591]}}], "price": 1.999, "ultima_rilevazione": "29/06/2022 07:50:10"}, {"Gestore": "ENI FUEL S.P.A.", "Bandiera": "Agip Eni", "Tipo impianto": "Altro", "Indirizzo": "V.le Libert\u00e0 SNC 95131", "Nome impianto": "55082 CATANIA", "Comune": "CATANIA", "idImpianto": 5414, "points": [{"type": "Feature", "properties": {}, "geometry": {"type": "Point", "coordinates": [15.09819635581971, 37.511362412491096]}}], "price": 2.089, "ultima_rilevazione": "28/06/2022 12:58:05"}, {"Gestore": "SACCNE RETE SRL", "Bandiera": "Api-Ip", "Tipo impianto": "Altro", "Indirizzo": "VIA ALCIDE DE GASPERI  95030", "Nome impianto": "MASCALUCIA - SACCNE RETE Srl", "Comune": "MASCALUCIA", "idImpianto": 36064, "points": [{"type": "Feature", "properties": {}, "geometry": {"type": "Point", "coordinates": [15.05851149559021, 37.57002260534959]}}], "price": 1.999, "ultima_rilevazione": "28/06/2022 16:34:28"}, {"Gestore": "SERVIZI E GESTIONI ZENIT S.R.L. IN SIGLA - ZENIT S.R.L.", "Bandiera": "Agip Eni", "Tipo impianto": "Altro", "Indirizzo": "VIA MONTENERO SNC 95121", "Nome impianto": "VIA MONTENERO CT", "Comune": "CATANIA", "idImpianto": 12038, "points": [{"type": "Feature", "properties": {}, "geometry": {"type": "Point", "coordinates": [15.0676469153442, 37.50644384576861]}}], "price": 2.009, "ultima_rilevazione": "28/06/2022 17:50:56"}, {"Gestore": "SERVIZI E GESTIONI ZENIT S.R.L. IN SIGLA - ZENIT S.R.L.", "Bandiera": "Giap", "Tipo impianto": "Altro", "Indirizzo": "VIA GARIBALDI  95029", "Nome impianto": "VIA GARIBALDI VIAGRANDE", "Comune": "VIAGRANDE", "idImpianto": 21852, "points": [{"type": "Feature", "properties": {}, "geometry": {"type": "Point", "coordinates": [15.099132846508382, 37.61121244319845]}}], "price": 2.009, "ultima_rilevazione": "28/06/2022 17:50:57"}, {"Gestore": "SERVIZI E GESTIONI ZENIT S.R.L. IN SIGLA - ZENIT S.R.L.", "Bandiera": "Giap", "Tipo impianto": "Altro", "Indirizzo": "PIAZZA BOVIO   95100", "Nome impianto": "PIAZZA BOVIO - CATANIA", "Comune": "CATANIA", "idImpianto": 44621, "points": [{"type": "Feature", "properties": {}, "geometry": {"type": "Point", "coordinates": [15.094050000123, 37.510678000123]}}], "price": 2.119, "ultima_rilevazione": "28/06/2022 17:51:01"}, {"Gestore": "SERVIZI E GESTIONI ZENIT S.R.L. IN SIGLA - ZENIT S.R.L.", "Bandiera": "Esso", "Tipo impianto": "Altro", "Indirizzo": "VIA MICHELE CANTONE 36 95100", "Nome impianto": "VIA MICHELE CANTONE, 36 - CATANIA", "Comune": "CATANIA", "idImpianto": 40705, "points": [{"type": "Feature", "properties": {}, "geometry": {"type": "Point", "coordinates": [15.069434624165297, 37.516908166057895]}}], "price": 2.037, "ultima_rilevazione": "28/06/2022 17:51:01"}, {"Gestore": "SERVIZI E GESTIONI ZENIT S.R.L. IN SIGLA - ZENIT S.R.L.", "Bandiera": "Giap", "Tipo impianto": "Altro", "Indirizzo": "VIA SCIARELLE 22/A 95024", "Nome impianto": "VIA SCIARELLE - ACIREALE", "Comune": "ACIREALE", "idImpianto": 42179, "points": [{"type": "Feature", "properties": {}, "geometry": {"type": "Point", "coordinates": [15.152454525232317, 37.60805025235504]}}], "price": 2.089, "ultima_rilevazione": "28/06/2022 17:51:04"}, {"Gestore": "SERVIZI E GESTIONI ZENIT S.R.L. IN SIGLA - ZENIT S.R.L.", "Bandiera": "Esso", "Tipo impianto": "Altro", "Indirizzo": "VIA POZZO 22 95022", "Nome impianto": "VIA POZZO ACI CATENA", "Comune": "ACI CATENA", "idImpianto": 29188, "points": [{"type": "Feature", "properties": {}, "geometry": {"type": "Point", "coordinates": [15.136983057672069, 37.59731954300889]}}], "price": 2.059, "ultima_rilevazione": "28/06/2022 17:51:04"}, {"Gestore": "SALAMANCA MICHELE EMANUELE", "Bandiera": "Petrol Company", "Tipo impianto": "Altro", "Indirizzo": "VIA LAVINA 117 95020", "Nome impianto": "petrolcompany Aci bonaccorsi", "Comune": "ACI BONACCORSI", "idImpianto": 29093, "points": [{"type": "Feature", "properties": {}, "geometry": {"type": "Point", "coordinates": [15.107408165931702, 37.606080484314965]}}], "price": 2.019, "ultima_rilevazione": "29/06/2022 00:14:12"}, {"Gestore": "F.LLI LA PIANA S.N.C. DI LA PIANA TOMMASO E C.", "Bandiera": "Petrol Company", "Tipo impianto": "Altro", "Indirizzo": "Via Don Giovanni Minzoni snc 95123", "Nome impianto": "STAZIONE DI SERVIZIO PETROL COMPANY CT", "Comune": "CATANIA", "idImpianto": 42949, "points": [{"type": "Feature", "properties": {}, "geometry": {"type": "Point", "coordinates": [15.04600430613425, 37.547559189875166]}}], "price": 2.019, "ultima_rilevazione": "29/06/2022 00:14:14"}, {"Gestore": "CARBOMIX - S.R.L.", "Bandiera": "Petrol Company", "Tipo impianto": "Altro", "Indirizzo": "VIA RICCARDO WAGNER S.N.C. 95024", "Nome impianto": "PETROL COMPANY ACIREALE WAGNER", "Comune": "ACIREALE", "idImpianto": 33274, "points": [{"type": "Feature", "properties": {}, "geometry": {"type": "Point", "coordinates": [15.158136785030363, 37.6049268602583]}}], "price": 2.039, "ultima_rilevazione": "29/06/2022 00:14:16"}, {"Gestore": "PETROL COMPANY  S.R.L.", "Bandiera": "Petrol Company", "Tipo impianto": "Altro", "Indirizzo": "VIA ETNEA  SNC 95030", "Nome impianto": "PETROL COMPANY GRAVINA DI CATANIA - 74778", "Comune": "GRAVINA DI CATANIA", "idImpianto": 33483, "points": [{"type": "Feature", "properties": {}, "geometry": {"type": "Point", "coordinates": [15.06608735101588, 37.54751941297728]}}], "price": 1.999, "ultima_rilevazione": "29/06/2022 00:14:17"}]}, "null": {}, "GPL": {"1": [{"Gestore": "GREEN ARC S.R.L.", "Bandiera": "Pompe Bianche", "Tipo impianto": "Altro", "Indirizzo": "VIALE EUROPA 63/65 95027", "Nome impianto": "Viale Europa 63/65", "Comune": "SAN GREGORIO DI CATANIA", "idImpianto": 44242, "points": [{"type": "Feature", "properties": {}, "geometry": {"type": "Point", "coordinates": [15.111220000123, 37.572477000123]}}], "price": 0.789, "ultima_rilevazione": "27/06/2022 09:22:36"}, {"Gestore": "PETROL SERVICE S.R.L.", "Bandiera": "Api-Ip", "Tipo impianto": "Altro", "Indirizzo": "VIA NUOVALUCELLO 172 95126", "Nome impianto": "PETROLSERVICE SRL", "Comune": "CATANIA", "idImpianto": 50668, "points": [{"type": "Feature", "properties": {}, "geometry": {"type": "Point", "coordinates": [15.108021721243858, 37.54151570605608]}}], "price": 0.799, "ultima_rilevazione": "28/06/2022 17:20:06"}], "3": [{"Gestore": "MOBILITY POINT S.R.L.", "Bandiera": "Api-Ip", "Tipo impianto": "Altro", "Indirizzo": "VIA CARUSO S.N. 95037", "Nome impianto": "mobility point srl", "Comune": "SAN GIOVANNI LA PUNTA", "idImpianto": 13782, "points": [{"type": "Feature", "properties": {}, "geometry": {"type": "Point", "coordinates": [15.092028379440308, 37.58899018580353]}}], "price": 0.799, "ultima_rilevazione": "21/06/2022 09:40:57"}, {"Gestore": "ZAFARANA ADRIANO", "Bandiera": "Api-Ip", "Tipo impianto": "Altro", "Indirizzo": "Via F. Lo Jacono 77 95030", "Nome impianto": "Stazione di servizio IP di Zafarana Adriano", "Comune": "SANT'AGATA LI BATTIATI", "idImpianto": 12149, "points": [{"type": "Feature", "properties": {}, "geometry": {"type": "Point", "coordinates": [15.0813048499665, 37.54070075287584]}}], "price": 0.787, "ultima_rilevazione": "27/06/2022 20:32:40"}, {"Gestore": "G. & G. PETROLI S.R.L.", "Bandiera": "Lukoil", "Tipo impianto": "Altro", "Indirizzo": "VIA CAVOUR ANG. VIA C. SALANITRO  SN 95030", "Nome impianto": "G&G PETROLI SRL TREMESTIERI", "Comune": "TREMESTIERI ETNEO", "idImpianto": 49179, "points": [{"type": "Feature", "properties": {}, "geometry": {"type": "Point", "coordinates": [15.072303414344788, 37.56728667987174]}}], "price": 0.785, "ultima_rilevazione": "28/06/2022 09:13:36"}], "5": [{"Gestore": "GUAGLIARDO GIANMARCO", "Bandiera": "Api-Ip", "Tipo impianto": "Altro", "Indirizzo": "VIA GALERMO ANG. VIA DEI GIACINTI SN 95123", "Nome impianto": "IP", "Comune": "CATANIA", "idImpianto": 42516, "points": [{"type": "Feature", "properties": {}, "geometry": {"type": "Point", "coordinates": [15.055889636278152, 37.53964286139565]}}], "price": 0.799, "ultima_rilevazione": "26/05/2022 19:40:02"}, {"Gestore": "G.M. PETROLI S.R.L.", "Bandiera": "Pompe Bianche", "Tipo impianto": "Altro", "Indirizzo": "VIA ALCIDE DE GASPERI S.N. 95030", "Nome impianto": "MASCALUCIA", "Comune": "MASCALUCIA", "idImpianto": 41744, "points": [{"type": "Feature", "properties": {}, "geometry": {"type": "Point", "coordinates": [15.058395637048308, 37.56848470004883]}}], "price": 0.785, "ultima_rilevazione": "25/06/2022 16:50:18"}, {"Gestore": "G.M. PETROLI S.R.L.", "Bandiera": "Pompe Bianche", "Tipo impianto": "Altro", "Indirizzo": "VIA NAZIONALE S.N. 95024", "Nome impianto": "ACIREALE", "Comune": "ACIREALE", "idImpianto": 41745, "points": [{"type": "Feature", "properties": {}, "geometry": {"type": "Point", "coordinates": [15.169026622823369, 37.5828805572494]}}], "price": 0.785, "ultima_rilevazione": "25/06/2022 18:43:09"}, {"Gestore": "MAUGERI VINCENZO CARMELO", "Bandiera": "Esso", "Tipo impianto": "Altro", "Indirizzo": "VIA MATTEOTTI 105 95025", "Nome impianto": "area di servizio ESSO di Gestione Maugeri Vincenzo", "Comune": "ACI SANT'ANTONIO", "idImpianto": 47324, "points": [{"type": "Feature", "properties": {}, "geometry": {"type": "Point", "coordinates": [15.124733224511148, 37.61213092722968]}}], "price": 0.799, "ultima_rilevazione": "28/06/2022 09:03:49"}, {"Gestore": "ETNA CARBURANTI S.R.L.", "Bandiera": "Pompe Bianche", "Tipo impianto": "Altro", "Indirizzo": "Via Polveriera 52 95030", "Nome impianto": "Etna Carburanti", "Comune": "MASCALUCIA", "idImpianto": 22602, "points": [{"type": "Feature", "properties": {}, "geometry": {"type": "Point", "coordinates": [15.046859309077265, 37.56428850548005]}}], "price": 0.8, "ultima_rilevazione": "28/06/2022 11:26:37"}, {"Gestore": "CARBOMIX - S.R.L.", "Bandiera": "Petrol Company", "Tipo impianto": "Altro", "Indirizzo": "VIA RICCARDO WAGNER S.N.C. 95024", "Nome impianto": "PETROL COMPANY ACIREALE WAGNER", "Comune": "ACIREALE", "idImpianto": 33274, "points": [{"type": "Feature", "properties": {}, "geometry": {"type": "Point", "coordinates": [15.158136785030363, 37.6049268602583]}}], "price": 0.787, "ultima_rilevazione": "29/06/2022 00:14:16"}, {"Gestore": "PETROL COMPANY  S.R.L.", "Bandiera": "Petrol Company", "Tipo impianto": "Altro", "Indirizzo": "VIA ETNEA  SNC 95030", "Nome impianto": "PETROL COMPANY GRAVINA DI CATANIA - 74778", "Comune": "GRAVINA DI CATANIA", "idImpianto": 33483, "points": [{"type": "Feature", "properties": {}, "geometry": {"type": "Point", "coordinates": [15.06608735101588, 37.54751941297728]}}], "price": 0.787, "ultima_rilevazione": "29/06/2022 00:14:17"}]}, "Gasolio": {"1": [{"Gestore": "SERVIZI & GESTIONI ITALIA S.R.L.", "Bandiera": "Q8", "Tipo impianto": "Altro", "Indirizzo": "NUOVALUCE ANG.VIA NIZZETI  95030", "Nome impianto": "TREMESTIERI ETNEO NUOVALUCE ANG.VIA NIZZETI", "Comune": "TREMESTIERI ETNEO", "idImpianto": 33188, "points": [{"type": "Feature", "properties": {}, "geometry": {"type": "Point", "coordinates": [15.101969987154009, 37.53937722243106]}}], "price": 2.029, "ultima_rilevazione": "24/06/2022 11:07:32"}, {"Gestore": "SEBASTIANO ROMEO S.R.L.", "Bandiera": "SP Energia Siciliana", "Tipo impianto": "Altro", "Indirizzo": " IMMACOLATA SNC 95027", "Nome impianto": "SEBASTIANO ROMEO S.R.L  S.GREGORIO", "Comune": "SAN GREGORIO DI CATANIA", "idImpianto": 43296, "points": [{"type": "Feature", "properties": {}, "geometry": {"type": "Point", "coordinates": [15.114762011656694, 37.5708161610794]}}], "price": 1.997, "ultima_rilevazione": "24/06/2022 11:31:46"}, {"Gestore": "DBS SERVIZI PETROLIFERI S.R.L.", "Bandiera": "Sicilpetroli", "Tipo impianto": "Altro", "Indirizzo": "VIA BELLINI 22 95028", "Nome impianto": "DBS Serv. Petrol. srl impianto carb. Bellini", "Comune": "VALVERDE", "idImpianto": 23770, "points": [{"type": "Feature", "properties": {}, "geometry": {"type": "Point", "coordinates": [15.12380349933619, 37.58115864875118]}}], "price": 1.989, "ultima_rilevazione": "25/06/2022 10:24:40"}, {"Gestore": "SERVIZI & GESTIONI ITALIA srl", "Bandiera": "Q8", "Tipo impianto": "Altro", "Indirizzo": "VIA MARCO POLO SNC 95041", "Nome impianto": "SAN GIOVANNI LA PUNTA VIA MARCO POLO", "Comune": "SAN GIOVANNI LA PUNTA", "idImpianto": 6774, "points": [{"type": "Feature", "properties": {}, "geometry": {"type": "Point", "coordinates": [15.103755823348251, 37.5760649582489]}}], "price": 1.999, "ultima_rilevazione": "27/06/2022 00:37:11"}, {"Gestore": "GREEN ARC S.R.L.", "Bandiera": "Pompe Bianche", "Tipo impianto": "Altro", "Indirizzo": "VIALE EUROPA 63/65 95027", "Nome impianto": "Viale Europa 63/65", "Comune": "SAN GREGORIO DI CATANIA", "idImpianto": 44242, "points": [{"type": "Feature", "properties": {}, "geometry": {"type": "Point", "coordinates": [15.111220000123, 37.572477000123]}}], "price": 1.999, "ultima_rilevazione": "27/06/2022 09:22:36"}, {"Gestore": "PETROL SERVICE S.R.L.", "Bandiera": "Api-Ip", "Tipo impianto": "Altro", "Indirizzo": "VIA NUOVALUCELLO 172 95126", "Nome impianto": "PETROLSERVICE SRL", "Comune": "CATANIA", "idImpianto": 50668, "points": [{"type": "Feature", "properties": {}, "geometry": {"type": "Point", "coordinates": [15.108021721243858, 37.54151570605608]}}], "price": 2.019, "ultima_rilevazione": "28/06/2022 17:20:06"}, {"Gestore": "SICILPETROLI S.R.L.", "Bandiera": "Lukoil", "Tipo impianto": "Altro", "Indirizzo": "Via SS.Crocifisso snc 95037", "Nome impianto": "SICILPETROLI  FRAZ. TRAPPETO S.G. LA PUNTA", "Comune": "SAN GIOVANNI LA PUNTA", "idImpianto": 37727, "points": [{"type": "Feature", "properties": {}, "geometry": {"type": "Point", "coordinates": [15.090172290802002, 37.568324170633694]}}], "price": 1.999, "ultima_rilevazione": "28/06/2022 17:30:43"}, {"Gestore": "SERVIZI E GESTIONI ZENIT S.R.L. IN SIGLA - ZENIT S.R.L.", "Bandiera": "Agip Eni", "Tipo impianto": "Altro", "Indirizzo": "VIA MADONNA DELLE LACRIME 59 95037", "Nome impianto": "V.MAD.DELLE LACR", "Comune": "SAN GIOVANNI LA PUNTA", "idImpianto": 12040, "points": [{"type": "Feature", "properties": {}, "geometry": {"type": "Point", "coordinates": [15.09482690674588, 37.54728802487895]}}], "price": 1.999, "ultima_rilevazione": "28/06/2022 17:50:56"}, {"Gestore": "SERVIZI E GESTIONI ZENIT S.R.L. IN SIGLA - ZENIT S.R.L.", "Bandiera": "Esso", "Tipo impianto": "Altro", "Indirizzo": "VIA CERZA  95027", "Nome impianto": "VIA CERZA S.G.CT", "Comune": "SAN GREGORIO DI CATANIA", "idImpianto": 12053, "points": [{"type": "Feature", "properties": {}, "geometry": {"type": "Point", "coordinates": [15.10056241468044, 37.55013454230165]}}], "price": 1.999, "ultima_rilevazione": "28/06/2022 17:51:01"}, {"Gestore": "SERVIZI E GESTIONI ZENIT S.R.L. IN SIGLA - ZENIT S.R.L.", "Bandiera": "Esso", "Tipo impianto": "Altro", "Indirizzo": "Viale Ulisse  95100", "Nome impianto": "VIALE ULISSE - CATANIA", "Comune": "CATANIA", "idImpianto": 42015, "points": [{"type": "Feature", "properties": {}, "geometry": {"type": "Point", "coordinates": [15.103940069675446, 37.53178601419955]}}], "price": 1.999, "ultima_rilevazione": "28/06/2022 17:51:02"}, {"Gestore": "CARBOMIX - S.R.L.", "Bandiera": "Petrol Company", "Tipo impianto": "Altro", "Indirizzo": "VIA CATIRA S.N. 95027", "Nome impianto": "PETROL COMPANY SAN GREGORIO", "Comune": "SAN GREGORIO DI CATANIA", "idImpianto": 33273, "points": [{"type": "Feature", "properties": {}, "geometry": {"type": "Point", "coordinates": [15.101032555103302, 37.56641755762781]}}], "price": 1.999, "ultima_rilevazione": "29/06/2022 00:14:12"}, {"Gestore": "ENI FUEL S.P.A.", "Bandiera": "Agip Eni", "Tipo impianto": "Altro", "Indirizzo": "VIA CATIRA SNC 95037", "Nome impianto": "SAN GIOVANNI LA PUNTA", "Comune": "SAN GIOVANNI LA PUNTA", "idImpianto": 5449, "points": [{"type": "Feature", "properties": {}, "geometry": {"type": "Point", "coordinates": [15.103942711639434, 37.57997073015499]}}], "price": 2.029, "ultima_rilevazione": "29/06/2022 00:18:03"}], "3": [{"Gestore": "PREDA ALINA COSTINELA", "Bandiera": "Agip Eni", "Tipo impianto": "Altro", "Indirizzo": "VIA FRANCESCO LO JACONO 75 95030", "Nome impianto": "ENI STATION", "Comune": "SANT'AGATA LI BATTIATI", "idImpianto": 48664, "points": [{"type": "Feature", "properties": {}, "geometry": {"type": "Point", "coordinates": [15.08074415944222, 37.5408619009466]}}], "price": 1.569, "ultima_rilevazione": "11/10/2021 18:23:37"}, {"Gestore": "SICULA PETROLI S.R.L.", "Bandiera": "Esso", "Tipo impianto": "Altro", "Indirizzo": "VIALE O.DA PORDENONE 42 95126", "Nome impianto": "Sicula Petroli S.r.l. - Impianto Distrib. Carburante Esso Italiana Srl", "Comune": "CATANIA", "idImpianto": 28735, "points": [{"type": "Feature", "properties": {}, "geometry": {"type": "Point", "coordinates": [15.08646346628666, 37.5281306179167]}}], "price": 1.669, "ultima_rilevazione": "04/02/2022 09:57:56"}, {"Gestore": "ORONERO S.R.L.", "Bandiera": "Esso", "Tipo impianto": "Altro", "Indirizzo": "VIA MESSINA 684", "Nome impianto": "ESSO", "Comune": "CATANIA", "idImpianto": 21593, "points": [{"type": "Feature", "properties": {}, "geometry": {"type": "Point", "coordinates": [15.117010837614773, 37.53494485459378]}}], "price": 1.849, "ultima_rilevazione": "04/03/2022 07:52:39"}, {"Gestore": "SAPIENZA MARIA ELENA", "Bandiera": "Esso", "Tipo impianto": "Altro", "Indirizzo": "VIA ETNEA 20 95030", "Nome impianto": "RIFORNIMENTO ESSO DI SAPIENZA MARIA ELENA", "Comune": "GRAVINA DI CATANIA", "idImpianto": 26895, "points": [{"type": "Feature", "properties": {}, "geometry": {"type": "Point", "coordinates": [15.07476031780243, 37.54353779808862]}}], "price": 1.449, "ultima_rilevazione": "21/06/2022 13:32:25"}, {"Gestore": "PADDOCK MOTOSTORE DI MASSIMILIANO CALABRESE", "Bandiera": "Q8", "Tipo impianto": "Altro", "Indirizzo": "via Messina 656 95126", "Nome impianto": "Q8 di Calabrese Massimiliano", "Comune": "CATANIA", "idImpianto": 38325, "points": [{"type": "Feature", "properties": {}, "geometry": {"type": "Point", "coordinates": [15.115645265081753, 37.53396704535048]}}], "price": 1.799, "ultima_rilevazione": "22/04/2022 07:50:38"}, {"Gestore": "GIUFFRIDA CLAUDIO", "Bandiera": "Sicilpetroli", "Tipo impianto": "Altro", "Indirizzo": "VIA UMBERTO 31 95030", "Nome impianto": "GIUFFRIDA CLAUDIO", "Comune": "SANT'AGATA LI BATTIATI", "idImpianto": 32423, "points": [{"type": "Feature", "properties": {}, "geometry": {"type": "Point", "coordinates": [15.08115292883599, 37.55594657704682]}}], "price": 1.759, "ultima_rilevazione": "09/05/2022 18:52:59"}, {"Gestore": "PETER PAN DI MARINO TIZIANA", "Bandiera": "Agip Eni", "Tipo impianto": "Altro", "Indirizzo": "Viale Vittorio Veneto 188 95126", "Nome impianto": "29577", "Comune": "CATANIA", "idImpianto": 41508, "points": [{"type": "Feature", "properties": {}, "geometry": {"type": "Point", "coordinates": [15.095917582511902, 37.525756907350925]}}], "price": 2.004, "ultima_rilevazione": "16/06/2022 15:25:27"}, {"Gestore": "D'URSO SALVATORE", "Bandiera": "Agip Eni", "Tipo impianto": "Altro", "Indirizzo": "VIA ETNEA 400 95030", "Nome impianto": "eni station 58304 di d'urso salvatore", "Comune": "TREMESTIERI ETNEO", "idImpianto": 15650, "points": [{"type": "Feature", "properties": {}, "geometry": {"type": "Point", "coordinates": [15.070404649737611, 37.5810188349678]}}], "price": 2.004, "ultima_rilevazione": "17/06/2022 10:17:00"}, {"Gestore": "SICILCAR SICULA INDUSTRIALE LUBRIFICANTI CARBURANTI  S.R.L.", "Bandiera": "Esso", "Tipo impianto": "Altro", "Indirizzo": "VIA NIZZETI 183 A 95022", "Nome impianto": "SICILCAR", "Comune": "ACI CATENA", "idImpianto": 19476, "points": [{"type": "Feature", "properties": {}, "geometry": {"type": "Point", "coordinates": [15.138485867498048, 37.574493493520905]}}], "price": 2.019, "ultima_rilevazione": "17/06/2022 13:49:09"}, {"Gestore": "LEONARDI ANTONIO", "Bandiera": "Pompe Bianche", "Tipo impianto": "Altro", "Indirizzo": "via Bellini 19 95030", "Nome impianto": "Stazione di servizio Nobile Oil di Antonio Leonardi", "Comune": "SANT'AGATA LI BATTIATI", "idImpianto": 38127, "points": [{"type": "Feature", "properties": {}, "geometry": {"type": "Point", "coordinates": [15.076740458607674, 37.55907638682088]}}], "price": 2.019, "ultima_rilevazione": "21/06/2022 06:34:34"}, {"Gestore": "PUSILLICO CARMELO", "Bandiera": "Agip Eni", "Tipo impianto": "Altro", "Indirizzo": "viale marco polo  16 95126", "Nome impianto": "eni 29591", "Comune": "CATANIA", "idImpianto": 49414, "points": [{"type": "Feature", "properties": {}, "geometry": {"type": "Point", "coordinates": [15.093339061206072, 37.52808796299364]}}], "price": 2.009, "ultima_rilevazione": "21/06/2022 07:52:44"}, {"Gestore": "CO.GE.KAT. S.R.L.", "Bandiera": "Pompe Bianche", "Tipo impianto": "Altro", "Indirizzo": "CONTRADA RAVANUSA SNC 95030", "Nome impianto": "CO.GE.KAT. T.E.", "Comune": "TREMESTIERI ETNEO", "idImpianto": 33515, "points": [{"type": "Feature", "properties": {}, "geometry": {"type": "Point", "coordinates": [15.08382886648178, 37.56856398202246]}}], "price": 1.999, "ultima_rilevazione": "21/06/2022 08:57:31"}, {"Gestore": "MOBILITY POINT S.R.L.", "Bandiera": "Api-Ip", "Tipo impianto": "Altro", "Indirizzo": "VIA CARUSO S.N. 95037", "Nome impianto": "mobility point srl", "Comune": "SAN GIOVANNI LA PUNTA", "idImpianto": 13782, "points": [{"type": "Feature", "properties": {}, "geometry": {"type": "Point", "coordinates": [15.092028379440308, 37.58899018580353]}}], "price": 2.009, "ultima_rilevazione": "21/06/2022 09:40:57"}, {"Gestore": "STAZIONE ENI DI ZUCCARO RICCARDO", "Bandiera": "Agip Eni", "Tipo impianto": "Altro", "Indirizzo": "VIALE ANDREA DORIA 8 95125", "Nome impianto": "ENI PV 55106", "Comune": "CATANIA", "idImpianto": 42894, "points": [{"type": "Feature", "properties": {}, "geometry": {"type": "Point", "coordinates": [15.075013271163924, 37.52520395415928]}}], "price": 2.029, "ultima_rilevazione": "22/06/2022 09:08:31"}, {"Gestore": "JONICA CARBURANTI F.LLI D'AGATA DI D'AGATA LAURA ANGELA & C. S.A.S.", "Bandiera": "Agip Eni", "Tipo impianto": "Strada Statale", "Indirizzo": "Statale 114 Orientale Sicula, Km. 117, dir. CATANIA-SIRACUSA 95126", "Nome impianto": " ENI STATION JONICA CARBURANTI F.LLI D'AGATA ", "Comune": "CATANIA", "idImpianto": 4102, "points": [{"type": "Feature", "properties": {}, "geometry": {"type": "Point", "coordinates": [15.115076496329948, 37.5334419698132]}}], "price": 2.204, "ultima_rilevazione": "22/06/2022 10:32:18"}, {"Gestore": "FOOD&OIL DI CRISTIANO TITOLA", "Bandiera": "Esso", "Tipo impianto": "Altro", "Indirizzo": "via del bosco  380 95125", "Nome impianto": "esso", "Comune": "CATANIA", "idImpianto": 46818, "points": [{"type": "Feature", "properties": {}, "geometry": {"type": "Point", "coordinates": [15.078447991029408, 37.54390100392222]}}], "price": 1.999, "ultima_rilevazione": "22/06/2022 13:24:06"}, {"Gestore": "STAZIONE DI SERVIZIO COFFA S.A.S. DI COFFA MICHELANGELO", "Bandiera": "Agip Eni", "Tipo impianto": "Altro", "Indirizzo": "VIA VINCENZO GIUFFRIDA 171/173 95128", "Nome impianto": "stazione di servizio coffa s.a.s. di coffa michelangelo", "Comune": "CATANIA", "idImpianto": 44337, "points": [{"type": "Feature", "properties": {}, "geometry": {"type": "Point", "coordinates": [15.090807000123, 37.523215000123]}}], "price": 2.029, "ultima_rilevazione": "22/06/2022 14:00:39"}, {"Gestore": "GE.R.G. GESTIONE RIFORNIMENTI GRASSO S.N.C. DI GRASSO MARIO E C.", "Bandiera": "Agip Eni", "Tipo impianto": "Altro", "Indirizzo": "VIALE MARCO POLO 46 95126", "Nome impianto": "gerg snc di grasso mario e c.", "Comune": "CATANIA", "idImpianto": 28722, "points": [{"type": "Feature", "properties": {}, "geometry": {"type": "Point", "coordinates": [15.09532642142642, 37.528386390914]}}], "price": 2.029, "ultima_rilevazione": "22/06/2022 15:09:32"}, {"Gestore": "DD CARBURANTI DI VALERIA D'AGATA", "Bandiera": "Agip Eni", "Tipo impianto": "Altro", "Indirizzo": "VIA MESSINA 630 95126", "Nome impianto": "DD Carburanti di V. D'Agata", "Comune": "CATANIA", "idImpianto": 36883, "points": [{"type": "Feature", "properties": {}, "geometry": {"type": "Point", "coordinates": [15.11507861316204, 37.53341296426081]}}], "price": 2.029, "ultima_rilevazione": "22/06/2022 16:45:13"}, {"Gestore": "IOZZIA OMAR PIETRO", "Bandiera": "Agip Eni", "Tipo impianto": "Altro", "Indirizzo": "Viale Ruggero di Lauria 39 95127", "Nome impianto": "Eni Lauria", "Comune": "CATANIA", "idImpianto": 38833, "points": [{"type": "Feature", "properties": {}, "geometry": {"type": "Point", "coordinates": [15.11172682209019, 37.52107872661672]}}], "price": 2.029, "ultima_rilevazione": "23/06/2022 09:01:09"}, {"Gestore": "PERCOLLA DARIO", "Bandiera": "Esso", "Tipo impianto": "Altro", "Indirizzo": "via della regione 2 95030", "Nome impianto": "esso percolla dario", "Comune": "SAN GIOVANNI LA PUNTA", "idImpianto": 13970, "points": [{"type": "Feature", "properties": {}, "geometry": {"type": "Point", "coordinates": [15.086534619331356, 37.57166488976966]}}], "price": 2.019, "ultima_rilevazione": "24/06/2022 07:12:46"}, {"Gestore": "T & T SERVICE S.R.L.", "Bandiera": "Q8", "Tipo impianto": "Altro", "Indirizzo": "VIA ETNEA ANG.ARDIZZONE GIOENI, 95100", "Nome impianto": "T&T SERVICE SRL", "Comune": "CATANIA", "idImpianto": 10759, "points": [{"type": "Feature", "properties": {}, "geometry": {"type": "Point", "coordinates": [15.081546306610107, 37.52573095543272]}}], "price": 2.019, "ultima_rilevazione": "24/06/2022 07:49:42"}, {"Gestore": "ACICASTELLO CARBURANTI MARCHESE RAGONA S.R.L.", "Bandiera": "Esso", "Tipo impianto": "Altro", "Indirizzo": "VIA XXI APRILE EX S.S.114 33 95021", "Nome impianto": "ACICASTELLOCARBURANTI", "Comune": "ACI CASTELLO", "idImpianto": 27726, "points": [{"type": "Feature", "properties": {}, "geometry": {"type": "Point", "coordinates": [15.143852680921556, 37.55061638930612]}}], "price": 2.039, "ultima_rilevazione": "24/06/2022 08:15:18"}, {"Gestore": "ND PETROLI DI DIBENNARDO NUNZIO & C. S.R.L.", "Bandiera": "Tamoil", "Tipo impianto": "Altro", "Indirizzo": "VIA CATIRA SNC 95037", "Nome impianto": "SAN GIOVANNI LA PUNTA", "Comune": "SAN GIOVANNI LA PUNTA", "idImpianto": 14544, "points": [{"type": "Feature", "properties": {}, "geometry": {"type": "Point", "coordinates": [15.103398263454435, 37.58135492940338]}}], "price": 2.019, "ultima_rilevazione": "24/06/2022 09:18:56"}, {"Gestore": "SERVIZI & GESTIONI ITALIA S.R.L.", "Bandiera": "Q8", "Tipo impianto": "Altro", "Indirizzo": "V.LE V. VENETO 115 95127", "Nome impianto": "CATANIA V.LE V. VENETO 115", "Comune": "CATANIA", "idImpianto": 46799, "points": [{"type": "Feature", "properties": {}, "geometry": {"type": "Point", "coordinates": [15.09638838343244, 37.520451400461766]}}], "price": 2.029, "ultima_rilevazione": "24/06/2022 11:07:32"}, {"Gestore": "SEBASTIANO ROMEO S.R.L.", "Bandiera": "SP Energia Siciliana", "Tipo impianto": "Altro", "Indirizzo": "VIA DELLA REGIONE 263 95037", "Nome impianto": "SEBASTIANO ROMEO S.R.L SG LA PUNTA", "Comune": "SAN GIOVANNI LA PUNTA", "idImpianto": 48134, "points": [{"type": "Feature", "properties": {}, "geometry": {"type": "Point", "coordinates": [15.090571988892147, 37.58152066840477]}}], "price": 1.997, "ultima_rilevazione": "24/06/2022 11:31:53"}, {"Gestore": "CRISTALDI GAETANO", "Bandiera": "Api-Ip", "Tipo impianto": "Altro", "Indirizzo": "Via Vincenzo Giuffrida 156 95128", "Nome impianto": "IP DI CRISTALDI ", "Comune": "CATANIA", "idImpianto": 46881, "points": [{"type": "Feature", "properties": {}, "geometry": {"type": "Point", "coordinates": [15.091259030855554, 37.522634801715206]}}], "price": 1.998, "ultima_rilevazione": "24/06/2022 12:09:52"}, {"Gestore": "EGI-2GO S.R.L.", "Bandiera": "Esso", "Tipo impianto": "Altro", "Indirizzo": "VIALE ODORICO DA PORDENONE 42 95126", "Nome impianto": "odorico", "Comune": "CATANIA", "idImpianto": 50317, "points": [{"type": "Feature", "properties": {}, "geometry": {"type": "Point", "coordinates": [15.08649486737183, 37.52816015700585]}}], "price": 2.019, "ultima_rilevazione": "24/06/2022 14:10:48"}, {"Gestore": "CASTRO DANIELE", "Bandiera": "Esso", "Tipo impianto": "Altro", "Indirizzo": "Viale della Regione 134/136 95027", "Nome impianto": "Distributore Carburanti di Castro Daniele", "Comune": "SAN GIOVANNI LA PUNTA", "idImpianto": 29403, "points": [{"type": "Feature", "properties": {}, "geometry": {"type": "Point", "coordinates": [15.088679132185348, 37.576084544783306]}}], "price": 2.019, "ultima_rilevazione": "24/06/2022 20:53:30"}, {"Gestore": "MIRICI CAPPA GIUSY", "Bandiera": "Pompe Bianche", "Tipo impianto": "Altro", "Indirizzo": "VIA PIETRO DELL'OVA 190A 95125", "Nome impianto": "MIRICI CAPPA GIUSY", "Comune": "CATANIA", "idImpianto": 37075, "points": [{"type": "Feature", "properties": {}, "geometry": {"type": "Point", "coordinates": [15.087318420410156, 37.53437159110208]}}], "price": 1.999, "ultima_rilevazione": "25/06/2022 08:06:49"}, {"Gestore": "SERVIZI & GESTIONI ITALIA S.R.L.", "Bandiera": "Q8", "Tipo impianto": "Altro", "Indirizzo": "VIALE LAINO'  95126", "Nome impianto": "CATANIA VIALE LAINO'", "Comune": "CATANIA", "idImpianto": 6930, "points": [{"type": "Feature", "properties": {}, "geometry": {"type": "Point", "coordinates": [15.11833682656288, 37.538806169933615]}}], "price": 1.999, "ultima_rilevazione": "27/06/2022 00:37:10"}, {"Gestore": "SERVIZI & GESTIONI ITALIA S.R.L.", "Bandiera": "Q8", "Tipo impianto": "Altro", "Indirizzo": "VIA RE MARTINO ANG. GALATIOTO  95126", "Nome impianto": "CATANIA VIA RE MARTINO ANG. GALATIOTO", "Comune": "CATANIA", "idImpianto": 24619, "points": [{"type": "Feature", "properties": {}, "geometry": {"type": "Point", "coordinates": [15.107870244844094, 37.52564916030932]}}], "price": 1.999, "ultima_rilevazione": "27/06/2022 00:37:10"}, {"Gestore": "SERVIZI & GESTIONI ITALIA srl", "Bandiera": "Q8", "Tipo impianto": "Altro", "Indirizzo": "DUCA DEGLI ABRUZZI 203 95037", "Nome impianto": "SAN GIOVANNI LA PUNTA DUCA DEGLI ABRUZZI 203", "Comune": "SAN GIOVANNI LA PUNTA", "idImpianto": 6773, "points": [{"type": "Feature", "properties": {}, "geometry": {"type": "Point", "coordinates": [15.087661032540836, 37.55042545526232]}}], "price": 1.999, "ultima_rilevazione": "27/06/2022 00:37:11"}, {"Gestore": "ZAPPALA' SALVATORE E C. S.N.C.", "Bandiera": "Agip Eni", "Tipo impianto": "Altro", "Indirizzo": "VIA PIETRO DELL'OVA  95030", "Nome impianto": "ENI tremestieri", "Comune": "TREMESTIERI ETNEO", "idImpianto": 27313, "points": [{"type": "Feature", "properties": {}, "geometry": {"type": "Point", "coordinates": [15.090911935912343, 37.53988182865211]}}], "price": 2.029, "ultima_rilevazione": "27/06/2022 13:57:23"}, {"Gestore": "ZAPPALA' SALVATORE E C. S.N.C.", "Bandiera": "Agip Eni", "Tipo impianto": "Altro", "Indirizzo": "VIA BARRIERA DEL BOSCO 5 95030", "Nome impianto": "ENI battiati", "Comune": "SANT'AGATA LI BATTIATI", "idImpianto": 27314, "points": [{"type": "Feature", "properties": {}, "geometry": {"type": "Point", "coordinates": [15.08294641971588, 37.54728154343967]}}], "price": 2.029, "ultima_rilevazione": "27/06/2022 13:57:30"}, {"Gestore": "GFR GROUP DI CASTORINA ALESSANDRO", "Bandiera": "Esso", "Tipo impianto": "Altro", "Indirizzo": "Via Vincenzo Giuffrida 204-206 95128", "Nome impianto": "Stazione di Servizio ESSO", "Comune": "CATANIA", "idImpianto": 41944, "points": [{"type": "Feature", "properties": {}, "geometry": {"type": "Point", "coordinates": [15.091084612268446, 37.52523744527056]}}], "price": 2.019, "ultima_rilevazione": "27/06/2022 15:15:52"}, {"Gestore": "EOS SERVICES S.R.L. A SOCIO UNICO", "Bandiera": "Q8", "Tipo impianto": "Altro", "Indirizzo": "VIA NIZZETI FRAZ. ACI S. FILIPPO SNC 95022", "Nome impianto": "CT028", "Comune": "ACI CATENA", "idImpianto": 42555, "points": [{"type": "Feature", "properties": {}, "geometry": {"type": "Point", "coordinates": [15.141737491293156, 37.58534978406732]}}], "price": 1.999, "ultima_rilevazione": "27/06/2022 15:41:48"}, {"Gestore": "ZAFARANA ADRIANO", "Bandiera": "Api-Ip", "Tipo impianto": "Altro", "Indirizzo": "Via F. Lo Jacono 77 95030", "Nome impianto": "Stazione di servizio IP di Zafarana Adriano", "Comune": "SANT'AGATA LI BATTIATI", "idImpianto": 12149, "points": [{"type": "Feature", "properties": {}, "geometry": {"type": "Point", "coordinates": [15.0813048499665, 37.54070075287584]}}], "price": 1.999, "ultima_rilevazione": "27/06/2022 20:32:40"}, {"Gestore": "SERVIZI & GESTIONI ITALIA srl", "Bandiera": "Q8", "Tipo impianto": "Altro", "Indirizzo": "PIAZZA A. LINCON 10 95128", "Nome impianto": "CATANIA PIAZZA A. LINCON 10", "Comune": "CATANIA", "idImpianto": 6840, "points": [{"type": "Feature", "properties": {}, "geometry": {"type": "Point", "coordinates": [15.089203342795372, 37.5212056129115]}}], "price": 2.017, "ultima_rilevazione": "28/06/2022 01:38:22"}, {"Gestore": "MSA SERVICE S.R.L.", "Bandiera": "Nobile Oil", "Tipo impianto": "Altro", "Indirizzo": "VIA NIZZETI 134 95022", "Nome impianto": "NOBILE ", "Comune": "ACI CATENA", "idImpianto": 45096, "points": [{"type": "Feature", "properties": {}, "geometry": {"type": "Point", "coordinates": [15.140622000123, 37.579951000123]}}], "price": 2.019, "ultima_rilevazione": "28/06/2022 08:36:04"},