{"area_comune": "[{\"type\": \"Feature\", \"properties\": {}, \"geometry\": {\"type\": \"Polygon\", \"coordinates\": [[[14.367745771452856, 40.84869818727244], [14.374377950963634, 40.84441480898221], [14.383679758548098, 40.83971725338678], [14.38835149917189, 40.8376079200175], [14.389712627608928, 40.83673590892399], [14.39185388070008, 40.83485877545695], [14.393590599523538, 40.83165343019225], [14.390900601474897, 40.83148695280722], [14.389486755847734, 40.835613398751725], [14.38393823449946, 40.837871844095936], [14.38307080187355, 40.83809248457579], [14.370281634536328, 40.838045702262555], [14.369144059172779, 40.837927590811596], [14.356151414450231, 40.838330590738536], [14.347029679982054, 40.84728182388022], [14.349377203008613, 40.84808451807916], [14.355320929974514, 40.84743625549281], [14.364183959544434, 40.850090977952426], [14.367745771452856, 40.84869818727244]]]}}]", "comune": "san-sebastiano-al-vesuvio", "buffer_1": "[{\"type\": \"Feature\", \"properties\": {}, \"geometry\": {\"type\": \"Polygon\", \"coordinates\": [[[14.366685958971287, 40.857647888778196], [14.367887729119529, 40.85768334295778], [14.369088030704818, 40.85762599856531], [14.370274463750619, 40.857476448321606], [14.371434771807243, 40.857236237481786], [14.37255696871033, 40.85690784784039], [14.373629462527383, 40.85649467205215], [14.374641175405525, 40.85600097853515], [14.396608923650714, 40.84403731550705], [14.39758595222274, 40.84344315764408], [14.398474845790712, 40.842773938001685], [14.399265657425692, 40.84203714776521], [14.399949538988956, 40.841241034164206], [14.403826913977255, 40.83615824442213], [14.404352919721012, 40.83538446766957], [14.404777825964647, 40.83457565139521], [14.40509764524651, 40.833739393236016], [14.405309377585088, 40.8328835482891], [14.405411038510444, 40.832016155309425], [14.405401677545685, 40.831145361194], [14.40528138697074, 40.83027934446242], [14.405051300792284, 40.82942623845249], [14.404713583935614, 40.82859405495189], [14.404271411765855, 40.82779060898226], [14.403728940136268, 40.827023445440744], [14.403091266249783, 40.826299768286816], [14.402364380705249, 40.82562637293708], [14.401555111181777, 40.82500958250115], [14.400671058291945, 40.82445518845519], [14.399720524207074, 40.82396839630793], [14.398712434724445, 40.82355377676723], [14.397656255506755, 40.82321522286355], [14.396561903277762, 40.82295591343128], [14.395439652804466, 40.822778283288955], [14.394300040534773, 40.82268400039714], [14.393153765790458, 40.82267395020758], [14.39201159043765, 40.82274822734999], [14.390884237971047, 40.82290613473447], [14.353449535220705, 40.82958212816447], [14.352342292745218, 40.829823133543655], [14.35127114250865, 40.830144774303484], [14.350246235220222, 40.8305440028753], [14.349277283933834, 40.83101703639099], [14.348373472062285, 40.831559392484394], [14.347543366382606, 40.83216593171906], [14.346794835855032, 40.83283090624234], [14.337672434549352, 40.84178143200592], [14.337013323694663, 40.84249737417849], [14.33644885289398, 40.84325853393039], [14.335984359277417, 40.844057719191305], [14.335624235783133, 40.84488737829477], [14.335371889519953, 40.84573967130568], [14.335229709426857, 40.84660654408287], [14.335199043540333, 40.84747980437706], [14.335280186090266, 40.84835119924656], [14.335472374552607, 40.84921249305849], [14.335773796692841, 40.850055545338776], [14.336181607539931, 40.850872387734135], [14.336691956136, 40.8516552993576], [14.337300021814226, 40.852396879804175], [14.338000059666347, 40.853090119144504], [14.338785454773621, 40.853728464233235], [14.339648784690946, 40.85430588070279], [14.34058188959489, 40.85481691005462], [14.341575949432539, 40.855256721305835], [14.342621567340814, 40.85562115670076], [14.343708858545453, 40.85590677105349], [14.344827543895939, 40.85611086434758], [14.345967047147997, 40.85623150728333], [14.366685958971287, 40.857647888778196]]]}}]", "buffer_3": "[{\"type\": \"Feature\", \"properties\": {}, \"geometry\": {\"type\": \"Polygon\", \"coordinates\": [[[14.364565861432613, 40.87554729238784], [14.36817215436374, 40.8756536230274], [14.371774020585251, 40.87548148326292], [14.375334220511661, 40.875032655652504], [14.378815947643126, 40.8743117832584], [14.382183210374954, 40.873326321361304], [14.38540120520428, 40.87208646001336], [14.388436677416342, 40.870605018248334], [14.410406208162879, 40.858638584422195], [14.413337434479022, 40.856855721994656], [14.41600403992208, 40.8548476783501], [14.418376187101774, 40.85263694423463], [14.420427344491303, 40.850248277570564], [14.424303524210442, 40.84516486598792], [14.425880938382933, 40.842843282718945], [14.427154927477734, 40.84041663411902], [14.42811355649213, 40.83790772058307], [14.428747856575123, 40.83534011260721], [14.429051907954017, 40.83273792918736], [14.429022894116425, 40.830125611170615], [14.428661126792152, 40.82752769169243], [14.427970041555502, 40.824968565855414], [14.426956164144396, 40.82247226180951], [14.42562904786549, 40.82006221537565], [14.42400118272188, 40.817761050317955], [14.422087877159564, 40.81559036631373], [14.419907113578384, 40.813570536595506], [14.417479378990784, 40.81172051714626], [14.414827472435254, 40.81005766921951], [14.411976290959288, 40.808597596830296], [14.40895259617725, 40.807354000722576], [14.405784763580618, 40.80633855016504], [14.402502516930243, 40.80556077376179], [14.399136650191386, 40.80502797028787], [14.395718739581632, 40.80474514037488], [14.39228084838865, 40.80471493967951], [14.38885522727823, 40.804937653969766], [14.385474012853013, 40.805411196361646], [14.348048269550366, 40.81208485710505], [14.34472729577812, 40.812807636921406], [14.341514476035524, 40.8137722753148], [14.33844023859768, 40.81496964030227], [14.3355337043058, 40.81638839539454], [14.332822411302443, 40.81801510654339], [14.33033205450577, 40.81983436893246], [14.328086242272787, 40.82182895243067], [14.31896250985174, 40.83077806353891], [14.316984784913792, 40.83292557835988], [14.315290822741531, 40.83520878565246], [14.313896655419377, 40.83760611946025], [14.312815487613923, 40.84009493315725], [14.312057570689854, 40.84265171311483], [14.31163010455824, 40.84525230065505], [14.311537168232425, 40.847872120202894], [14.311779679800507, 40.85048641148733], [14.312355386248388, 40.853070463598755], [14.31325888328612, 40.855599848688705], [14.314481665045529, 40.858050653097], [14.316012203231494, 40.860399703712055], [14.317836055025598, 40.86262478741111], [14.319935998762007, 40.86470486149041], [14.32229219612451, 40.866620253077244], [14.324882379353065, 40.868352845618794], [14.327682061701354, 40.86988625066399], [14.330664769156018, 40.871205963292894], [14.333802291216257, 40.872299499704425], [14.337064948341808, 40.87315651564234], [14.340421873509852, 40.87376890452384], [14.343841305179625, 40.87413087432879], [14.364565861432613, 40.87554729238784]]]}}]", "buffer_5": "[{\"type\": \"Feature\", \"properties\": {}, \"geometry\": {\"type\": \"Polygon\", \"coordinates\": [[[14.36244513273902, 40.89344669671603], [14.368457259899019, 40.893623861343904], [14.374461974137148, 40.893336783996055], [14.380397143252722, 40.89258844293947], [14.386201361045226, 40.891386588798895], [14.391814586231215, 40.889743663575686], [14.397178766741943, 40.88767667088416], [14.402238442777465, 40.88520699879842], [14.424209753784657, 40.87323779225593], [14.42909536457394, 40.87026570641571], [14.433539580426546, 40.86691832554445], [14.43749267813153, 40.8632331629093], [14.440910460098499, 40.8592515087951], [14.44478544265909, 40.85416747561261], [14.447413459810168, 40.85029774874097], [14.449535557670206, 40.84625300186713], [14.451131890309023, 40.84207124810079], [14.452187561548127, 40.837791780243286], [14.45269276121836, 40.8334548011313], [14.452642853354588, 40.829101045723526], [14.452038415647621, 40.824771398491826], [14.450885229936349, 40.82050650971041], [14.449194223982369, 40.81634641423504], [14.446981365220392, 40.81233015633112], [14.44426750761698, 40.80849542404187], [14.44107819319376, 40.80487819648979], [14.437443410175817, 40.80151240737579], [14.43339731010869, 40.79842962778315], [14.428977886645592, 40.79565877120838], [14.424226619037409, 40.793225823531415], [14.419188083660497, 40.7911536004042], [14.413909537188415, 40.78946153428198], [14.40844047525321, 40.78816549304858], [14.402832170647324, 40.78727763189689], [14.397137195288574, 40.78680627982181], [14.391408930306175, 40.786755861767354], [14.385701068705751, 40.78712685714548], [14.380067115134159, 40.7879157951133], [14.342650324352485, 40.7945871252301], [14.337116623269148, 40.7957913647443], [14.33176297477335, 40.797398622681825], [14.326640052948171, 40.79939369690052], [14.321796362006799, 40.8017577133977], [14.317277778671347, 40.8044683037981], [14.31312711872878, 40.80749981585537], [14.309383731818166, 40.81082355502909], [14.300258671692019, 40.81977125161742], [14.296961810875201, 40.823349923461116], [14.294137625700966, 40.827154815478], [14.29181287068224, 40.83115000150223], [14.290009596573132, 40.83529775113057], [14.288744938951764, 40.8395588853056], [14.288030952758263, 40.843893145846216], [14.287874494483512, 40.84825957546092], [14.288277153267732, 40.85261690467018], [14.289235231714475, 40.85692394198689], [14.290739776758443, 40.861139963662126], [14.292776660449402, 40.86522509929566], [14.295326710033766, 40.86914070963938], [14.298365886235008, 40.87284975298542], [14.301865508159066, 40.8763171366303], [14.305792522786444, 40.87951005004106], [14.31010981656424, 40.882398276517094], [14.314776566183793, 40.884954480342444], [14.319748625228582, 40.887154466654444], [14.324978943007112, 40.88897741151493], [14.330418011551595, 40.89040605995531], [14.336014336469525, 40.891426890076566], [14.341714927085793, 40.892030241614066], [14.36244513273902, 40.89344669671603]]]}}]", "centroid": "[{\"type\": \"Feature\", \"properties\": {}, \"geometry\": {\"type\": \"Point\", \"coordinates\": [14.370448427054207, 40.84015749350746]}}]", "Diesel High Quality": {"1": [], "3": [{"Gestore": "SERVIZI & GESTIONI ITALIA srl", "Bandiera": "Q8", "Tipo impianto": "Altro", "Indirizzo": "VIA DEGLI ULIVI SNC 80056", "Nome impianto": "ERCOLANO VIA DEGLI ULIVI", "Comune": "ERCOLANO", "idImpianto": 6702, "points": [{"type": "Feature", "properties": {}, "geometry": {"type": "Point", "coordinates": [14.356227699999977, 40.81446484078589]}}], "price": 1.709, "ultima_rilevazione": "16/06/2022 01:44:49"}, {"Gestore": "VITIELLO CIRO", "Bandiera": "Q8", "Tipo impianto": "Altro", "Indirizzo": "VIA DELLE REPUBBLICHE MARINARE 295 80146", "Nome impianto": "STAZIONE DI SERVIZIO Q8 di VITIELLO CIRO", "Comune": "NAPOLI", "idImpianto": 46689, "points": [{"type": "Feature", "properties": {}, "geometry": {"type": "Point", "coordinates": [14.315652205890729, 40.83684850871609]}}], "price": 2.399, "ultima_rilevazione": "11/06/2022 15:46:19"}, {"Gestore": "VITIELLO CIRO", "Bandiera": "Q8", "Tipo impianto": "Altro", "Indirizzo": "VIA DELLE REPUBBLICHE MARINARE 295 80146", "Nome impianto": "STAZIONE DI SERVIZIO Q8 di VITIELLO CIRO", "Comune": "NAPOLI", "idImpianto": 46689, "points": [{"type": "Feature", "properties": {}, "geometry": {"type": "Point", "coordinates": [14.315652205890729, 40.83684850871609]}}], "price": 2.149, "ultima_rilevazione": "11/06/2022 15:46:19"}, {"Gestore": "FIORENTINO CARBURANTI S.A.S. DI FIORENTINO MARILENA", "Bandiera": "Q8", "Tipo impianto": "Altro", "Indirizzo": "via luigi volpicella 411 80142", "Nome impianto": "DISTRIBUTORE Q8", "Comune": "NAPOLI", "idImpianto": 48414, "points": [{"type": "Feature", "properties": {}, "geometry": {"type": "Point", "coordinates": [14.323330202083584, 40.84838010169506]}}], "price": 2.089, "ultima_rilevazione": "14/06/2022 07:22:22"}, {"Gestore": "ASCHETTINO DOMENICO", "Bandiera": "Esso", "Tipo impianto": "Altro", "Indirizzo": "VIA ARGINE 875 80147", "Nome impianto": "ESSO", "Comune": "NAPOLI", "idImpianto": 33559, "points": [{"type": "Feature", "properties": {}, "geometry": {"type": "Point", "coordinates": [14.33246299624443, 40.860406445681946]}}], "price": 2.119, "ultima_rilevazione": "16/06/2022 09:50:05"}, {"Gestore": "SERVIZI & GESTIONI ITALIA S.R.L.", "Bandiera": "Q8", "Tipo impianto": "Altro", "Indirizzo": "VIA REPUBBLICHE MARINARE 392 80146", "Nome impianto": "NAPOLI-VIA REPUBBLICHE MARINARE 392", "Comune": "NAPOLI", "idImpianto": 11734, "points": [{"type": "Feature", "properties": {}, "geometry": {"type": "Point", "coordinates": [14.320937550926146, 40.831767528857256]}}], "price": 2.329, "ultima_rilevazione": "17/06/2022 07:07:03"}, {"Gestore": "SERVIZI & GESTIONI ITALIA S.R.L.", "Bandiera": "Q8", "Tipo impianto": "Altro", "Indirizzo": "VIA REPUBBLICHE MARINARE 392 80146", "Nome impianto": "NAPOLI-VIA REPUBBLICHE MARINARE 392", "Comune": "NAPOLI", "idImpianto": 11734, "points": [{"type": "Feature", "properties": {}, "geometry": {"type": "Point", "coordinates": [14.320937550926146, 40.831767528857256]}}], "price": 2.449, "ultima_rilevazione": "17/06/2022 07:07:03"}], "5": [{"Gestore": "DEL GATTO LUCA", "Bandiera": "Q8", "Tipo impianto": "Altro", "Indirizzo": "VIA GUGLIELMO MARCONI 61 80059", "Nome impianto": "Del Gatto Luca -Q8", "Comune": "TORRE DEL GRECO", "idImpianto": 35664, "points": [{"type": "Feature", "properties": {}, "geometry": {"type": "Point", "coordinates": [14.373119921634723, 40.79493791968526]}}], "price": 2.224, "ultima_rilevazione": "15/06/2022 08:26:19"}, {"Gestore": "DEL GATTO LUCA", "Bandiera": "Q8", "Tipo impianto": "Altro", "Indirizzo": "VIA GUGLIELMO MARCONI 61 80059", "Nome impianto": "Del Gatto Luca -Q8", "Comune": "TORRE DEL GRECO", "idImpianto": 35664, "points": [{"type": "Feature", "properties": {}, "geometry": {"type": "Point", "coordinates": [14.373119921634723, 40.79493791968526]}}], "price": 2.329, "ultima_rilevazione": "15/06/2022 08:26:19"}, {"Gestore": "PETROLCOR S.R.L.", "Bandiera": "Esso", "Tipo impianto": "Altro", "Indirizzo": "VIA LUFRANO 61 80040", "Nome impianto": "ESSO", "Comune": "VOLLA", "idImpianto": 43903, "points": [{"type": "Feature", "properties": {}, "geometry": {"type": "Point", "coordinates": [14.338231457672125, 40.88577506948254]}}], "price": 2.299, "ultima_rilevazione": "16/06/2022 13:47:29"}, {"Gestore": "CARRARA PIETRO", "Bandiera": "Q8", "Tipo impianto": "Altro", "Indirizzo": "via emanuele gianturco frcv. 79 80142", "Nome impianto": "staz. servizio. q8 ", "Comune": "NAPOLI", "idImpianto": 17155, "points": [{"type": "Feature", "properties": {}, "geometry": {"type": "Point", "coordinates": [14.289340482265288, 40.85030685074771]}}], "price": 2.25, "ultima_rilevazione": "16/06/2022 16:04:48"}, {"Gestore": "CARRARA PIETRO", "Bandiera": "Q8", "Tipo impianto": "Altro", "Indirizzo": "via emanuele gianturco frcv. 79 80142", "Nome impianto": "staz. servizio. q8 ", "Comune": "NAPOLI", "idImpianto": 17155, "points": [{"type": "Feature", "properties": {}, "geometry": {"type": "Point", "coordinates": [14.289340482265288, 40.85030685074771]}}], "price": 2.4, "ultima_rilevazione": "16/06/2022 16:04:48"}, {"Gestore": "CAR.IO S.R.L.", "Bandiera": "Q8", "Tipo impianto": "Altro", "Indirizzo": "VIA DELLE PUGLIE 176/A 80026", "Nome impianto": "BENZINA - GASOLIO - HIQ CASORIA", "Comune": "CASORIA", "idImpianto": 29071, "points": [{"type": "Feature", "properties": {}, "geometry": {"type": "Point", "coordinates": [14.31901598762738, 40.883618858465454]}}], "price": 2.059, "ultima_rilevazione": "16/06/2022 18:50:53"}, {"Gestore": "LUCARELLA ROSA PETROLI", "Bandiera": "Esso", "Tipo impianto": "Altro", "Indirizzo": "via del commercio snc 80059", "Nome impianto": "stazione di servizio esso lucarella", "Comune": "TORRE DEL GRECO", "idImpianto": 12189, "points": [{"type": "Feature", "properties": {}, "geometry": {"type": "Point", "coordinates": [14.358681589365004, 40.79220939502857]}}], "price": 1.999, "ultima_rilevazione": "17/06/2022 07:53:25"}]}, "Blue Diesel": {"1": [], "3": [{"Gestore": "STAZIONE I.P. DI DE LUCA ALFONSO", "Bandiera": "Agip Eni", "Tipo impianto": "Altro", "Indirizzo": "Via gianturco 26 80046", "Nome impianto": "Stazione eni De LUCA ALFONSO", "Comune": "SAN GIORGIO A CREMANO", "idImpianto": 32177, "points": [{"type": "Feature", "properties": {}, "geometry": {"type": "Point", "coordinates": [14.342876389306412, 40.83164723763404]}}], "price": 2.344, "ultima_rilevazione": "11/06/2022 10:30:41"}], "5": [{"Gestore": "DE LUCA LUIGI", "Bandiera": "Agip Eni", "Tipo impianto": "Altro", "Indirizzo": "VIA STADERA A POGGIOREALE  80143", "Nome impianto": "DE LUCA LUIGI", "Comune": "NAPOLI", "idImpianto": 35375, "points": [{"type": "Feature", "properties": {}, "geometry": {"type": "Point", "coordinates": [14.306204840540886, 40.874918260187705]}}], "price": 1.539, "ultima_rilevazione": "16/06/2022 09:12:15"}, {"Gestore": "DE LUCA LUIGI", "Bandiera": "Agip Eni", "Tipo impianto": "Altro", "Indirizzo": "VIA STADERA A POGGIOREALE  80143", "Nome impianto": "DE LUCA LUIGI", "Comune": "NAPOLI", "idImpianto": 35375, "points": [{"type": "Feature", "properties": {}, "geometry": {"type": "Point", "coordinates": [14.306204840540886, 40.874918260187705]}}], "price": 2.284, "ultima_rilevazione": "16/06/2022 09:12:15"}, {"Gestore": "MASI VITO", "Bandiera": "Agip Eni", "Tipo impianto": "Altro", "Indirizzo": "VIA E.GIANTURCO 114 80142", "Nome impianto": "masi vito", "Comune": "NAPOLI", "idImpianto": 16846, "points": [{"type": "Feature", "properties": {}, "geometry": {"type": "Point", "coordinates": [14.288344113215317, 40.84787307234628]}}], "price": 2.219, "ultima_rilevazione": "16/06/2022 06:15:23"}, {"Gestore": "MASI VITO", "Bandiera": "Agip Eni", "Tipo impianto": "Altro", "Indirizzo": "VIA E.GIANTURCO 114 80142", "Nome impianto": "masi vito", "Comune": "NAPOLI", "idImpianto": 16846, "points": [{"type": "Feature", "properties": {}, "geometry": {"type": "Point", "coordinates": [14.288344113215317, 40.84787307234628]}}], "price": 2.109, "ultima_rilevazione": "16/06/2022 06:15:23"}, {"Gestore": "PICCOLO GROUP S.R.L.", "Bandiera": "Agip Eni", "Tipo impianto": "Altro", "Indirizzo": "S.S.162 dir Napoli Km 6+513  80040", "Nome impianto": "PICCOLO GROUP", "Comune": "POLLENA TROCCHIA", "idImpianto": 7526, "points": [{"type": "Feature", "properties": {}, "geometry": {"type": "Point", "coordinates": [14.371241382063545, 40.876544472375066]}}], "price": 2.129, "ultima_rilevazione": "16/06/2022 06:36:42"}, {"Gestore": "PICCOLO GROUP S.R.L.", "Bandiera": "Agip Eni", "Tipo impianto": "Altro", "Indirizzo": "S.S.162 dir Napoli Km 6+513  80040", "Nome impianto": "PICCOLO GROUP", "Comune": "POLLENA TROCCHIA", "idImpianto": 7526, "points": [{"type": "Feature", "properties": {}, "geometry": {"type": "Point", "coordinates": [14.371241382063545, 40.876544472375066]}}], "price": 2.0, "ultima_rilevazione": "16/06/2022 06:36:42"}, {"Gestore": "RICCIARDI GIACINTO", "Bandiera": "Agip Eni", "Tipo impianto": "Altro", "Indirizzo": "VIA LEOPARDI 30 80040", "Nome impianto": "eni", "Comune": "VOLLA", "idImpianto": 20441, "points": [{"type": "Feature", "properties": {}, "geometry": {"type": "Point", "coordinates": [14.339417601852348, 40.88026141875078]}}], "price": 2.089, "ultima_rilevazione": "16/06/2022 08:11:09"}, {"Gestore": "RICCIARDI GIACINTO", "Bandiera": "Agip Eni", "Tipo impianto": "Altro", "Indirizzo": "VIA LEOPARDI 30 80040", "Nome impianto": "eni", "Comune": "VOLLA", "idImpianto": 20441, "points": [{"type": "Feature", "properties": {}, "geometry": {"type": "Point", "coordinates": [14.339417601852348, 40.88026141875078]}}], "price": 2.219, "ultima_rilevazione": "16/06/2022 08:11:09"}, {"Gestore": "GRIMALDI CONCETTA", "Bandiera": "Agip Eni", "Tipo impianto": "Altro", "Indirizzo": "via stadera  80143", "Nome impianto": "ENI 08063", "Comune": "NAPOLI", "idImpianto": 48194, "points": [{"type": "Feature", "properties": {}, "geometry": {"type": "Point", "coordinates": [14.30035925986909, 40.87103647502646]}}], "price": 2.109, "ultima_rilevazione": "16/06/2022 10:01:00"}, {"Gestore": "GRIMALDI CONCETTA", "Bandiera": "Agip Eni", "Tipo impianto": "Altro", "Indirizzo": "via stadera  80143", "Nome impianto": "ENI 08063", "Comune": "NAPOLI", "idImpianto": 48194, "points": [{"type": "Feature", "properties": {}, "geometry": {"type": "Point", "coordinates": [14.30035925986909, 40.87103647502646]}}], "price": 2.219, "ultima_rilevazione": "16/06/2022 10:01:00"}]}, "Gasolio High Quality": {"1": [], "3": [{"Gestore": "ZUCCHI S.N.C. DI ZUCCHI RAFFAELE E C.", "Bandiera": "Esso", "Tipo impianto": "Altro", "Indirizzo": "VIA ARCO 190 80048", "Nome impianto": "s.s.esso zucchi s.n.c.", "Comune": "SANT'ANASTASIA", "idImpianto": 22486, "points": [{"type": "Feature", "properties": {}, "geometry": {"type": "Point", "coordinates": [14.384150505065918, 40.86874861757096]}}], "price": 1.949, "ultima_rilevazione": "05/05/2022 09:56:33"}], "5": [{"Gestore": "B.G. PETROLI S.A.S. DI BORRIELLO VINCENZO & C.", "Bandiera": "Esso", "Tipo impianto": "Altro", "Indirizzo": "VIA PANORAMICA 97 80056", "Nome impianto": "B.G.PETROLI SAS", "Comune": "ERCOLANO", "idImpianto": 35860, "points": [{"type": "Feature", "properties": {}, "geometry": {"type": "Point", "coordinates": [14.357177761376988, 40.81022332802966]}}], "price": 1.999, "ultima_rilevazione": "03/05/2022 07:56:25"}, {"Gestore": "DELTA PETROLI S.A.S. DI FELACO ANTONIO & C.", "Bandiera": "Api-Ip", "Tipo impianto": "Altro", "Indirizzo": "VIA FILICHITO TRAV. GARIBALDI SNC, 80040  ", "Nome impianto": "Delta Petroli (VOLLA)", "Comune": "VOLLA", "idImpianto": 20567, "points": [{"type": "Feature", "properties": {}, "geometry": {"type": "Point", "coordinates": [14.353720267025778, 40.88841550110374]}}], "price": 2.024, "ultima_rilevazione": "11/06/2022 07:46:48"}, {"Gestore": "SOCIETA' CARBURANTI S.N.C. DI FLAUTO MARIA ANGELA", "Bandiera": "Esso", "Tipo impianto": "Altro", "Indirizzo": "VIA FILICHITO 133/135 80040", "Nome impianto": "societ\u00e0 carburanti snc di Flauto Maria", "Comune": "VOLLA", "idImpianto": 12910, "points": [{"type": "Feature", "properties": {}, "geometry": {"type": "Point", "coordinates": [14.351210296154022, 40.885577027124654]}}], "price": 2.009, "ultima_rilevazione": "16/06/2022 07:30:40"}, {"Gestore": "PETROLJ - SOCIETA' A RESPONSABILITA' LIMITATA", "Bandiera": "Esso", "Tipo impianto": "Altro", "Indirizzo": "via Galileo Ferraris 128 80144", "Nome impianto": "Esso 6629", "Comune": "NAPOLI", "idImpianto": 33027, "points": [{"type": "Feature", "properties": {}, "geometry": {"type": "Point", "coordinates": [14.28947512925265, 40.84943369791054]}}], "price": 2.159, "ultima_rilevazione": "16/06/2022 10:20:44"}]}, "Benzina": {"1": [{"Gestore": "A 5 PETROLI S.R.L.", "Bandiera": "Pompe Bianche", "Tipo impianto": "Altro", "Indirizzo": "VIA SACERDOTE B. COZZOLINO SNC 80056", "Nome impianto": "A5", "Comune": "ERCOLANO", "idImpianto": 14708, "points": [{"type": "Feature", "properties": {}, "geometry": {"type": "Point", "coordinates": [14.360169544816015, 40.83495010160629]}}], "price": 1.769, "ultima_rilevazione": "14/06/2022 12:51:22"}, {"Gestore": "ZEUS PETROL SOCIETA' A RESPONSABILITA' LIMITATA", "Bandiera": "Pompe Bianche", "Tipo impianto": "Altro", "Indirizzo": "VIA LIBERTA' 47 80040", "Nome impianto": "ZEUS PETROL S.R.L", "Comune": "SAN SEBASTIANO AL VESUVIO", "idImpianto": 42447, "points": [{"type": "Feature", "properties": {}, "geometry": {"type": "Point", "coordinates": [14.361203682208952, 40.84813394210836]}}], "price": 2.045, "ultima_rilevazione": "14/06/2022 07:30:57"}, {"Gestore": "MARANO E BORRELLI S.R.L.", "Bandiera": "Api-Ip", "Tipo impianto": "Altro", "Indirizzo": "VIA BARTOLO LONGO ANGOLO V. MORMONE 347 80147", "Nome impianto": "IP B.LONGO ANGOLO V. MORMONE", "Comune": "NAPOLI", "idImpianto": 43420, "points": [{"type": "Feature", "properties": {}, "geometry": {"type": "Point", "coordinates": [14.340875682209004, 40.841399970848]}}], "price": 2.159, "ultima_rilevazione": "15/06/2022 15:34:21"}, {"Gestore": "SANNINO PETROLI S.R.L. ", "Bandiera": "Pompe Bianche", "Tipo impianto": "Altro", "Indirizzo": "VIA A.MANZONI 72 80046", "Nome impianto": "SP PETROLI SAN GIORGIO", "Comune": "SAN GIORGIO A CREMANO", "idImpianto": 30477, "points": [{"type": "Feature", "properties": {}, "geometry": {"type": "Point", "coordinates": [14.343853182764065, 40.83596353231729]}}], "price": 2.039, "ultima_rilevazione": "15/06/2022 15:52:08"}, {"Gestore": "CLAJL DI DI MAIO GAETANO", "Bandiera": "Api-Ip", "Tipo impianto": "Altro", "Indirizzo": "VIA DELLA PACE  80040", "Nome impianto": "CLAJL DI DI MAIO GAETANO", "Comune": "SAN SEBASTIANO AL VESUVIO", "idImpianto": 15976, "points": [{"type": "Feature", "properties": {}, "geometry": {"type": "Point", "coordinates": [14.362389743328094, 40.8439104946054]}}], "price": 2.099, "ultima_rilevazione": "15/06/2022 17:15:11"}, {"Gestore": "PICCOLO FRANCESCO", "Bandiera": "Q8", "Tipo impianto": "Altro", "Indirizzo": "VIA SAC. BENEDETTO COZZOLINO 10 80056", "Nome impianto": "Q8", "Comune": "ERCOLANO", "idImpianto": 43948, "points": [{"type": "Feature", "properties": {}, "geometry": {"type": "Point", "coordinates": [14.357609565641384, 40.83115682467383]}}], "price": 2.099, "ultima_rilevazione": "15/06/2022 20:56:17"}, {"Gestore": "IP SERVICES S.R.L.", "Bandiera": "Api-Ip", "Tipo impianto": "Altro", "Indirizzo": "VIA EUROPA SNC 80040", "Nome impianto": "CERCOLA - EUROPA", "Comune": "CERCOLA", "idImpianto": 24256, "points": [{"type": "Feature", "properties": {}, "geometry": {"type": "Point", "coordinates": [14.356618775463176, 40.85036956684552]}}], "price": 2.039, "ultima_rilevazione": "16/06/2022 12:02:14"}, {"Gestore": "ROMANO LUCIA", "Bandiera": "Tamoil", "Tipo impianto": "Altro", "Indirizzo": "VIA EUROPA 26 80040", "Nome impianto": "TAMOIL di Romano Lucia", "Comune": "CERCOLA", "idImpianto": 34266, "points": [{"type": "Feature", "properties": {}, "geometry": {"type": "Point", "coordinates": [14.35477368832585, 40.85084286591616]}}], "price": 2.039, "ultima_rilevazione": "17/06/2022 07:46:09"}, {"Gestore": "NOCERINO RAFFAELE & FIGLI S.A.S. DI NOCERINO GIOVANNI", "Bandiera": "Agip Eni", "Tipo impianto": "Altro", "Indirizzo": "VIA MATTEOTTI 22 80040", "Nome impianto": "ENI NOCERINO ", "Comune": "SAN SEBASTIANO AL VESUVIO", "idImpianto": 15064, "points": [{"type": "Feature", "properties": {}, "geometry": {"type": "Point", "coordinates": [14.36795102209021, 40.84405217673461]}}], "price": 2.094, "ultima_rilevazione": "16/06/2022 15:52:55"}, {"Gestore": "SERVIZI & GESTIONI ITALIA S.R.L.", "Bandiera": "Q8", "Tipo impianto": "Altro", "Indirizzo": "VIA MANZONI  80046", "Nome impianto": "SAN GIORGIO A CREMANO VIA MANZONI", "Comune": "SAN GIORGIO A CREMANO", "idImpianto": 24046, "points": [{"type": "Feature", "properties": {}, "geometry": {"type": "Point", "coordinates": [14.342639841733558, 40.83816315925255]}}], "price": 2.039, "ultima_rilevazione": "17/06/2022 01:43:40"}], "3": [{"Gestore": "BENE DOMENICO S.R.L.", "Bandiera": "Agip Eni", "Tipo impianto": "Altro", "Indirizzo": "VIA GARIBALDI 85 80040", "Nome impianto": "ENI", "Comune": "POLLENA TROCCHIA", "idImpianto": 41900, "points": [{"type": "Feature", "properties": {}, "geometry": {"type": "Point", "coordinates": [14.372101351618769, 40.86402024469228]}}], "price": 1.694, "ultima_rilevazione": "05/11/2021 11:35:06"}, {"Gestore": "STAZIONE I.P. DI DE LUCA ALFONSO", "Bandiera": "Agip Eni", "Tipo impianto": "Altro", "Indirizzo": "Via gianturco 26 80046", "Nome impianto": "Stazione eni De LUCA ALFONSO", "Comune": "SAN GIORGIO A CREMANO", "idImpianto": 32177, "points": [{"type": "Feature", "properties": {}, "geometry": {"type": "Point", "coordinates": [14.342876389306412, 40.83164723763404]}}], "price": 2.214, "ultima_rilevazione": "11/06/2022 10:30:41"}, {"Gestore": "MADONNA GIUSEPPE", "Bandiera": "Energas", "Tipo impianto": "Altro", "Indirizzo": "VIA BENEDETTO COZZOLINO 66 80056", "Nome impianto": "ENERGAS", "Comune": "ERCOLANO", "idImpianto": 44395, "points": [{"type": "Feature", "properties": {}, "geometry": {"type": "Point", "coordinates": [14.356550574302672, 40.82674310725152]}}], "price": 2.229, "ultima_rilevazione": "16/06/2022 08:16:17"}, {"Gestore": "ZUCCHI S.N.C. DI ZUCCHI RAFFAELE E C.", "Bandiera": "Esso", "Tipo impianto": "Altro", "Indirizzo": "VIA ARCO 190 80048", "Nome impianto": "s.s.esso zucchi s.n.c.", "Comune": "SANT'ANASTASIA", "idImpianto": 22486, "points": [{"type": "Feature", "properties": {}, "geometry": {"type": "Point", "coordinates": [14.384150505065918, 40.86874861757096]}}], "price": 1.769, "ultima_rilevazione": "05/05/2022 09:56:33"}, {"Gestore": "AMENDOLA MAURIZIO", "Bandiera": "Pompe Bianche", "Tipo impianto": "Altro", "Indirizzo": "VIA MARIO PALERMO 53 80147", "Nome impianto": "MM Carburanti", "Comune": "NAPOLI", "idImpianto": 36133, "points": [{"type": "Feature", "properties": {}, "geometry": {"type": "Point", "coordinates": [14.321829378604887, 40.857455824856906]}}], "price": 2.009, "ultima_rilevazione": "11/06/2022 09:38:24"}, {"Gestore": "VITIELLO CIRO", "Bandiera": "Q8", "Tipo impianto": "Altro", "Indirizzo": "VIA DELLE REPUBBLICHE MARINARE 295 80146", "Nome impianto": "STAZIONE DI SERVIZIO Q8 di VITIELLO CIRO", "Comune": "NAPOLI", "idImpianto": 46689, "points": [{"type": "Feature", "properties": {}, "geometry": {"type": "Point", "coordinates": [14.315652205890729, 40.83684850871609]}}], "price": 2.129, "ultima_rilevazione": "11/06/2022 15:46:19"}, {"Gestore": "SCHERILLO GIOVANNI", "Bandiera": "Pompe Bianche", "Tipo impianto": "Altro", "Indirizzo": "largo arso 41 80046", "Nome impianto": "Unoil ( ex Esso )", "Comune": "SAN GIORGIO A CREMANO", "idImpianto": 36466, "points": [{"type": "Feature", "properties": {}, "geometry": {"type": "Point", "coordinates": [14.330108392620332, 40.82580604967606]}}], "price": 2.199, "ultima_rilevazione": "13/06/2022 07:52:06"}, {"Gestore": "DE FALCO MARIKA", "Bandiera": "Esso", "Tipo impianto": "Altro", "Indirizzo": "VIA DELLE REPUBBLICHE MARINARE 292  80146", "Nome impianto": "STAZIONE DI SERVIZIO ESSO", "Comune": "NAPOLI", "idImpianto": 45228, "points": [{"type": "Feature", "properties": {}, "geometry": {"type": "Point", "coordinates": [14.316577000123, 40.835269000123]}}], "price": 2.049, "ultima_rilevazione": "13/06/2022 11:58:07"}, {"Gestore": "FIORENTINO CARBURANTI S.A.S. DI FIORENTINO MARILENA", "Bandiera": "Q8", "Tipo impianto": "Altro", "Indirizzo": "via luigi volpicella 411 80142", "Nome impianto": "DISTRIBUTORE Q8", "Comune": "NAPOLI", "idImpianto": 48414, "points": [{"type": "Feature", "properties": {}, "geometry": {"type": "Point", "coordinates": [14.323330202083584, 40.84838010169506]}}], "price": 2.005, "ultima_rilevazione": "14/06/2022 07:22:22"}, {"Gestore": "MARANO E BORRELLI S.R.L.", "Bandiera": "Pompe Bianche", "Tipo impianto": "Altro", "Indirizzo": "VIA BARTOLO LONGO SNC 80147", "Nome impianto": "Ip V. Bartolo Longo", "Comune": "NAPOLI", "idImpianto": 39906, "points": [{"type": "Feature", "properties": {}, "geometry": {"type": "Point", "coordinates": [14.33407299220562, 40.8489176571844]}}], "price": 2.159, "ultima_rilevazione": "15/06/2022 12:39:58"}, {"Gestore": "LUCARELLA CAFFE'' S.R.L.", "Bandiera": "Esso", "Tipo impianto": "Altro", "Indirizzo": "VIA SAC. B. COZZOLINO 65 80056", "Nome impianto": "LUCARELLA SRL CARBURANTI", "Comune": "ERCOLANO", "idImpianto": 38830, "points": [{"type": "Feature", "properties": {}, "geometry": {"type": "Point", "coordinates": [14.366487488150597, 40.814823003077045]}}], "price": 2.089, "ultima_rilevazione": "15/06/2022 17:03:25"}, {"Gestore": "GENNY PETROLI DI SANTANASTASIA GENNARO S.A.S.", "Bandiera": "Total Erg", "Tipo impianto": "Altro", "Indirizzo": "VIA DELLE REPUBBLICHE MARINARE 0 80146", "Nome impianto": "ERG", "Comune": "NAPOLI", "idImpianto": 39068, "points": [{"type": "Feature", "properties": {}, "geometry": {"type": "Point", "coordinates": [14.319584369659424, 40.83308916199512]}}], "price": 2.099, "ultima_rilevazione": "15/06/2022 18:00:26"}, {"Gestore": "ST OIL S.R.L.", "Bandiera": "Pompe Bianche", "Tipo impianto": "Altro", "Indirizzo": "VIA DON MINZONI 7 80040", "Nome impianto": "ST OIL", "Comune": "CERCOLA", "idImpianto": 37106, "points": [{"type": "Feature", "properties": {}, "geometry": {"type": "Point", "coordinates": [14.356422415977477, 40.86312612982553]}}], "price": 2.049, "ultima_rilevazione": "15/06/2022 21:06:17"}, {"Gestore": "SERVIZI & GESTIONI ITALIA srl", "Bandiera": "Q8", "Tipo impianto": "Altro", "Indirizzo": "VIA DEGLI ULIVI SNC 80056", "Nome impianto": "ERCOLANO VIA DEGLI ULIVI", "Comune": "ERCOLANO", "idImpianto": 6702, "points": [{"type": "Feature", "properties": {}, "geometry": {"type": "Point", "coordinates": [14.356227699999977, 40.81446484078589]}}], "price": 2.089, "ultima_rilevazione": "16/06/2022 01:44:49"}, {"Gestore": "SERVIZI & GESTIONI ITALIA S.R.L.", "Bandiera": "Q8", "Tipo impianto": "Altro", "Indirizzo": "VIA REP. MARINARE  80146", "Nome impianto": "NAPOLI V.REP.MARINARE", "Comune": "NAPOLI", "idImpianto": 25792, "points": [{"type": "Feature", "properties": {}, "geometry": {"type": "Point", "coordinates": [14.31483351600798, 40.83676195375583]}}], "price": 2.099, "ultima_rilevazione": "16/06/2022 01:44:55"}, {"Gestore": "STAZIONE DI SERVIZIO M.Y.L.T.O.N. PETROLI DI MOSCA MICHELE", "Bandiera": "Total Erg", "Tipo impianto": "Altro", "Indirizzo": "VIA ABBEVERATOIO 19 80147", "Nome impianto": "STAZIONE DI SERVIZIO M.Y.L.T.O.N. PETROLI DI MOSCA MICHELE]", "Comune": "NAPOLI", "idImpianto": 14323, "points": [{"type": "Feature", "properties": {}, "geometry": {"type": "Point", "coordinates": [14.322363713491768, 40.84832334843441]}}], "price": 2.099, "ultima_rilevazione": "16/06/2022 09:31:03"}, {"Gestore": "ASCHETTINO DOMENICO", "Bandiera": "Esso", "Tipo impianto": "Altro", "Indirizzo": "VIA ARGINE 875 80147", "Nome impianto": "ESSO", "Comune": "NAPOLI", "idImpianto": 33559, "points": [{"type": "Feature", "properties": {}, "geometry": {"type": "Point", "coordinates": [14.33246299624443, 40.860406445681946]}}], "price": 2.029, "ultima_rilevazione": "16/06/2022 09:50:05"}, {"Gestore": "PENTA PETROLI SRL", "Bandiera": "Pompe Bianche", "Tipo impianto": "Altro", "Indirizzo": "VIA BOTEGHELLE SNC 80147", "Nome impianto": "EWA BOTTEGHELLE", "Comune": "NAPOLI", "idImpianto": 32722, "points": [{"type": "Feature", "properties": {}, "geometry": {"type": "Point", "coordinates": [14.329226911067964, 40.86575556895068]}}], "price": 2.039, "ultima_rilevazione": "16/06/2022 11:08:05"}, {"Gestore": "T.D.M. S.R.L.", "Bandiera": "Tamoil", "Tipo impianto": "Altro", "Indirizzo": "VIA ARGINE  8 80147", "Nome impianto": "8336", "Comune": "NAPOLI", "idImpianto": 41142, "points": [{"type": "Feature", "properties": {}, "geometry": {"type": "Point", "coordinates": [14.322723224759102, 40.85602661816269]}}], "price": 2.029, "ultima_rilevazione": "16/06/2022 11:22:15"}, {"Gestore": "IP SERVICES S.R.L.", "Bandiera": "Api-Ip", "Tipo impianto": "Altro", "Indirizzo": "S.S. 268 DEL VESUVIO KM. 1,149  80040", "Nome impianto": "POLLENA TROCCHIA", "Comune": "POLLENA TROCCHIA", "idImpianto": 39007, "points": [{"type": "Feature", "properties": {}, "geometry": {"type": "Point", "coordinates": [14.369633304368564, 40.870788608705766]}}], "price": 2.009, "ultima_rilevazione": "16/06/2022 12:04:29"}, {"Gestore": "VENUSO SALVATORE", "Bandiera": "Tamoil", "Tipo impianto": "Altro", "Indirizzo": "VIA LUIGI VOLPICELLA 208 80147", "Nome impianto": "Distributore Tamoil Impianto 8332", "Comune": "NAPOLI", "idImpianto": 13092, "points": [{"type": "Feature", "properties": {}, "geometry": {"type": "Point", "coordinates": [14.312672622965238, 40.84594326102288]}}], "price": 2.089, "ultima_rilevazione": "17/06/2022 07:36:04"}, {"Gestore": "N.D. CARBURANTI S.A.S. DI AGOSTINO NOCERINO", "Bandiera": "Agip Eni", "Tipo impianto": "Altro", "Indirizzo": "VIA ARMANDO DIAZ 45 80055", "Nome impianto": "ENI Station PORTICI", "Comune": "PORTICI", "idImpianto": 33969, "points": [{"type": "Feature", "properties": {}, "geometry": {"type": "Point", "coordinates": [14.335999553987676, 40.81948243070002]}}], "price": 2.259, "ultima_rilevazione": "16/06/2022 15:55:32"}, {"Gestore": "PALOMBA GIUSEPPE", "Bandiera": "Pompe Bianche", "Tipo impianto": "Altro", "Indirizzo": "via san vito 10 80056", "Nome impianto": "easyfuel", "Comune": "ERCOLANO", "idImpianto": 41168, "points": [{"type": "Feature", "properties": {}, "geometry": {"type": "Point", "coordinates": [14.36386029447749, 40.8190151939431]}}], "price": 2.099, "ultima_rilevazione": "16/06/2022 20:00:06"}, {"Gestore": "IP SERVICES S.R.L.", "Bandiera": "Api-Ip", "Tipo impianto": "Altro", "Indirizzo": "TRAVERSA VICINALE FOSSITELLI  80147", "Nome impianto": "NAPOLI - VICINALE FOSSITELLI", "Comune": "NAPOLI", "idImpianto": 33545, "points": [{"type": "Feature", "properties": {}, "geometry": {"type": "Point", "coordinates": [14.3144239067459, 40.8510773751301]}}], "price": 2.009, "ultima_rilevazione": "16/06/2022 23:02:37"}, {"Gestore": "IP SERVICES S.R.L.", "Bandiera": "Api-Ip", "Tipo impianto": "Altro", "Indirizzo": "via Volpicella 45 80147", "Nome impianto": "VOLPICELLA", "Comune": "NAPOLI", "idImpianto": 5531, "points": [{"type": "Feature", "properties": {}, "geometry": {"type": "Point", "coordinates": [14.32532441182775, 40.849239502862]}}], "price": 2.099, "ultima_rilevazione": "16/06/2022 23:04:55"}, {"Gestore": "3L PETROLI S.R.L.", "Bandiera": "Pompe Bianche", "Tipo impianto": "Altro", "Indirizzo": "VIA ANTONIO GRAMSCI 21 80056", "Nome impianto": "3L PETROLI SRL", "Comune": "ERCOLANO", "idImpianto": 50396, "points": [{"type": "Feature", "properties": {}, "geometry": {"type": "Point", "coordinates": [14.358969293479788, 40.81093159812765]}}], "price": 2.079, "ultima_rilevazione": "17/06/2022 07:03:26"}, {"Gestore": "SERVIZI & GESTIONI ITALIA S.R.L.", "Bandiera": "Q8", "Tipo impianto": "Altro", "Indirizzo": "VIA REPUBBLICHE MARINARE 392 80146", "Nome impianto": "NAPOLI-VIA REPUBBLICHE MARINARE 392", "Comune": "NAPOLI", "idImpianto": 11734, "points": [{"type": "Feature", "properties": {}, "geometry": {"type": "Point", "coordinates": [14.320937550926146, 40.831767528857256]}}], "price": 2.149, "ultima_rilevazione": "17/06/2022 07:07:03"}, {"Gestore": "BORRELLI RAFFAELE", "Bandiera": "Esso", "Tipo impianto": "Altro", "Indirizzo": "VIA C. DE MEIS 1 80147", "Nome impianto": "BORRELLI RAFFAELE", "Comune": "NAPOLI", "idImpianto": 12899, "points": [{"type": "Feature", "properties": {}, "geometry": {"type": "Point", "coordinates": [14.32946428656578, 40.85078302173115]}}], "price": 2.049, "ultima_rilevazione": "17/06/2022 08:00:01"}], "5": [{"Gestore": "ESPOSITO GIOVANNI", "Bandiera": "Api-Ip", "Tipo impianto": "Altro", "Indirizzo": "VIA G. MARCONI 53/55 80059", "Nome impianto": "DITTA ESPOSITO GIOVANNI", "Comune": "TORRE DEL GRECO", "idImpianto": 28062, "points": [{"type": "Feature", "properties": {}, "geometry": {"type": "Point", "coordinates": [14.372103118641917, 40.79390051824808]}}], "price": 2.119, "ultima_rilevazione": "15/06/2022 15:04:43"}, {"Gestore": "GESTION PETROL S.A.S. DI TUORTO DONATO & C.", "Bandiera": "Pompe Bianche", "Tipo impianto": "Altro", "Indirizzo": "VIA POMINTELLA 26 80049", "Nome impianto": "CARBURANTI TUORTO", "Comune": "SOMMA VESUVIANA", "idImpianto": 26792, "points": [{"type": "Feature", "properties": {}, "geometry": {"type": "Point", "coordinates": [14.42219012978967, 40.87058306749299]}}], "price": 2.129, "ultima_rilevazione": "30/04/2022 18:22:10"}, {"Gestore": "SC. OIL S.R.L.S.", "Bandiera": "Pompe Bianche", "Tipo impianto": "Altro", "Indirizzo": "VIA EMANUELE GIANTURCO  78 80146", "Nome impianto": "SC. OIL ", "Comune": "NAPOLI", "idImpianto": 41371, "points": [{"type": "Feature", "properties": {}, "geometry": {"type": "Point", "coordinates": [14.288355434862751, 40.84786299922204]}}], "price": 2.179, "ultima_rilevazione": "11/06/2022 16:44:00"}, {"Gestore": "DE LUCA LUIGI", "Bandiera": "Agip Eni", "Tipo impianto": "Altro", "Indirizzo": "VIA STADERA A POGGIOREALE  80143", "Nome impianto": "DE LUCA LUIGI", "Comune": "NAPOLI", "idImpianto": 35375, "points": [{"type": "Feature", "properties": {}, "geometry": {"type": "Point", "coordinates": [14.306204840540886, 40.874918260187705]}}], "price": 2.214, "ultima_rilevazione": "16/06/2022 09:12:15"}, {"Gestore": "P.C. CARBURANTI SRL", "Bandiera": "Pompe Bianche", "Tipo impianto": "Altro", "Indirizzo": "VIA GRAMSCI 9 80040", "Nome impianto": "Due Palme", "Comune": "VOLLA", "idImpianto": 50391, "points": [{"type": "Feature", "properties": {}, "geometry": {"type": "Point", "coordinates": [14.35425192117691, 40.8826127241879]}}], "price": 1.691, "ultima_rilevazione": "02/04/2022 16:42:27"}, {"Gestore": "B.G. PETROLI S.A.S. DI BORRIELLO VINCENZO & C.", "Bandiera": "Esso", "Tipo impianto": "Altro", "Indirizzo": "VIA PANORAMICA 97 80056", "Nome impianto": "B.G.PETROLI SAS", "Comune": "ERCOLANO", "idImpianto": 35860, "points": [{"type": "Feature", "properties": {}, "geometry": {"type": "Point", "coordinates": [14.357177761376988, 40.81022332802966]}}], "price": 1.859, "ultima_rilevazione": "03/05/2022 07:56:25"}, {"Gestore": "A.G. CARBURANTI S.R.L.S.", "Bandiera": "Pompe Bianche", "Tipo impianto": "Altro", "Indirizzo": "CORSO SAN GIOVANI A TEDUCCIO  904 80146", "Nome impianto": "SAN GIOVANNI", "Comune": "NAPOLI", "idImpianto": 50925, "points": [{"type": "Feature", "properties": {}, "geometry": {"type": "Point", "coordinates": [14.315750078909794, 40.82656931895564]}}], "price": 1.809, "ultima_rilevazione": "03/05/2022 10:11:39"}, {"Gestore": "ROMANO FELICE S.A.S. DI CARFORA ANTONIO E C.", "Bandiera": "Pompe Bianche", "Tipo impianto": "Altro", "Indirizzo": "VIA ROMANI N. 80 80048", "Nome impianto": "ROMANO PETROLI", "Comune": "SANT'ANASTASIA", "idImpianto": 44374, "points": [{"type": "Feature", "properties": {}, "geometry": {"type": "Point", "coordinates": [14.382682000123, 40.883796000123]}}], "price": 2.049, "ultima_rilevazione": "10/06/2022 19:24:40"}, {"Gestore": "DELTA PETROLI S.A.S. DI FELACO ANTONIO & C.", "Bandiera": "Api-Ip", "Tipo impianto": "Altro", "Indirizzo": "VIA FILICHITO TRAV. GARIBALDI SNC, 80040  ", "Nome impianto": "Delta Petroli (VOLLA)", "Comune": "VOLLA", "idImpianto": 20567, "points": [{"type": "Feature", "properties": {}, "geometry": {"type": "Point", "coordinates": [14.353720267025778, 40.88841550110374]}}], "price": 2.009, "ultima_rilevazione": "11/06/2022 07:46:48"}, {"Gestore": "DELTA PETROLI S.R.L.", "Bandiera": "Total Erg", "Tipo impianto": "Altro", "Indirizzo": "Via Cavallo snc 80059", "Nome impianto": "Ghepardoil (TDG)", "Comune": "TORRE DEL GRECO", "idImpianto": 28198, "points": [{"type": "Feature", "properties": {}, "geometry": {"type": "Point", "coordinates": [14.381765350699425, 40.78967721869456]}}], "price": 2.028, "ultima_rilevazione": "11/06/2022 07:48:14"}, {"Gestore": "E' - OIL GROUP S.R.L.", "Bandiera": "Pompe Bianche", "Tipo impianto": "Altro", "Indirizzo": "nazionale delle puglie 220 80100", "Nome impianto": "E-OIL (naz.puglie)", "Comune": "NAPOLI", "idImpianto": 40643, "points": [{"type": "Feature", "properties": {}, "geometry": {"type": "Point", "coordinates": [14.310928881168364, 40.87709724243798]}}], "price": 1.999, "ultima_rilevazione": "13/06/2022 12:05:31"}, {"Gestore": "GUSMAI NICOLETTA", "Bandiera": "GB Petroli", "Tipo impianto": "Altro", "Indirizzo": "CORSO S. GIOVANNI 223 80146", "Nome impianto": "GB PETROLI", "Comune": "NAPOLI", "idImpianto": 39219, "points": [{"type": "Feature", "properties": {}, "geometry": {"type": "Point", "coordinates": [14.302663040810558, 40.83623565210759]}}], "price": 2.038, "ultima_rilevazione": "13/06/2022 15:18:53"}, {"Gestore": "DISTRIBUZIONE CARBURANTI DI BALZAMO IMMACOLATA", "Bandiera": "Pompe Bianche", "Tipo impianto": "Altro", "Indirizzo": "VIA POMIGLIANO 73 80048", "Nome impianto": "DISTRIBUTORE CARBURANTI DI BALZAMO IMMACOLATA", "Comune": "SANT'ANASTASIA", "idImpianto": 45549, "points": [{"type": "Feature", "properties": {}, "geometry": {"type": "Point", "coordinates": [14.397179000123, 40.882655000123]}}], "price": 2.019, "ultima_rilevazione": "13/06/2022 15:49:01"}, {"Gestore": "MYLTON  S.R.L.", "Bandiera": "Pompe Bianche", "Tipo impianto": "Altro", "Indirizzo": "VIA ARGINE 336 80147", "Nome impianto": "MYLTON S.R.L.", "Comune": "NAPOLI", "idImpianto": 14328, "points": [{"type": "Feature", "properties": {}, "geometry": {"type": "Point", "coordinates": [14.309363812208176, 40.84985379511883]}}], "price": 1.999, "ultima_rilevazione": "14/06/2022 09:45:23"}, {"Gestore": "ZACCARO MARIA & C.  S.A.S.", "Bandiera": "Q8", "Tipo impianto": "Altro", "Indirizzo": "VIA DELLE REPUBBLICHE MARINARE  7/11 80147", "Nome impianto": "ZACCARO MARIA & C. SAS", "Comune": "NAPOLI", "idImpianto": 36261, "points": [{"type": "Feature", "properties": {}, "geometry": {"type": "Point", "coordinates": [14.30244217668644, 40.84555651635302]}}], "price": 2.099, "ultima_rilevazione": "14/06/2022 13:05:26"}, {"Gestore": "A.S.E. FUEL ENERGY GROUP S.R.L.", "Bandiera": "Pompe Bianche", "Tipo impianto": "Altro", "Indirizzo": "Via Pomigliano snc 80048", "Nome impianto": "ASE FUEL ENERGY GROUP SRL", "Comune": "SANT'ANASTASIA", "idImpianto": 20249, "points": [{"type": "Feature", "properties": {}, "geometry": {"type": "Point", "coordinates": [14.397529363632202, 40.88169408368984]}}], "price": 2.01, "ultima_rilevazione": "14/06/2022 21:26:39"}, {"Gestore": "E' - OIL GROUP S.R.L.", "Bandiera": "Pompe Bianche", "Tipo impianto": "Altro", "Indirizzo": "VIA Galileo Ferraris  119 80146", "Nome impianto": "E-OIL (Ferraris)", "Comune": "NAPOLI", "idImpianto": 40652, "points": [{"type": "Feature", "properties": {}, "geometry": {"type": "Point", "coordinates": [14.288941472768784, 40.84985744710176]}}], "price": 2.029, "ultima_rilevazione": "15/06/2022 06:56:40"}, {"Gestore": "DEL GATTO LUCA", "Bandiera": "Q8", "Tipo impianto": "Altro", "Indirizzo": "VIA GUGLIELMO MARCONI 61 80059", "Nome impianto": "Del Gatto Luca -Q8", "Comune": "TORRE DEL GRECO", "idImpianto": 35664, "points": [{"type": "Feature", "properties": {}, "geometry": {"type": "Point", "coordinates": [14.373119921634723, 40.79493791968526]}}], "price": 2.079, "ultima_rilevazione": "15/06/2022 08:26:19"}, {"Gestore": "BARBERIO CIRO", "Bandiera": "Pompe Bianche", "Tipo impianto": "Altro", "Indirizzo": "VIA PONTE DEI GRANILI 5 80146", "Nome impianto": "BFUELCARBURANTI di BARBERIO CIRO", "Comune": "NAPOLI", "idImpianto": 50375, "points": [{"type": "Feature", "properties": {}, "geometry": {"type": "Point", "coordinates": [14.29263822734356, 40.840508256893045]}}], "price": 2.079, "ultima_rilevazione": "15/06/2022 08:52:03"}, {"Gestore": "MG PETROLI SRL", "Bandiera": "Pompe Bianche", "Tipo impianto": "Altro", "Indirizzo": "Via ferrante imparato  251 80100", "Nome impianto": "MG PETROLI SRL", "Comune": "NAPOLI", "idImpianto": 38466, "points": [{"type": "Feature", "properties": {}, "geometry": {"type": "Point", "coordinates": [14.300307557191672, 40.84801174483866]}}], "price": 2.029, "ultima_rilevazione": "15/06/2022 12:10:16"}, {"Gestore": "ROMINO MASSIMO", "Bandiera": "Api-Ip", "Tipo impianto": "Altro", "Indirizzo": "VIA PANORAMICA 2 80056", "Nome impianto": "TOTALERG", "Comune": "ERCOLANO", "idImpianto": 38660, "points": [{"type": "Feature", "properties": {}, "geometry": {"type": "Point", "coordinates": [14.35413208808086, 40.80853514880448]}}], "price": 2.099, "ultima_rilevazione": "15/06/2022 15:41:34"}, {"Gestore": "SANNINO PETROLI S.R.L. ", "Bandiera": "Madogas Natural Energy", "Tipo impianto": "Altro", "Indirizzo": "VIA MARITTIMA 44 80055", "Nome impianto": "SP PETROLI -PORTICI", "Comune": "PORTICI", "idImpianto": 48824, "points": [{"type": "Feature", "properties": {}, "geometry": {"type": "Point", "coordinates": [14.33923977862085, 40.80719118511784]}}], "price": 2.039, "ultima_rilevazione": "15/06/2022 15:51:05"}, {"Gestore": "EASY SERVICE S.R.L.", "Bandiera": "Energas", "Tipo impianto": "Altro", "Indirizzo": "Via Monteoliveto SNC 80040", "Nome impianto": "Easy Service Volla", "Comune": "VOLLA", "idImpianto": 38715, "points": [{"type": "Feature", "properties": {}, "geometry": {"type": "Point", "coordinates": [14.356540516018867, 40.87540095229716]}}], "price": 1.995, "ultima_rilevazione": "15/06/2022 17:19:38"}, {"Gestore": "CAR.IO S.R.L.", "Bandiera": "Q8", "Tipo impianto": "Altro", "Indirizzo": "VIA DELLE PUGLIE 176/A 80026", "Nome impianto": "BENZINA - GASOLIO - HIQ CASORIA", "Comune": "CASORIA", "idImpianto": 29071, "points": [{"type": "Feature", "properties": {}, "geometry": {"type": "Point", "coordinates": [14.31901598762738, 40.883618858465454]}}], "price": 2.059, "ultima_rilevazione": "16/06/2022 18:50:53"}, {"Gestore": "EASY SERVICE S.R.L.", "Bandiera": "Energas", "Tipo impianto": "Altro", "Indirizzo": "Via Aveta  snc 80056", "Nome impianto": "Easy service Ercolano ", "Comune": "ERCOLANO", "idImpianto": 35680, "points": [{"type": "Feature", "properties": {}, "geometry": {"type": "Point", "coordinates": [14.358646720647812, 40.80844738718757]}}], "price": 2.099, "ultima_rilevazione": "15/06/2022 19:58:46"}, {"Gestore": "ACANFORA STEFANIA", "Bandiera": "Total Erg", "Tipo impianto": "Altro", "Indirizzo": "VIA MACELLO  80143", "Nome impianto": "acanfora stefania", "Comune": "NAPOLI", "idImpianto": 12555, "points": [{"type": "Feature", "properties": {}, "geometry": {"type": "Point", "coordinates": [14.293411170835611, 40.862960192370096]}}], "price": 2.099, "ultima_rilevazione": "15/06/2022 20:13:38"}, {"Gestore": "ACANFORA STEFANIA", "Bandiera": "Total Erg", "Tipo impianto": "Altro", "Indirizzo": "VIA MIRAGLIA ANG.P.ZZA ARABIA  80143", "Nome impianto": "acanfora stefania", "Comune": "NAPOLI", "idImpianto": 20622, "points": [{"type": "Feature", "properties": {}, "geometry": {"type": "Point", "coordinates": [14.294732338039807, 40.86439910023402]}}], "price": 2.099, "ultima_rilevazione": "15/06/2022 20:14:17"}, {"Gestore": "SERVIZI & GESTIONI ITALIA S.R.L.", "Bandiera": "Q8", "Tipo impianto": "Altro", "Indirizzo": "VIALE EUROPA 4 80048", "Nome impianto": "S.ANASTASIA VIALE EUROPA, 4", "Comune": "SANT'ANASTASIA", "idImpianto": 26104, "points": [{"type": "Feature", "properties": {}, "geometry": {"type": "Point", "coordinates": [14.40147303068852, 40.87199797928447]}}], "price": 2.085, "ultima_rilevazione": "16/06/2022 01:44:50"}, {"Gestore": "MASI VITO", "Bandiera": "Agip Eni", "Tipo impianto": "Altro", "Indirizzo": "VIA E.GIANTURCO 114 80142", "Nome impianto": "masi vito", "Comune": "NAPOLI", "idImpianto": 16846, "points": [{"type": "Feature", "properties": {}, "geometry": {"type": "Point", "coordinates": [14.288344113215317, 40.84787307234628]}}], "price": 2.069, "ultima_rilevazione": "16/06/2022 06:15:23"}, {"Gestore": "PICCOLO GROUP S.R.L.", "Bandiera": "Agip Eni", "Tipo impianto": "Altro", "Indirizzo": "S.S.162 dir Napoli Km 6+513  80040", "Nome impianto": "PICCOLO GROUP", "Comune": "POLLENA TROCCHIA", "idImpianto": 7526, "points": [{"type": "Feature", "properties": {}, "geometry": {"type": "Point", "coordinates": [14.371241382063545, 40.876544472375066]}}], "price": 2.039, "ultima_rilevazione": "16/06/2022 06:36:42"}, {"Gestore": "SOCIETA' CARBURANTI S.N.C. DI FLAUTO MARIA ANGELA", "Bandiera": "Esso", "Tipo impianto": "Altro", "Indirizzo": "VIA FILICHITO 133/135 80040", "Nome impianto": "societ\u00e0 carburanti snc di Flauto Maria", "Comune": "VOLLA", "idImpianto": 12910, "points": [{"type": "Feature", "properties": {}, "geometry": {"type": "Point", "coordinates": [14.351210296154022, 40.885577027124654]}}], "price": 2.029, "ultima_rilevazione": "16/06/2022 07:30:40"}, {"Gestore": "VB PETROLI DI VINCENZO BORRIELLO", "Bandiera": "Esso", "Tipo impianto": "Altro", "Indirizzo": "VIA CIRCUMVALLAZIONE 66 80059", "Nome impianto": "vb petroli", "Comune": "TORRE DEL GRECO", "idImpianto": 49084, "points": [{"type": "Feature", "properties": {}, "geometry": {"type": "Point", "coordinates": [14.371714065080177, 40.789573259869634]}}], "price": 2.029, "ultima_rilevazione": "16/06/2022 08:02:11"}, {"Gestore": "RICCIARDI GIACINTO", "Bandiera": "Agip Eni", "Tipo impianto": "Altro", "Indirizzo": "VIA LEOPARDI 30 80040", "Nome impianto": "eni", "Comune": "VOLLA", "idImpianto": 20441, "points": [{"type": "Feature", "properties": {}, "geometry": {"type": "Point", "coordinates": [14.339417601852348, 40.88026141875078]}}], "price": 2.069, "ultima_rilevazione": "16/06/2022 08:11:09"}, {"Gestore": "VESUVIANA PETROLI S.R.L.", "Bandiera": "Pompe Bianche", "Tipo impianto": "Altro", "Indirizzo": "VIA PATACCA  SNC 80056", "Nome impianto": "VESUVIANA PETROLI SRL ", "Comune": "ERCOLANO", "idImpianto": 47406, "points": [{"type": "Feature", "properties": {}, "geometry": {"type": "Point", "coordinates": [14.34814453125, 40.808092514169225]}}], "price": 2.058, "ultima_rilevazione": "16/06/2022 09:22:42"}, {"Gestore": "GRIMALDI CONCETTA", "Bandiera": "Agip Eni", "Tipo impianto": "Altro", "Indirizzo": "via stadera  80143", "Nome impianto": "ENI 08063", "Comune": "NAPOLI", "idImpianto": 48194, "points": [{"type": "Feature", "properties": {}, "geometry": {"type": "Point", "coordinates": [14.30035925986909, 40.87103647502646]}}], "price": 2.069, "ultima_rilevazione": "16/06/2022 10:01:00"}, {"Gestore": "PETROLJ - SOCIETA' A RESPONSABILITA' LIMITATA", "Bandiera": "Esso", "Tipo impianto": "Altro", "Indirizzo": "via Galileo Ferraris 128 80144", "Nome impianto": "Esso 6629", "Comune": "NAPOLI", "idImpianto": 33027, "points": [{"type": "Feature", "properties": {}, "geometry": {"type": "Point", "coordinates": [14.28947512925265, 40.84943369791054]}}], "price": 2.039, "ultima_rilevazione": "16/06/2022 10:20:44"}, {"Gestore": "PETROLCOR S.R.L.", "Bandiera": "Esso", "Tipo impianto": "Altro", "Indirizzo": "VIA LUFRANO 61 80040", "Nome impianto": "ESSO", "Comune": "VOLLA", "idImpianto": 43903, "points": [{"type": "Feature", "properties": {}, "geometry": {"type": "Point", "coordinates": [14.338231457672125, 40.88577506948254]}}], "price": 2.009, "ultima_rilevazione": "16/06/2022 13:47:29"}, {"Gestore": "P.PETROLI SRL", "Bandiera": "Pompe Bianche", "Tipo impianto": "Altro", "Indirizzo": "CORSO G. GARIBALDI SNC 80055", "Nome impianto": "P.PETROLI - Portici", "Comune": "PORTICI", "idImpianto": 47612, "points": [{"type": "Feature", "properties": {}, "geometry": {"type": "Point", "coordinates": [14.324789778647755, 40.82189479630672]}}], "price": 2.03, "ultima_rilevazione": "16/06/2022 14:09:39"}, {"Gestore": "ORGANIZZAZIONE SERVIZI AUTO - O.S.A. - S.P.A.", "Bandiera": "Esso", "Tipo impianto": "Altro", "Indirizzo": "VIA FERRANTE IMPARATO 451/457 80146", "Nome impianto": "ESSO - V.IMPARATO", "Comune": "NAPOLI", "idImpianto": 49000, "points": [{"type": "Feature", "properties": {}, "geometry": {"type": "Point", "coordinates": [14.298449404692333, 40.85789294565131]}}], "price": 2.099, "ultima_rilevazione": "16/06/2022 15:57:04"}, {"Gestore": "CARRARA PIETRO", "Bandiera": "Q8", "Tipo impianto": "Altro", "Indirizzo": "via emanuele gianturco frcv. 79 80142", "Nome impianto": "staz. servizio. q8 ", "Comune": "NAPOLI", "idImpianto": 17155, "points": [{"type": "Feature", "properties": {}, "geometry": {"type": "Point", "coordinates": [14.289340482265288, 40.85030685074771]}}], "price": 2.149, "ultima_rilevazione": "16/06/2022 16:04:48"}, {"Gestore": "A.D. FUEL - SOCIETA' A RESPONSABILITA' LIMITATA SEMPLIFICATA", "Bandiera": "MyOil", "Tipo impianto": "Altro", "Indirizzo": "via gianturco  100 80142", "Nome impianto": "my oil", "Comune": "NAPOLI", "idImpianto": 49044, "points": [{"type": "Feature", "properties": {}, "geometry": {"type": "Point", "coordinates": [14.28933217112653, 40.85128366053975]}}], "price": 2.025, "ultima_rilevazione": "16/06/2022 17:55:36"}, {"Gestore": "IP SERVICES S.R.L.", "Bandiera": "Api-Ip", "Tipo impianto": "Altro", "Indirizzo": "VIA FERRANTE IMPARATO 439 80146", "Nome impianto": "NAPOLI - FERRANTE IMPARATO", "Comune": "NAPOLI", "idImpianto": 30323, "points": [{"type": "Feature", "properties": {}, "geometry": {"type": "Point", "coordinates": [14.298689271163994, 40.85680811472159]}}], "price": 2.009, "ultima_rilevazione": "16/06/2022 23:01:33"}, {"Gestore": "IP SERVICES S.R.L.", "Bandiera": "Api-Ip", "Tipo impianto": "Altro", "Indirizzo": "VIA ARGINE 360 80100", "Nome impianto": "NAPOLI - ARGINE 360", "Comune": "NAPOLI", "idImpianto": 33373, "points": [{"type": "Feature", "properties": {}, "geometry": {"type": "Point", "coordinates": [14.311264157295229, 40.8505598461994]}}], "price": 2.099, "ultima_rilevazione": "16/06/2022 23:01:37"}, {"Gestore": "SERVIZI & GESTIONI ITALIA S.R.L.", "Bandiera": "Q8", "Tipo impianto": "Altro", "Indirizzo": "G. FERRARIS 172 80147", "Nome impianto": "NAPOLI G. FERRARIS 172", "Comune": "NAPOLI", "idImpianto": 26018, "points": [{"type": "Feature", "properties": {}, "geometry": {"type": "Point", "coordinates": [14.298712766270455, 40.84657667223769]}}], "price": 2.119, "ultima_rilevazione": "17/06/2022 01:43:44"}, {"Gestore": "SERVIZI & GESTIONI ITALIA S.R.L.", "Bandiera": "Q8", "Tipo impianto": "Altro", "Indirizzo": "VIA B. COZZOLINO 101 80056", "Nome impianto": "ERCOLANO VIA B. COZZOLINO, 101", "Comune": "ERCOLANO", "idImpianto": 25008, "points": [{"type": "Feature", "properties": {}, "geometry": {"type": "Point", "coordinates": [14.3705156583012, 40.80445606762352]}}], "price": 2.087, "ultima_rilevazione": "17/06/2022 01:43:47"}, {"Gestore": "MARINO ROSA", "Bandiera": "Pompe Bianche", "Tipo impianto": "Altro", "Indirizzo": "VIA STADERA A POGGIOREALE 76 80143", "Nome impianto": "Staroil", "Comune": "NAPOLI", "idImpianto": 36303, "points": [{"type": "Feature", "properties": {}, "geometry": {"type": "Point", "coordinates": [14.302085129695683, 40.87240924540136]}}], "price": 2.019, "ultima_rilevazione": "17/06/2022 07:22:03"}, {"Gestore": "LUCARELLA ROSA PETROLI", "Bandiera": "Esso", "Tipo impianto": "Altro", "Indirizzo": "via del commercio snc 80059", "Nome impianto": "stazione di servizio esso lucarella", "Comune": "TORRE DEL GRECO", "idImpianto": 12189, "points": [{"type": "Feature", "properties": {}, "geometry": {"type": "Point", "coordinates": [14.358681589365004, 40.79220939502857]}}], "price": 2.069, "ultima_rilevazione": "17/06/2022 07:53:25"}]}, "null": {}, "GPL": {"1": [{"Gestore": "CLAJL DI DI MAIO GAETANO", "Bandiera": "Pompe Bianche", "Tipo impianto": "Altro", "Indirizzo": "VIA DELLA PACE  80040", "Nome impianto": "CLAJL DI DI MAIO GAETANO", "Comune": "SAN SEBASTIANO AL VESUVIO", "idImpianto": 15980, "points": [{"type": "Feature", "properties": {}, "geometry": {"type": "Point", "coordinates": [14.362389743328094, 40.8439104946054]}}], "price": 0.785, "ultima_rilevazione": "15/06/2022 16:02:30"}], "3": [{"Gestore": "ECO TRADING AREA S.R.L. - DISTRIBUZIONE CARBURANTI ECOLOGICI", "Bandiera": "Pompe Bianche", "Tipo impianto": "Altro", "Indirizzo": "VIA SAC. B. COZZOLINO  80056", "Nome impianto": "ECO TRADING AREA SRL", "Comune": "ERCOLANO", "idImpianto": 14034, "points": [{"type": "Feature", "properties": {}, "geometry": {"type": "Point", "coordinates": [14.366668537259102, 40.81413078123835]}}], "price": 0.789, "ultima_rilevazione": "15/06/2022 08:22:05"}, {"Gestore": "ECO TRADING AREA S.R.L. - DISTRIBUZIONE CARBURANTI ECOLOGICI", "Bandiera": "Pompe Bianche", "Tipo impianto": "Altro", "Indirizzo": "VIA GARIBALDI 11 80040", "Nome impianto": "ECO TRADING AREA SRL", "Comune": "POLLENA TROCCHIA", "idImpianto": 14037, "points": [{"type": "Feature", "properties": {}, "geometry": {"type": "Point", "coordinates": [14.377052038908005, 40.86595719221165]}}], "price": 0.789, "ultima_rilevazione": "15/06/2022 08:22:50"}, {"Gestore": "B.OIL S.R.L.", "Bandiera": "Pompe Bianche", "Tipo impianto": "Altro", "Indirizzo": "VIA ARGINE 461 80147", "Nome impianto": "b.oil srl", "Comune": "NAPOLI", "idImpianto": 20970, "points": [{"type": "Feature", "properties": {}, "geometry": {"type": "Point", "coordinates": [14.314351379871368, 40.85272015344219]}}], "price": 0.785, "ultima_rilevazione": "16/06/2022 08:12:30"}], "5": [{"Gestore": "EASY SERVICE S.R.L.", "Bandiera": "Energas", "Tipo impianto": "Altro", "Indirizzo": "VIA SOMMA  SNC 80048", "Nome impianto": "ENERGAS SANT'ANASTASIA", "Comune": "SANT'ANASTASIA", "idImpianto": 34770, "points": [{"type": "Feature", "properties": {}, "geometry": {"type": "Point", "coordinates": [14.413231015205383, 40.8709703960546]}}], "price": 0.818, "ultima_rilevazione": "13/06/2022 13:45:20"}, {"Gestore": "EASY SERVICE S.R.L.", "Bandiera": "Energas", "Tipo impianto": "Altro", "Indirizzo": "Via Romani  120 80048", "Nome impianto": "Sant'Anastasia Via Romani ", "Comune": "SANT'ANASTASIA", "idImpianto": 35653, "points": [{"type": "Feature", "properties": {}, "geometry": {"type": "Point", "coordinates": [14.38184916973114, 40.88605883042506]}}], "price": 0.599, "ultima_rilevazione": "10/06/2022 15:31:49"}, {"Gestore": "DELTA PETROLI S.A.S. DI FELACO ANTONIO & C.", "Bandiera": "Api-Ip", "Tipo impianto": "Altro", "Indirizzo": "VIA FILICHITO TRAV. GARIBALDI SNC, 80040  ", "Nome impianto": "Delta Petroli (VOLLA)", "Comune": "VOLLA", "idImpianto": 20567, "points": [{"type": "Feature", "properties": {}, "geometry": {"type": "Point", "coordinates": [14.353720267025778, 40.88841550110374]}}], "price": 0.799, "ultima_rilevazione": "11/06/2022 07:46:48"}, {"Gestore": "CAR.IO S.R.L.", "Bandiera": "Pompe Bianche", "Tipo impianto": "Altro", "Indirizzo": "VIA DELLE PUGLIE 176/A 80026", "Nome impianto": "METANO / GPL CASORIA", "Comune": "CASORIA", "idImpianto": 5295, "points": [{"type": "Feature", "properties": {}, "geometry": {"type": "Point", "coordinates": [14.31889528822171, 40.883934189888485]}}], "price": 0.799, "ultima_rilevazione": "13/06/2022 12:15:48"}, {"Gestore": "GR CARBURANTI SRL", "Bandiera": "Pompe Bianche", "Tipo impianto": "Altro", "Indirizzo": "VIA VITTORIO EMANUELE SNC 80040", "Nome impianto": "GR CARBURANTI", "Comune": "VOLLA", "idImpianto": 31739, "points": [{"type": "Feature", "properties": {}, "geometry": {"type": "Point", "coordinates": [14.361075543815105, 40.876524406099456]}}], "price": 0.788, "ultima_rilevazione": "13/06/2022 14:01:25"}, {"Gestore": "A.S.E. FUEL ENERGY GROUP S.R.L.", "Bandiera": "Pompe Bianche", "Tipo impianto": "Altro", "Indirizzo": "Via Pomigliano snc 80048", "Nome impianto": "ASE FUEL ENERGY GROUP SRL", "Comune": "SANT'ANASTASIA", "idImpianto": 20249, "points": [{"type": "Feature", "properties": {}, "geometry": {"type": "Point", "coordinates": [14.397529363632202, 40.88169408368984]}}], "price": 0.818, "ultima_rilevazione": "14/06/2022 21:26:39"}, {"Gestore": "EASY SERVICE S.R.L.", "Bandiera": "Energas", "Tipo impianto": "Altro", "Indirizzo": "Via Monteoliveto SNC 80040", "Nome impianto": "Easy Service Volla", "Comune": "VOLLA", "idImpianto": 38715, "points": [{"type": "Feature", "properties": {}, "geometry": {"type": "Point", "coordinates": [14.356540516018867, 40.87540095229716]}}], "price": 0.785, "ultima_rilevazione": "15/06/2022 17:19:38"}, {"Gestore": "EASY SERVICE S.R.L.", "Bandiera": "Energas", "Tipo impianto": "Altro", "Indirizzo": "Via Aveta  snc 80056", "Nome impianto": "Easy service Ercolano ", "Comune": "ERCOLANO", "idImpianto": 35680, "points": [{"type": "Feature", "properties": {}, "geometry": {"type": "Point", "coordinates": [14.358646720647812, 40.80844738718757]}}], "price": 0.799, "ultima_rilevazione": "15/06/2022 19:58:46"}, {"Gestore": "PICCOLO GROUP S.R.L.", "Bandiera": "Agip Eni", "Tipo impianto": "Altro", "Indirizzo": "S.S.162 dir Napoli Km 6+513  80040", "Nome impianto": "PICCOLO GROUP", "Comune": "POLLENA TROCCHIA", "idImpianto": 7526, "points": [{"type": "Feature", "properties": {}, "geometry": {"type": "Point", "coordinates": [14.371241382063545, 40.876544472375066]}}], "price": 0.819, "ultima_rilevazione": "16/06/2022 06:36:42"}, {"Gestore": "RICCIARDI GIACINTO", "Bandiera": "Agip Eni", "Tipo impianto": "Altro", "Indirizzo": "VIA LEOPARDI 30 80040", "Nome impianto": "eni", "Comune": "VOLLA", "idImpianto": 20441, "points": [{"type": "Feature", "properties": {}, "geometry": {"type": "Point", "coordinates": [14.339417601852348, 40.88026141875078]}}], "price": 0.792, "ultima_rilevazione": "16/06/2022 08:11:09"}, {"Gestore": "VESUVIANA PETROLI S.R.L.", "Bandiera": "Pompe Bianche", "Tipo impianto": "Altro", "Indirizzo": "VIA PATACCA  SNC 80056", "Nome impianto": "VESUVIANA PETROLI SRL ", "Comune": "ERCOLANO", "idImpianto": 47406, "points": [{"type": "Feature", "properties": {}, "geometry": {"type": "Point", "coordinates": [14.34814453125, 40.808092514169225]}}], "price": 0.785, "ultima_rilevazione": "16/06/2022 09:22:42"}, {"Gestore": "PETROLCOR S.R.L.", "Bandiera": "Esso", "Tipo impianto": "Altro", "Indirizzo": "VIA LUFRANO 61 80040", "Nome impianto": "ESSO", "Comune": "VOLLA", "idImpianto": 43903, "points": [{"type": "Feature", "properties": {}, "geometry": {"type": "Point", "coordinates": [14.338231457672125, 40.88577506948254]}}], "price": 0.799, "ultima_rilevazione": "16/06/2022 13:47:29"}, {"Gestore": "LUCARELLA ROSA PETROLI", "Bandiera": "Esso", "Tipo impianto": "Altro", "Indirizzo": "via del commercio snc 80059", "Nome impianto": "stazione di servizio esso lucarella", "Comune": "TORRE DEL GRECO", "idImpianto": 12189, "points": [{"type": "Feature", "properties": {}, "geometry": {"type": "Point", "coordinates": [14.358681589365004, 40.79220939502857]}}], "price": 0.799, "ultima_rilevazione": "17/06/2022 07:53:25"}]}, "Gasolio": {"1": [{"Gestore": "A 5 PETROLI S.R.L.", "Bandiera": "Pompe Bianche", "Tipo impianto": "Altro", "Indirizzo": "VIA SACERDOTE B. COZZOLINO SNC 80056", "Nome impianto": "A5", "Comune": "ERCOLANO", "idImpianto": 14708, "points": [{"type": "Feature", "properties": {}, "geometry": {"type": "Point", "coordinates": [14.360169544816015, 40.83495010160629]}}], "price": 1.749, "ultima_rilevazione": "14/06/2022 12:51:22"}, {"Gestore": "ZEUS PETROL SOCIETA' A RESPONSABILITA' LIMITATA", "Bandiera": "Pompe Bianche", "Tipo impianto": "Altro", "Indirizzo": "VIA LIBERTA' 47 80040", "Nome impianto": "ZEUS PETROL S.R.L", "Comune": "SAN SEBASTIANO AL VESUVIO", "idImpianto": 42447, "points": [{"type": "Feature", "properties": {}, "geometry": {"type": "Point", "coordinates": [14.361203682208952, 40.84813394210836]}}], "price": 1.999, "ultima_rilevazione": "14/06/2022 07:30:57"}, {"Gestore": "MARANO E BORRELLI S.R.L.", "Bandiera": "Api-Ip", "Tipo impianto": "Altro", "Indirizzo": "VIA BARTOLO LONGO ANGOLO V. MORMONE 347 80147", "Nome impianto": "IP B.LONGO ANGOLO V. MORMONE", "Comune": "NAPOLI", "idImpianto": 43420, "points": [{"type": "Feature", "properties": {}, "geometry": {"type": "Point", "coordinates": [14.340875682209004, 40.841399970848]}}], "price": 2.039, "ultima_rilevazione": "15/06/2022 15:34:21"}, {"Gestore": "SANNINO PETROLI S.R.L. ", "Bandiera": "Pompe Bianche", "Tipo impianto": "Altro", "Indirizzo": "VIA A.MANZONI 72 80046", "Nome impianto": "SP PETROLI SAN GIORGIO", "Comune": "SAN GIORGIO A CREMANO", "idImpianto": 30477, "points": [{"type": "Feature", "properties": {}, "geometry": {"type": "Point", "coordinates": [14.343853182764065, 40.83596353231729]}}], "price": 1.979, "ultima_rilevazione": "15/06/2022 15:52:08"}, {"Gestore": "CLAJL DI DI MAIO GAETANO", "Bandiera": "Api-Ip", "Tipo impianto": "Altro", "Indirizzo": "VIA DELLA PACE  80040", "Nome impianto": "CLAJL DI DI MAIO GAETANO", "Comune": "SAN SEBASTIANO AL VESUVIO", "idImpianto": 15976, "points": [{"type": "Feature", "properties": {}, "geometry": {"type": "Point", "coordinates": [14.362389743328094, 40.8439104946054]}}], "price": 2.039, "ultima_rilevazione": "15/06/2022 17:15:11"}, {"Gestore": "PICCOLO FRANCESCO", "Bandiera": "Q8", "Tipo impianto": "Altro", "Indirizzo": "VIA SAC. BENEDETTO COZZOLINO 10 80056", "Nome impianto": "Q8", "Comune": "ERCOLANO", "idImpianto": 43948, "points": [{"type": "Feature", "properties": {}, "geometry": {"type": "Point", "coordinates": [14.357609565641384, 40.83115682467383]}}], "price": 1.999, "ultima_rilevazione": "15/06/2022 20:56:17"}, {"Gestore": "IP SERVICES S.R.L.", "Bandiera": "Api-Ip", "Tipo impianto": "Altro", "Indirizzo": "VIA EUROPA SNC 80040", "Nome impianto": "CERCOLA - EUROPA", "Comune": "CERCOLA", "idImpianto": 24256, "points": [{"type": "Feature", "properties": {}, "geometry": {"type": "Point", "coordinates": [14.356618775463176, 40.85036956684552]}}], "price": 1.999, "ultima_rilevazione": "16/06/2022 12:02:14"}, {"Gestore": "ROMANO LUCIA", "Bandiera": "Tamoil", "Tipo impianto": "Altro", "Indirizzo": "VIA EUROPA 26 80040", "Nome impianto": "TAMOIL di Romano Lucia", "Comune": "CERCOLA", "idImpianto": 34266, "points": [{"type": "Feature", "properties": {}, "geometry": {"type": "Point", "coordinates": [14.35477368832585, 40.85084286591616]}}], "price": 2.009, "ultima_rilevazione": "17/06/2022 07:46:09"}, {"Gestore": "NOCERINO RAFFAELE & FIGLI S.A.S. DI NOCERINO GIOVANNI", "Bandiera": "Agip Eni", "Tipo impianto": "Altro", "Indirizzo": "VIA MATTEOTTI 22 80040", "Nome impianto": "ENI NOCERINO ", "Comune": "SAN SEBASTIANO AL VESUVIO", "idImpianto": 15064, "points": [{"type": "Feature", "properties": {}, "geometry": {"type": "Point", "coordinates": [14.36795102209021, 40.84405217673461]}}], "price": 1.999, "ultima_rilevazione": "16/06/2022 15:52:55"}, {"Gestore": "SERVIZI & GESTIONI ITALIA S.R.L.", "Bandiera": "Q8", "Tipo impianto": "Altro", "Indirizzo": "VIA MANZONI  80046", "Nome impianto": "SAN GIORGIO A CREMANO VIA MANZONI", "Comune": "SAN GIORGIO A CREMANO", "idImpianto": 24046, "points": [{"type": "Feature", "properties": {}, "geometry": {"type": "Point", "coordinates": [14.342639841733558, 40.83816315925255]}}], "price": 1.986, "ultima_rilevazione": "17/06/2022 01:43:40"}], "3": [{"Gestore": "BENE DOMENICO S.R.L.", "Bandiera": "Agip Eni", "Tipo impianto": "Altro", "Indirizzo": "VIA GARIBALDI 85 80040", "Nome impianto": "ENI", "Comune": "POLLENA TROCCHIA", "idImpianto": 41900, "points": [{"type": "Feature", "properties": {}, "geometry": {"type": "Point", "coordinates": [14.372101351618769, 40.86402024469228]}}], "price": 1.574, "ultima_rilevazione": "05/11/2021 11:35:06"}, {"Gestore": "STAZIONE I.P. DI DE LUCA ALFONSO", "Bandiera": "Agip Eni", "Tipo impianto": "Altro", "Indirizzo": "Via gianturco 26 80046", "Nome impianto": "Stazione eni De LUCA ALFONSO", "Comune": "SAN GIORGIO A CREMANO", "idImpianto": 32177, "points": [{"type": "Feature", "properties": {}, "geometry": {"type": "Point", "coordinates": [14.342876389306412, 40.83164723763404]}}], "price": 2.244, "ultima_rilevazione": "11/06/2022 10:30:41"}, {"Gestore": "MADONNA GIUSEPPE", "Bandiera": "Energas", "Tipo impianto": "Altro", "Indirizzo": "VIA BENEDETTO COZZOLINO 66 80056", "Nome impianto": "ENERGAS", "Comune": "ERCOLANO", "idImpianto": 44395, "points": [{"type": "Feature", "properties": {}, "geometry": {"type": "Point", "coordinates": [14.356550574302672, 40.82674310725152]}}], "price": 2.229, "ultima_rilevazione": "16/06/2022 08:16:17"}, {"Gestore": "ZUCCHI S.N.C. DI ZUCCHI RAFFAELE E C.", "Bandiera": "Esso", "Tipo impianto": "Altro", "Indirizzo": "VIA ARCO 190 80048", "Nome impianto": "s.s.esso zucchi s.n.c.", "Comune": "SANT'ANASTASIA", "idImpianto": 22486, "points": [{"type": "Feature", "properties": {}, "geometry": {"type": "Point", "coordinates": [14.384150505065918, 40.86874861757096]}}], "price": 1.799, "ultima_rilevazione": "05/05/2022 09:56:33"}, {"Gestore": "AMENDOLA MAURIZIO", "Bandiera": "Pompe Bianche", "Tipo impianto": "Altro", "Indirizzo": "VIA MARIO PALERMO 53 80147", "Nome impianto": "MM Carburanti", "Comune": "NAPOLI", "idImpianto": 36133, "points": [{"type": "Feature", "properties": {}, "geometry": {"type": "Point", "coordinates": [14.321829378604887, 40.857455824856906]}}], "price": 1.939, "ultima_rilevazione": "11/06/2022 09:38:24"}, {"Gestore": "VITIELLO CIRO", "Bandiera": "Q8", "Tipo impianto": "Altro", "Indirizzo": "VIA DELLE REPUBBLICHE MARINARE 295 80146", "Nome impianto": "STAZIONE DI SERVIZIO Q8 di VITIELLO CIRO", "Comune": "NAPOLI", "idImpianto": 46689, "points": [{"type": "Feature", "properties": {}, "geometry": {"type": "Point", "coordinates": [14.315652205890729, 40.83684850871609]}}], "price": 2.019, "ultima_rilevazione": "11/06/2022 15:46:19"}, {"Gestore": "SCHERILLO GIOVANNI", "Bandiera": "Pompe Bianche", "Tipo impianto": "Altro", "Indirizzo": "largo arso 41 80046", "Nome impianto": "Unoil ( ex Esso )", "Comune": "SAN GIORGIO A CREMANO", "idImpianto": 36466, "points": [{"type": "Feature", "properties": {}, "geometry": {"type": "Point", "coordinates": [14.330108392620332, 40.82580604967606]}}], "price": 2.099, "ultima_rilevazione": "13/06/2022 07:52:06"}, {"Gestore": "DE FALCO MARIKA", "Bandiera": "Esso", "Tipo impianto": "Altro", "Indirizzo": "VIA DELLE REPUBBLICHE MARINARE 292  80146", "Nome impianto": "STAZIONE DI SERVIZIO ESSO", "Comune": "NAPOLI", "idImpianto": 45228, "points": [{"type": "Feature", "properties": {}, "geometry": {"type": "Point", "coordinates": [14.316577000123, 40.835269000123]}}], "price": 1.969, "ultima_rilevazione": "13/06/2022 11:58:07"}, {"Gestore": "FIORENTINO CARBURANTI S.A.S. DI FIORENTINO MARILENA", "Bandiera": "Q8", "Tipo impianto": "Altro", "Indirizzo": "via luigi volpicella 411 80142", "Nome impianto": "DISTRIBUTORE Q8", "Comune": "NAPOLI", "idImpianto": 48414, "points": [{"type": "Feature", "properties": {}, "geometry": {"type": "Point", "coordinates": [14.323330202083584, 40.84838010169506]}}], "price": 1.949, "ultima_rilevazione": "14/06/2022 07:22:22"}, {"Gestore": "MARANO E BORRELLI S.R.L.", "Bandiera": "Pompe Bianche", "Tipo impianto": "Altro", "Indirizzo": "VIA BARTOLO LONGO SNC 80147", "Nome impianto": "Ip V. Bartolo Longo", "Comune": "NAPOLI", "idImpianto": 39906, "points": [{"type": "Feature", "properties": {}, "geometry": {"type": "Point", "coordinates": [14.33407299220562, 40.8489176571844]}}], "price": 2.039, "ultima_rilevazione": "15/06/2022 12:39:58"}, {"Gestore": "LUCARELLA CAFFE'' S.R.L.", "Bandiera": "Esso", "Tipo impianto": "Altro", "Indirizzo": "VIA SAC. B. COZZOLINO 65 80056", "Nome impianto": "LUCARELLA SRL CARBURANTI", "Comune": "ERCOLANO", "idImpianto": 38830, "points": [{"type": "Feature", "properties": {}, "geometry": {"type": "Point", "coordinates": [14.366487488150597, 40.814823003077045]}}], "price": 1.999, "ultima_rilevazione": "15/06/2022 17:03:25"}, {"Gestore": "GENNY PETROLI DI SANTANASTASIA GENNARO S.A.S.", "Bandiera": "Total Erg", "Tipo impianto": "Altro", "Indirizzo": "VIA DELLE REPUBBLICHE MARINARE 0 80146", "Nome impianto": "ERG", "Comune": "NAPOLI", "idImpianto": 39068, "points": [{"type": "Feature", "properties": {}, "geometry": {"type": "Point", "coordinates": [14.319584369659424, 40.83308916199512]}}], "price": 1.999, "ultima_rilevazione": "15/06/2022 18:00:26"}, {"Gestore": "ST OIL S.R.L.", "Bandiera": "Pompe Bianche", "Tipo impianto": "Altro", "Indirizzo": "VIA DON MINZONI 7 80040", "Nome impianto": "ST OIL", "Comune": "CERCOLA", "idImpianto": 37106, "points": [{"type": "Feature", "properties": {}, "geometry": {"type": "Point", "coordinates": [14.356422415977477, 40.86312612982553]}}], "price": 1.999, "ultima_rilevazione": "15/06/2022 21:06:17"}, {"Gestore": "SERVIZI & GESTIONI ITALIA srl", "Bandiera": "Q8", "Tipo impianto": "Altro", "Indirizzo": "VIA DEGLI ULIVI SNC 80056", "Nome impianto": "ERCOLANO VIA DEGLI ULIVI", "Comune": "ERCOLANO", "idImpianto": 6702, "points": [{"type": "Feature", "properties": {}, "geometry": {"type": "Point", "coordinates": [14.356227699999977, 40.81446484078589]}}], "price": 1.999, "ultima_rilevazione": "16/06/2022 01:44:49"}, {"Gestore": "SERVIZI & GESTIONI ITALIA S.R.L.", "Bandiera": "Q8", "Tipo impianto": "Altro", "Indirizzo": "VIA REP. MARINARE  80146", "Nome impianto": "NAPOLI V.REP.MARINARE", "Comune": "NAPOLI", "idImpianto": 25792, "points": [{"type": "Feature", "properties": {}, "geometry": {"type": "Point", "coordinates": [14.31483351600798, 40.83676195375583]}}], "price": 1.989, "ultima_rilevazione": "16/06/2022 01:44:55"}, {"Gestore": "STAZIONE DI SERVIZIO M.Y.L.T.O.N. PETROLI DI MOSCA MICHELE", "Bandiera": "Total Erg", "Tipo impianto": "Altro", "Indirizzo": "VIA ABBEVERATOIO 19 80147", "Nome impianto": "STAZIONE DI SERVIZIO M.Y.L.T.O.N. PETROLI DI MOSCA MICHELE]", "Comune": "NAPOLI", "idImpianto": 14323, "points": [{"type": "Feature", "properties": {}, "geometry": {"type": "Point", "coordinates": [14.322363713491768, 40.84832334843441]}}], "price": 1.999, "ultima_rilevazione": "16/06/2022 09:31:03"}, {"Gestore": "ASCHETTINO DOMENICO", "Bandiera": "Esso", "Tipo impianto": "Altro", "Indirizzo": "VIA ARGINE 875 80147", "Nome impianto": "ESSO", "Comune": "NAPOLI", "idImpianto": 33559, "points": [{"type": "Feature", "properties": {}, "geometry": {"type": "Point", "coordinates": [14.33246299624443, 40.860406445681946]}}], "price": 1.969, "ultima_rilevazione": "16/06/2022 09:50:05"}, {"Gestore": "PENTA PETROLI SRL", "Bandiera": "Pompe Bianche", "Tipo impianto": "Altro", "Indirizzo": "VIA BOTEGHELLE SNC 80147", "Nome impianto": "EWA BOTTEGHELLE", "Comune": "NAPOLI", "idImpianto": 32722, "points": [{"type": "Feature", "properties": {}, "geometry": {"type": "Point", "coordinates": [14.329226911067964, 40.86575556895068]}}], "price": 1.974, "ultima_rilevazione": "16/06/2022 11:08:05"}, {"Gestore": "T.D.M. S.R.L.", "Bandiera": "Tamoil", "Tipo impianto": "Altro", "Indirizzo": "VIA ARGINE  8 80147", "Nome impianto": "8336", "Comune": "NAPOLI", "idImpianto": 41142, "points": [{"type": "Feature", "properties": {}, "geometry": {"type": "Point", "coordinates": [14.322723224759102, 40.85602661816269]}}], "price": 2.019, "ultima_rilevazione": "16/06/2022 11:22:15"}, {"Gestore": "IP SERVICES S.R.L.", "Bandiera": "Api-Ip", "Tipo impianto": "Altro", "Indirizzo": "S.S. 268 DEL VESUVIO KM. 1,149  80040", "Nome impianto": "POLLENA TROCCHIA", "Comune": "POLLENA TROCCHIA", "idImpianto": 39007, "points": [{"type": "Feature", "properties": {}, "geometry": {"type": "Point", "coordinates": [14.369633304368564, 40.870788608705766]}}], "price": 1.959, "ultima_rilevazione": "16/06/2022 12:04:29"}, {"Gestore": "N.D. CARBURANTI S.A.S. DI AGOSTINO NOCERINO", "Bandiera": "Agip Eni", "Tipo impianto": "Altro", "Indirizzo": "VIA ARMANDO DIAZ 45 80055", "Nome impianto": "ENI Station PORTICI", "Comune": "PORTICI", "idImpianto": 33969, "points": [{"type": "Feature", "properties": {}, "geometry": {"type": "Point", "coordinates": [14.335999553987676, 40.81948243070002]}}], "price": 2.209, "ultima_rilevazione": "16/06/2022 15:55:32"}, {"Gestore": "PALOMBA GIUSEPPE", "Bandiera": "Pompe Bianche", "Tipo impianto": "Altro", "Indirizzo": "via san vito 10 80056", "Nome impianto": "easyfuel", "Comune": "ERCOLANO", "idImpianto": 41168, "points": [{"type": "Feature", "properties": {}, "geometry": {"type": "Point", "coordinates": [14.36386029447749, 40.8190151939431]}}], "price": 2.049, "ultima_rilevazione": "16/06/2022 20:00:06"}, {"Gestore": "VENUSO SALVATORE", "Bandiera": "Tamoil", "Tipo impianto": "Altro", "Indirizzo": "VIA LUIGI VOLPICELLA 208 80147", "Nome impianto": "Distributore Tamoil Impianto 8332", "Comune": "NAPOLI", "idImpianto": 13092, "points": [{"type": "Feature", "properties": {}, "geometry": {"type": "Point", "coordinates": [14.312672622965238, 40.84594326102288]}}], "price": 2.059, "ultima_rilevazione": "17/06/2022 07:36:04"}, {"Gestore": "IP SERVICES S.R.L.", "Bandiera": "Api-Ip", "Tipo impianto": "Altro", "Indirizzo": "TRAVERSA VICINALE FOSSITELLI  80147", "Nome impianto": "NAPOLI - VICINALE FOSSITELLI", "Comune": "NAPOLI", "idImpianto": 33545, "points": [{"type": "Feature", "properties": {}, "geometry": {"type": "Point", "coordinates": [14.3144239067459, 40.8510773751301]}}], "price": 1.999, "ultima_rilevazione": "16/06/2022 23:02:37"}, {"Gestore": "IP SERVICES S.R.L.", "Bandiera": "Api-Ip", "Tipo impianto": "Altro", "Indirizzo": "via Volpicella 45 80147", "Nome impianto": "VOLPICELLA", "Comune": "NAPOLI", "idImpianto": 5531, "points": [{"type": "Feature", "properties": {}, "geometry": {"type": "Point", "coordinates": [14.32532441182775, 40.849239502862]}}], "price": 1.999, "ultima_rilevazione": "16/06/2022 23:04:55"}, {"Gestore": "3L PETROLI S.R.L.", "Bandiera": "Pompe Bianche", "Tipo impianto": "Altro", "Indirizzo": "VIA ANTONIO GRAMSCI 21 80056", "Nome impianto": "3L PETROLI SRL", "Comune": "ERCOLANO", "idImpianto": 50396, "points": [{"type": "Feature", "properties": {}, "geometry": {"type": "Point", "coordinates": [14.358969293479788, 40.81093159812765]}}], "price": 1.989, "ultima_rilevazione": "17/06/2022 07:03:26"}, {"Gestore": "SERVIZI & GESTIONI ITALIA S.R.L.", "Bandiera": "Q8", "Tipo impianto": "Altro", "Indirizzo": "VIA REPUBBLICHE MARINARE 392 80146", "Nome impianto": "NAPOLI-VIA REPUBBLICHE MARINARE 392", "Comune": "NAPOLI", "idImpianto": 11734, "points": [{"type": "Feature", "properties": {}, "geometry": {"type": "Point", "coordinates": [14.320937550926146, 40.831767528857256]}}], "price": 2.029, "ultima_rilevazione": "17/06/2022 07:07:03"}, {"Gestore": "BORRELLI RAFFAELE", "Bandiera": "Esso", "Tipo impianto": "Altro", "Indirizzo": "VIA C. DE MEIS 1 80147", "Nome impianto": "BORRELLI RAFFAELE", "Comune": "NAPOLI", "idImpianto": 12899, "points": [{"type": "Feature", "properties": {}, "geometry": {"type": "Point", "coordinates": [14.32946428656578, 40.85078302173115]}}], "price": 2.009, "ultima_rilevazione": "17/06/2022 08:00:01"}], "5": [{"Gestore": "ESPOSITO GIOVANNI", "Bandiera": "Api-Ip", "Tipo impianto": "Altro", "Indirizzo": "VIA G. MARCONI 53/55 80059", "Nome impianto": "DITTA ESPOSITO GIOVANNI", "Comune": "TORRE DEL GRECO", "idImpianto": 28062, "points": [{"type": "Feature", "properties": {}, "geometry": {"type": "Point", "coordinates": [14.372103118641917, 40.79390051824808]}}], "price": 2.129, "ultima_rilevazione": "15/06/2022 15:04:43"}, {"Gestore": "SC. OIL S.R.L.S.", "Bandiera": "Pompe Bianche", "Tipo impianto": "Altro", "Indirizzo": "VIA EMANUELE GIANTURCO  78 80146", "Nome impianto": "SC. OIL ", "Comune": "NAPOLI", "idImpianto": 41371, "points": [{"type": "Feature", "properties": {}, "geometry": {"type": "Point", "coordinates": [14.288355434862751, 40.84786299922204]}}], "price": 2.269, "ultima_rilevazione": "11/06/2022 16:44:00"}, {"Gestore": "DE LUCA LUIGI", "Bandiera": "Agip Eni", "Tipo impianto": "Altro", "Indirizzo": "VIA STADERA A POGGIOREALE  80143", "Nome impianto": "DE LUCA LUIGI", "Comune": "NAPOLI", "idImpianto": 35375, "points": [{"type": "Feature", "properties": {}, "geometry": {"type": "Point", "coordinates": [14.306204840540886, 40.874918260187705]}}], "price": 2.184, "ultima_rilevazione": "16/06/2022 09:12:15"}, {"Gestore": "P.C. CARBURANTI SRL", "Bandiera": "Pompe Bianche", "Tipo impianto": "Altro", "Indirizzo": "VIA GRAMSCI 9 80040", "Nome impianto": "Due Palme", "Comune": "VOLLA", "idImpianto": 50391, "points": [{"type": "Feature", "properties": {}, "geometry": {"type": "Point", "coordinates": [14.35425192117691, 40.8826127241879]}}], "price": 1.71, "ultima_rilevazione": "02/04/2022 16:42:27"}, {"Gestore": "GESTION PETROL S.A.S. DI TUORTO DONATO & C.", "Bandiera": "Pompe Bianche", "Tipo impianto": "Altro", "Indirizzo": "VIA POMINTELLA 26 80049", "Nome impianto": "CARBURANTI TUORTO", "Comune": "SOMMA VESUVIANA", "idImpianto": 26792, "points": [{"type": "Feature", "properties": {}, "geometry": {"type": "Point", "coordinates": [14.42219012978967, 40.87058306749299]}}], "price": 1.839, "ultima_rilevazione": "30/04/2022 18:22:10"}, {"Gestore": "B.G. PETROLI S.A.S. DI BORRIELLO VINCENZO & C.", "Bandiera": "Esso", "Tipo impianto": "Altro", "Indirizzo": "VIA PANORAMICA 97 80056", "Nome impianto": "B.G.PETROLI SAS", "Comune": "ERCOLANO", "idImpianto": 35860, "points": [{"type": "Feature", "properties": {}, "geometry": {"type": "Point", "coordinates": [14.357177761376988, 40.81022332802966]}}], "price": 1.829, "ultima_rilevazione": "03/05/2022 07:56:25"}, {"Gestore": "A.G. CARBURANTI S.R.L.S.", "Bandiera": "Pompe Bianche", "Tipo impianto": "Altro", "Indirizzo": "CORSO SAN GIOVANI A TEDUCCIO  904 80146", "Nome impianto": "SAN GIOVANNI", "Comune": "NAPOLI", "idImpianto": 50925, "points": [{"type": "Feature", "properties": {}, "geometry": {"type": "Point", "coordinates": [14.315750078909794, 40.82656931895564]}}], "price": 1.799, "ultima_rilevazione": "03/05/2022 10:11:39"}, {"Gestore": "ROMANO FELICE S.A.S. DI CARFORA ANTONIO E C.", "Bandiera": "Pompe Bianche", "Tipo impianto": "Altro", "Indirizzo": "VIA ROMANI N. 80 80048", "Nome impianto": "ROMANO PETROLI", "Comune": "SANT'ANASTASIA", "idImpianto": 44374, "points": [{"type": "Feature", "properties": {}, "geometry": {"type": "Point", "coordinates": [14.382682000123, 40.883796000123]}}], "price": 1.979, "ultima_rilevazione": "10/06/2022 19:24:40"}, {"Gestore": "DELTA PETROLI S.A.S. DI FELACO ANTONIO & C.", "Bandiera": "Api-Ip", "Tipo impianto": "Altro", "Indirizzo": "VIA FILICHITO TRAV. GARIBALDI SNC, 80040  ", "Nome impianto": "Delta Petroli (VOLLA)", "Comune": "VOLLA", "idImpianto": 20567, "points": [{"type": "Feature", "properties": {}, "geometry": {"type": "Point", "coordinates": [14.353720267025778, 40.88841550110374]}}], "price": 1.954, "ultima_rilevazione": "11/06/2022 07:46:48"}, {"Gestore": "DELTA PETROLI S.R.L.", "Bandiera": "Total Erg", "Tipo impianto": "Altro", "Indirizzo": "Via Cavallo snc 80059", "Nome impianto": "Ghepardoil (TDG)", "Comune": "TORRE DEL GRECO", "idImpianto": 28198, "points": [{"type": "Feature", "properties": {}, "geometry": {"type": "Point", "coordinates": [14.381765350699425, 40.78967721869456]}}], "price": 1.973, "ultima_rilevazione": "11/06/2022 07:48:14"}, {"Gestore": "E' - OIL GROUP S.R.L.", "Bandiera": "Pompe Bianche", "Tipo impianto": "Altro", "Indirizzo": "nazionale delle puglie 220 80100", "Nome impianto": "E-OIL (naz.puglie)", "Comune": "NAPOLI", "idImpianto": 40643, "points": [{"type": "Feature", "properties": {}, "geometry": {"type": "Point", "coordinates": [14.310928881168364, 40.87709724243798]}}], "price": 1.959, "ultima_rilevazione": "13/06/2022 12:05:31"}, {"Gestore": "GUSMAI NICOLETTA", "Bandiera": "GB Petroli", "Tipo impianto": "Altro", "Indirizzo": "CORSO S. GIOVANNI 223 80146", "Nome impianto": "GB PETROLI", "Comune": "NAPOLI", "idImpianto": 39219, "points": [{"type": "Feature", "properties": {}, "geometry": {"type": "Point", "coordinates": [14.302663040810558, 40.83623565210759]}}], "price": 1.968, "ultima_rilevazione": "13/06/2022 15:18:53"}, {"Gestore": "DISTRIBUZIONE CARBURANTI DI BALZAMO IMMACOLATA", "Bandiera": "Pompe Bianche", "Tipo impianto": "Altro", "Indirizzo": "VIA POMIGLIANO 73 80048", "Nome impianto": "DISTRIBUTORE CARBURANTI DI BALZAMO IMMACOLATA", "Comune": "SANT'ANASTASIA", "idImpianto": 45549, "points": [{"type": "Feature", "properties": {}, "geometry": {"type": "Point", "coordinates": [14.397179000123, 40.882655000123]}}], "price": 1.969, "ultima_rilevazione": "13/06/2022 15:49:01"}, {"Gestore": "MYLTON  S.R.L.", "Bandiera": "Pompe Bianche", "Tipo impianto": "Altro", "Indirizzo": "VIA ARGINE 336 80147", "Nome impianto": "MYLTON S.R.L.", "Comune": "NAPOLI", "idImpianto": 14328, "points": [{"type": "Feature", "properties": {}, "geometry": {"type": "Point", "coordinates": [14.309363812208176, 40.84985379511883]}}], "price": 1.949, "ultima_rilevazione": "14/06/2022 09:45:23"}, {"Gestore": "ZACCARO MARIA & C.  S.A.S.", "Bandiera": "Q8", "Tipo impianto": "Altro", "Indirizzo": "VIA DELLE REPUBBLICHE MARINARE  7/11 80147", "Nome impianto": "ZACCARO MARIA & C. SAS", "Comune": "NAPOLI", "idImpianto": 36261, "points": [{"type": "Feature", "properties": {}, "geometry": {"type": "Point", "coordinates": [14.30244217668644, 40.84555651635302]}}], "price": 2.039, "ultima_rilevazione": "14/06/2022 13:05:26"}, {"Gestore": "A.S.E. FUEL ENERGY GROUP S.R.L.", "Bandiera": "Pompe Bianche", "Tipo impianto": "Altro", "Indirizzo": "Via Pomigliano snc 80048", "Nome impianto": "ASE FUEL ENERGY GROUP SRL", "Comune": "SANT'ANASTASIA", "idImpianto": 20249, "points": [{"type": "Feature", "properties": {}, "geometry": {"type": "Point", "coordinates": [14.397529363632202, 40.88169408368984]}}], "price": 1.96, "ultima_rilevazione": "14/06/2022 21:26:39"}, {"Gestore": "E' - OIL GROUP S.R.L.", "Bandiera": "Pompe Bianche", "Tipo impianto": "Altro", "Indirizzo": "VIA Galileo Ferraris  119 80146", "Nome impianto": "E-OIL (Ferraris)", "Comune": "NAPOLI", "idImpianto": 40652, "points": [{"type": "Feature", "properties": {}, "geometry": {"type": "Point", "coordinates": [14.288941472768784, 40.84985744710176]}}], "price": 1.979, "ultima_rilevazione": "15/06/2022 06:56:40"}, {"Gestore": "DEL GATTO LUCA", "Bandiera": "Q8", "Tipo impianto": "Altro", "Indirizzo": "VIA GUGLIELMO MARCONI 61 80059", "Nome impianto": "Del Gatto Luca -Q8", "Comune": "TORRE DEL GRECO", "idImpianto": 35664, "points": [{"type": "Feature", "properties": {}, "geometry": {"type": "Point", "coordinates": [14.373119921634723, 40.79493791968526]}}], "price": 1.984, "ultima_rilevazione": "15/06/2022 08:26:19"}, {"Gestore": "BARBERIO CIRO", "Bandiera": "Pompe Bianche", "Tipo impianto": "Altro", "Indirizzo": "VIA PONTE DEI GRANILI 5 80146", "Nome impianto": "BFUELCARBURANTI di BARBERIO CIRO", "Comune": "NAPOLI", "idImpianto": 50375, "points": [{"type": "Feature", "properties": {}, "geometry": {"type": "Point", "coordinates": [14.29263822734356, 40.840508256893045]}}], "price": 1.999, "ultima_rilevazione": "15/06/2022 08:52:03"}, {"Gestore": "MG PETROLI SRL", "Bandiera": "Pompe Bianche", "Tipo impianto": "Altro", "Indirizzo": "Via ferrante imparato  251 80100", "Nome impianto": "MG PETROLI SRL", "Comune": "NAPOLI", "idImpianto": 38466, "points": [{"type": "Feature", "properties": {}, "geometry": {"type": "Point", "coordinates": [14.300307557191672, 40.84801174483866]}}], "price": 1.999, "ultima_rilevazione": "15/06/2022 12:10:16"}, {"Gestore": "ROMINO MASSIMO", "Bandiera": "Api-Ip", "Tipo impianto": "Altro", "Indirizzo": "VIA PANORAMICA 2 80056", "Nome impianto": "TOTALERG", "Comune": "ERCOLANO", "idImpianto": 38660, "points": [{"type": "Feature", "properties": {}, "geometry": {"type": "Point", "coordinates": [14.35413208808086, 40.80853514880448]}}], "price": 1.979, "ultima_rilevazione": "15/06/2022 15:41:34"}, {"Gestore": "SANNINO PETROLI S.R.L. ", "Bandiera": "Madogas Natural Energy", "Tipo impianto": "Altro", "Indirizzo": "VIA MARITTIMA 44 80055", "Nome impianto": "SP PETROLI -PORTICI", "Comune": "PORTICI", "idImpianto": 48824, "points": [{"type": "Feature", "properties": {}, "geometry": {"type": "Point", "coordinates": [14.33923977862085, 40.80719118511784]}}], "price": 1.979, "ultima_rilevazione": "15/06/2022 15:51:05"}, {"Gestore": "EASY SERVICE S.R.L.", "Bandiera": "Energas", "Tipo impianto": "Altro", "Indirizzo": "Via Monteoliveto SNC 80040", "Nome impianto": "Easy Service Volla", "Comune": "VOLLA", "idImpianto": 38715, "points": [{"type": "Feature", "properties": {}, "geometry": {"type": "Point", "coordinates": [14.356540516018867, 40.87540095229716]}}], "price": 1.895, "ultima_rilevazione": "15/06/2022 17:19:38"}, {"Gestore": "EASY SERVICE S.R.L.", "Bandiera": "Energas", "Tipo impianto": "Altro", "Indirizzo": "Via Aveta  snc 80056", "Nome impianto": "Easy service Ercolano ", "Comune": "ERCOLANO", "idImpianto": 35680, "points": [{"type": "Feature", "properties": {}, "geometry": {"type": "Point", "coordinates": [14.358646720647812, 40.80844738718757]}}], "price": 1.999, "ultima_rilevazione": "15/06/2022 19:58:46"}, {"Gestore": "ACANFORA STEFANIA", "Bandiera": "Total Erg", "Tipo impianto": "Altro", "Indirizzo": "VIA MACELLO  80143", "Nome impianto": "acanfora stefania", "Comune": "NAPOLI", "idImpianto": 12555, "points": [{"type": "Feature", "properties": {}, "geometry": {"type": "Point", "coordinates": [14.293411170835611, 40.862960192370096]}}], "price": 2.079, "ultima_rilevazione": "15/06/2022 20:13:38"}, {"Gestore": "ACANFORA STEFANIA", "Bandiera": "Total Erg", "Tipo impianto": "Altro", "Indirizzo": "VIA MIRAGLIA ANG.P.ZZA ARABIA  80143", "Nome impianto": "acanfora stefania", "Comune": "NAPOLI", "idImpianto": 20622, "points": [{"type": "Feature", "properties": {}, "geometry": {"type": "Point", "coordinates": [14.294732338039807, 40.86439910023402]}}], "price": 2.079, "ultima_rilevazione": "15/06/2022 20:14:17"}, {"Gestore": "SERVIZI & GESTIONI ITALIA S.R.L.", "Bandiera": "Q8", "Tipo impianto": "Altro", "Indirizzo": "VIALE EUROPA 4 80048", "Nome impianto": "S.ANASTASIA VIALE EUROPA, 4", "Comune": "SANT'ANASTASIA", "idImpianto": 26104, "points": [{"type": "Feature", "properties": {}, "geometry": {"type": "Point", "coordinates": [14.40147303068852, 40.87199797928447]}}], "price": 2.008, "ultima_rilevazione": "16/06/2022 01:44:50"}, {"Gestore": "MASI VITO", "Bandiera": "Agip Eni", "Tipo impianto": "Altro", "Indirizzo": "VIA E.GIANTURCO 114 80142", "Nome impianto": "masi vito", "Comune": "NAPOLI", "idImpianto": 16846, "points": [{"type": "Feature", "properties": {}, "geometry": {"type": "Point", "coordinates": [14.288344113215317, 40.84787307234628]}}], "price": 2.009, "ultima_rilevazione": "16/06/2022 06:15:23"}, {"Gestore": "PICCOLO GROUP S.R.L.", "Bandiera": "Agip Eni", "Tipo impianto": "Altro", "Indirizzo": "S.S.162 dir Napoli Km 6+513  80040", "Nome impianto": "PICCOLO GROUP", "Comune": "POLLENA TROCCHIA", "idImpianto": 7526, "points": [{"type": "Feature", "properties": {}, "geometry": {"type": "Point", "coordinates": [14.371241382063545, 40.876544472375066]}}], "price": 2.029, "ultima_rilevazione": "16/06/2022 06:36:42"}, {"Gestore": "SOCIETA' CARBURANTI S.N.C. DI FLAUTO MARIA ANGELA", "Bandiera": "Esso", "Tipo impianto": "Altro", "Indirizzo": "VIA FILICHITO 133/135 80040", "Nome impianto": "societ\u00e0 carburanti snc di Flauto Maria", "Comune": "VOLLA", "idImpianto": 12910, "points": [{"type": "Feature", "properties": {}, "geometry": {"type": "Point", "coordinates": [14.351210296154022, 40.885577027124654]}}], "price": 1.999, "ultima_rilevazione": "16/06/2022 07:30:40"}, {"Gestore": "VB PETROLI DI VINCENZO BORRIELLO", "Bandiera": "Esso", "Tipo impianto": "Altro", "Indirizzo": "VIA CIRCUMVALLAZIONE 66 80059", "Nome impianto": "vb petroli", "Comune": "TORRE DEL GRECO", "idImpianto": 49084, "points": [{"type": "Feature", "properties": {}, "geometry": {"type": "Point", "coordinates": [14.371714065080177, 40.789573259869634]}}], "price": 1.939, "ultima_rilevazione": "16/06/2022 08:02:11"}, {"Gestore": "RICCIARDI GIACINTO", "Bandiera": "Agip Eni", "Tipo impianto": "Altro", "Indirizzo": "VIA LEOPARDI 30 80040", "Nome impianto": "eni", "Comune": "VOLLA", "idImpianto": 20441, "points": [{"type": "Feature", "properties": {}, "geometry": {"type": "Point", "coordinates": [14.339417601852348, 40.88026141875078]}}], "price": 1.989, "ultima_rilevazione": "16/06/2022 08:11:09"}, {"Gestore": "VESUVIANA PETROLI S.R.L.", "Bandiera": "Pompe Bianche", "Tipo impianto": "Altro", "Indirizzo": "VIA PATACCA  SNC 80056", "Nome impianto": "VESUVIANA PETROLI SRL ", "Comune": "ERCOLANO", "idImpianto": 47406, "points": [{"type": "Feature", "properties": {}, "geometry": {"type": "Point", "coordinates": [14.34814453125, 40.808092514169225]}}], "price": 1.998, "ultima_rilevazione": "16/06/2022 09:22:42"}, {"Gestore": "GRIMALDI CONCETTA", "Bandiera": "Agip Eni", "Tipo impianto": "Altro", "Indirizzo": "via stadera  80143", "Nome impianto": "ENI 08063", "Comune": "NAPOLI", "idImpianto": 48194, "points": [{"type": "Feature", "properties": {}, "geometry": {"type": "Point", "coordinates": [14.30035925986909, 40.87103647502646]}}], "price": 2.009, "ultima_rilevazione": "16/06/2022 10:01:00"}, {"Gestore": "PETROLJ - SOCIETA' A RESPONSABILITA' LIMITATA", "Bandiera": "Esso", "Tipo impianto": "Altro", "Indirizzo": "via Galileo Ferraris 128 80144", "Nome impianto": "Esso 6629", "Comune": "NAPOLI", "idImpianto": 33027, "points": [{"type": "Feature", "properties": {}, "geometry": {"type": "Point", "coordinates": [14.28947512925265, 40.84943369791054]}}], "price": 1.979, "ultima_rilevazione": "16/06/2022 10:20:44"}, {"Gestore": "PETROLCOR S.R.L.", "Bandiera": "Esso", "Tipo impianto": "Altro", "Indirizzo": "VIA LUFRANO 61 80040", "Nome impianto": "ESSO", "Comune": "VOLLA", "idImpianto": 43903, "points": [{"type": "Feature", "properties": {}, "geometry": {"type": "Point", "coordinates": [14.338231457672125, 40.88577506948254]}}], "price": 2.06, "ultima_rilevazione": "16/06/2022 13:47:29"}, {"Gestore": "P.PETROLI SRL", "Bandiera": "Pompe Bianche", "Tipo impianto": "Altro", "Indirizzo": "CORSO G. GARIBALDI SNC 80055", "Nome impianto": "P.PETROLI - Portici", "Comune": "PORTICI", "idImpianto": 47612, "points": [{"type": "Feature", "properties": {}, "geometry": {"type": "Point", "coordinates": [14.324789778647755, 40.82189479630672]}}], "price": 2.01, "ultima_rilevazione": "16/06/2022 14:09:39"}, {"Gestore": "ORGANIZZAZIONE SERVIZI AUTO - O.S.A. - S.P.A.", "Bandiera": "Esso", "Tipo impianto": "Altro", "Indirizzo": "VIA FERRANTE IMPARATO 451/457 80146", "Nome impianto": "ESSO - V.IMPARATO", "Comune": "NAPOLI", "idImpianto": 49000, "points": [{"type": "Feature", "properties": {}, "geometry": {"type": "Point", "coordinates": [14.298449404692333, 40.85789294565131]}}], "price": 2.029, "ultima_rilevazione": "16/06/2022 15:57:04"}, {"Gestore": "CARRARA PIETRO", "Bandiera": "Q8", "Tipo impianto": "Altro", "Indirizzo": "via emanuele gianturco frcv. 79 80142", "Nome impianto": "staz. servizio. q8 ", "Comune": "NAPOLI", "idImpianto": 17155, "points": [{"type": "Feature", "properties": {}, "geometry": {"type": "Point", "coordinates": [14.289340482265288, 40.85030685074771]}}], "price": 2.039, "ultima_rilevazione": "16/06/2022 16:04:48"}, {"Gestore": "A.D. FUEL - SOCIETA' A RESPONSABILITA' LIMITATA SEMPLIFICATA", "Bandiera": "MyOil", "Tipo impianto": "Altro", "Indirizzo": "via gianturco  100 80142", "Nome impianto": "my oil", "Comune": "NAPOLI", "idImpianto": 49044, "points": [{"type": "Feature", "properties": {}, "geometry": {"type": "Point", "coordinates": [14.28933217112653, 40.85128366053975]}}], "price": 1.995, "ultima_rilevazione": "16/06/2022 17:55:36"}, {"Gestore": "CAR.IO S.R.L.", "Bandiera": "Q8", "Tipo impianto": "Altro", "Indirizzo": "VIA DELLE PUGLIE 176/A 80026", "Nome impianto": "BENZINA - GASOLIO - HIQ CASORIA", "Comune": "CASORIA", "idImpianto": 29071, "points": [{"type": "Feature", "properties": {}, "geometry": {"type": "Point", "coordinates": [14.31901598762738, 40.883618858465454]}}], "price": 2.029, "ultima_rilevazione": "16/06/2022 18:50:53"}, {"Gestore": "IP SERVICES S.R.L.", "Bandiera": "Api-Ip", "Tipo impianto": "Altro", "Indirizzo": "VIA FERRANTE IMPARATO 439 80146", "Nome impianto": "NAPOLI - FERRANTE IMPARATO", "Comune": "NAPOLI", "idImpianto": 30323, "points": [{"type": "Feature", "properties": {}, "geometry": {"type": "Point", "coordinates": [14.298689271163994, 40.85680811472159]}}], "price": 1.999, "ultima_rilevazione": "16/06/2022 23:01:33"}, {"Gestore": "IP SERVICES S.R.L.", "Bandiera": "Api-Ip", "Tipo impianto": "Altro", "Indirizzo": "VIA ARGINE 360 80100", "Nome impianto": "NAPOLI - ARGINE 360", "Comune": "NAPOLI", "idImpianto": 33373, "points": [{"type": "Feature", "properties": {}, "geometry": {"type": "Point", "coordinates": [14.311264157295229, 40.8505598461994]}}], "price": 1.999, "ultima_rilevazione": "16/06/2022 23:01:37"}, {"Gestore": "SERVIZI & GESTIONI ITALIA S.R.L.", "Bandiera": "Q8", "Tipo impianto": "Altro", "Indirizzo": "G. FERRARIS 172 80147", "Nome impianto": "NAPOLI G. FERRARIS 172", "Comune": "NAPOLI", "idImpianto": 26018, "points": [{"type": "Feature", "properties": {}, "geometry": {"type": "Point", "coordinates": [14.298712766270455, 40.84657667223769]}}], "price": 2.055, "ultima_rilevazione": "17/06/2022 01:43:44"}, {"Gestore": "SERVIZI & GESTIONI ITALIA S.R.L.", "Bandiera": "Q8", "Tipo impianto": "Altro", "Indirizzo": "VIA B. COZZOLINO 101 80056", "Nome impianto": "ERCOLANO VIA B. COZZOLINO, 101", "Comune": "ERCOLANO", "idImpianto": 25008, "points": [{"type": "Feature", "properties": {},