{"area_comune": "[{\"type\": \"Feature\", \"properties\": {}, \"geometry\": {\"type\": \"Polygon\", \"coordinates\": [[[15.022000701124613, 37.58345421446718], [15.02617990721296, 37.58293185513655], [15.028070245700018, 37.58190340387547], [15.029723272109916, 37.580650831515825], [15.033254867666438, 37.57696169188461], [15.033979291604657, 37.575547425168644], [15.035256722494614, 37.568805636278945], [15.035075241736221, 37.56835367225753], [15.032254168355111, 37.56535266625133], [15.030316168901527, 37.56355063909492], [15.03037182081944, 37.56053256625546], [15.034557480692856, 37.55629460191202], [15.037855347524266, 37.55442301516945], [15.035711649099886, 37.55036784570183], [15.034452947944168, 37.55046304770527], [15.021720700201461, 37.549736141973874], [15.014973671151113, 37.556154553992414], [15.010782292383254, 37.562266559876356], [15.010342900535079, 37.569183824859415], [15.01017418067817, 37.57726363252787], [15.016926035998722, 37.5810410886369], [15.022000701124613, 37.58345421446718]]]}}]", "comune": "san-pietro-clarenza", "buffer_1": "[{\"type\": \"Feature\", \"properties\": {}, \"geometry\": {\"type\": \"Polygon\", \"coordinates\": [[[15.015798516021075, 37.590958922919356], [15.016751087470274, 37.59140586409917], [15.017754055649622, 37.59177648300634], [15.018797792044603, 37.59206722177576], [15.019872276412727, 37.59227528942872], [15.020967193074963, 37.592398688685286], [15.022072030055645, 37.592436235148064], [15.02317618011405, 37.59238756867325], [15.024269042692495, 37.592253156819446], [15.02534012579678, 37.592034290341374], [15.02637914682577, 37.59173307077264], [15.027376131377137, 37.59135239021771], [15.028321509076424, 37.59089590354855], [15.029206205505783, 37.59036799327476], [15.041184944098037, 37.582460441792136], [15.042039475776553, 37.58183443625955], [15.042808627600216, 37.58114184968538], [15.043484255185017, 37.58039001834046], [15.044059205447471, 37.57958690574681], [15.044527392276555, 37.57874101827805], [15.044883860872982, 37.57786131502009], [15.04512484007932, 37.57695711284963], [15.045247782152634, 37.57603798773704], [15.04697628705367, 37.55085857113045], [15.046982448273317, 37.54997817446012], [15.046880324844244, 37.549101526659385], [15.046670901648698, 37.54823704984868], [15.04635619420379, 37.54739304894373], [15.045939229166205, 37.54657763189654], [15.04542401513805, 37.545798631837435], [15.04481550405876, 37.545063531865225], [15.044119543557576, 37.54437939320551], [15.043342820727043, 37.54375278742589], [15.042492797859436, 37.543189733356606], [15.041577640764064, 37.542695639320634], [15.040606140353646, 37.542275251226116], [15.039587628251532, 37.541932607017486], [15.03853188722789, 37.54167099792128], [15.037449057321885, 37.541492936857274], [15.03634953854738, 37.54140013431716], [15.022360292656803, 37.54076836144962], [15.02120996660598, 37.54076311738154], [15.020064947810104, 37.54085117861509], [15.01893713991979, 37.541031630035434], [15.01783826794416, 37.541302596012855], [15.016779756472342, 37.54166125986711], [15.01577261099846, 37.54210389310719], [15.014827303578443, 37.542625894144635], [15.013953664003411, 37.54322183608037], [15.013160777617951, 37.54388552307086], [15.012456890844181, 37.5446100546903], [15.001517441478954, 37.557139682467344], [15.000943566442542, 37.557869080020374], [15.000460003616846, 37.55863885257789], [15.00007119494264, 37.55944193398028], [14.999780712901359, 37.56027095204062], [14.999591227610194, 37.56111829620042], [14.99950448218874, 37.56197618738326], [14.998894079677333, 37.57697339665887], [14.998915601861947, 37.57789012688204], [14.999054437622371, 37.578800334602455], [14.99930914446271, 37.57969453517311], [14.999677072185529, 37.58056341042902], [15.000154390351089, 37.58139790582208], [15.000736128056621, 37.5821893248201], [15.001416225626558, 37.582929419583905], [15.002187597679475, 37.58361047697505], [15.003042206917684, 37.58422539899535], [15.00397114787205, 37.58476777681674], [15.015798516021075, 37.590958922919356]]]}}]", "buffer_3": "[{\"type\": \"Feature\", \"properties\": {}, \"geometry\": {\"type\": \"Polygon\", \"coordinates\": [[[15.003390556853683, 37.60596766455549], [15.006248735043986, 37.60730873261244], [15.009258223219883, 37.60842078753129], [15.012390113475593, 37.60929314811133], [15.015614318981257, 37.60991743587862], [15.018899863858566, 37.61028765573571], [15.022215181707276, 37.610400253638794], [15.025528419869685, 37.61025415074386], [15.028807746462494, 37.60985075369248], [15.032021657177994, 37.609193940940806], [15.03513927886001, 37.60829002527021], [15.038130666894087, 37.60714769284895], [15.040967093515807, 37.605777919443696], [15.043621324234747, 37.604193864601456], [15.05560035771341, 37.59628478808001], [15.058163931278147, 37.5944064333478], [15.060471192521687, 37.59232835182888], [15.062497716531162, 37.590072565942926], [15.064222059250337, 37.58766297859367], [15.065625983849962, 37.58512511944806], [15.06669465283344, 37.58248587407329], [15.067416783887133, 37.57977319882142], [15.06778476787918, 37.577015824497366], [15.069505567060947, 37.5518367365159], [15.069523248934914, 37.54919561234541], [15.069216107557923, 37.546565795443094], [15.06858712712855, 37.5439725473094], [15.067642381431464, 37.541440775693395], [15.066390974309085, 37.53899479558446], [15.064844951166245, 37.53665809597978], [15.063019182397209, 37.53445311465316], [15.06093121988711, 37.53240102307229], [15.058601127990375, 37.530521523511766], [15.056051290624456, 37.52883266029115], [15.053306196337191, 37.52735064693105], [15.050392203407648, 37.52608971086788], [15.047337287222549, 37.52506195720076], [15.04417077233147, 37.524277252762445], [15.040923051723098, 37.52374313161402], [15.037625295980547, 37.5234647228602], [15.023639453876127, 37.522832811566815], [15.020189309081, 37.52281701146437], [15.016755052481226, 37.523081061770654], [15.013372361880622, 37.52362222267021], [15.010076381921085, 37.52443487528613], [15.006901360005143, 37.52551057974173], [15.003880291362648, 37.52683816245923], [15.001044576902085, 37.52840383180781], [14.99842369736372, 37.53019132092047], [14.996044907133726, 37.53218205622016], [14.993932950886734, 37.534355349928944], [14.982991421440525, 37.54688339736372], [14.981269379001905, 37.549071340379], [14.979818153579885, 37.551380450206416], [14.978651090639294, 37.55378953598255], [14.977778930933177, 37.55627648695501], [14.977209710936307, 37.55881847523661], [14.976948687989777, 37.56139216522652], [14.976333703983338, 37.576389646012814], [14.976397439381374, 37.57913992020298], [14.976813157157645, 37.58187069158938], [14.977576562659134, 37.584553500081164], [14.97867973504159, 37.58716038259696], [14.980111208408374, 37.58966416482548], [14.981856090088385, 37.59203874486491], [14.983896214870366, 37.59425936576541], [14.98621033362598, 37.596302874111004], [14.988774334383557, 37.59814796192037], [14.991561493563136, 37.59977538931908], [15.003390556853683, 37.60596766455549]]]}}]", "buffer_5": "[{\"type\": \"Feature\", \"properties\": {}, \"geometry\": {\"type\": \"Polygon\", \"coordinates\": [[[14.990977808406177, 37.620975504032856], [14.99574221183065, 37.62321102542234], [15.000758998563459, 37.62506478104198], [15.00597995145894, 37.62651895617404], [15.011354882237896, 37.62755957742955], [15.016832116287548, 37.628176647522544], [15.022358992057287, 37.6283642416106], [15.027882370123875, 37.628120564261565], [15.033349146899253, 37.62744796649564], [15.038706767907332, 37.626352922746555], [15.043903735563536, 37.624845967980846], [15.048890106452697, 37.62294159560807], [15.05361797321529, 37.620658117199085], [15.058041926318527, 37.618017485405076], [15.07002125289702, 37.61010688295085], [15.074293838902964, 37.606975727894856], [15.07813894953514, 37.60351172222531], [15.081515890437867, 37.599751592679475], [15.084388946955299, 37.595735198004355], [15.086727760328545, 37.59150510521794], [15.088507646340538, 37.58710613742859], [15.089709853156284, 37.58258489806019], [15.090321755780414, 37.57798927656706], [15.092034848540386, 37.55281052108371], [15.092062982072765, 37.548408757878875], [15.0915497950176, 37.54402594119453], [15.090500310258715, 37.53970416538705], [15.088924696099655, 37.535484931670105], [15.086838165317646, 37.53140875021988], [15.084260826156683, 37.52751475202396], [15.08121748679958, 37.52384031416254], [15.077737415285831, 37.52042070207397], [15.073854057247079, 37.51728873218868], [15.069604714211712, 37.514474458117256], [15.065030185582003, 37.512004883350805], [15.060174377708794, 37.509903703178765], [15.055083883778229, 37.5081910782519], [15.049807538480193, 37.50688344191951], [15.044395951648072, 37.50599334315289], [15.038901025242179, 37.5055293265331], [15.024918583953555, 37.50489727661834], [15.019169730335623, 37.5048708299416], [15.013447301166112, 37.50531069159293], [15.007810704311366, 37.50621230441329], [15.002318463622327, 37.507566316933776], [14.997027614226939, 37.5093586795948], [14.99199311278839, 37.51157078954706], [14.987267268721968, 37.51417968258204], [14.982899202172124, 37.51715827025918], [14.978934334304641, 37.520475619833164], [14.975413915167508, 37.5240972741435], [14.964470309655542, 37.53662374111533], [14.961599544524953, 37.54026989662595], [14.959179941698846, 37.54411806633946], [14.957233776264234, 37.548132944852135], [14.955778988242237, 37.55227769061141], [14.954829015231056, 37.55651426348253], [14.95439266606005, 37.560803773548635], [14.953773100718566, 37.575801523528824], [14.953877940983283, 37.58038545234182], [14.954569487601626, 37.58493698436268], [14.955840637589493, 37.58940867590442], [14.957678239195793, 37.593753907560554], [14.960063225061914, 37.59792737106205], [14.962970807576031, 37.601885542745016], [14.966370734525992, 37.60558713863885], [14.970227602497372, 37.60899354636698], [14.974501224828286, 37.61206922928737], [14.979147050327038, 37.61478209858621], [14.990977808406177, 37.620975504032856]]]}}]", "centroid": "[{\"type\": \"Feature\", \"properties\": {}, \"geometry\": {\"type\": \"Point\", \"coordinates\": [15.023821337607483, 37.565765411036]}}]", "Diesel High Quality": {"1": [], "3": [{"Gestore": "GE.I.CA. DI INGAGLIO ANGELO E C.  S.N.C.", "Bandiera": "Q8", "Tipo impianto": "Altro", "Indirizzo": "VIA ETNEA  92 95030", "Nome impianto": "Q8", "Comune": "GRAVINA DI CATANIA", "idImpianto": 41283, "points": [{"type": "Feature", "properties": {}, "geometry": {"type": "Point", "coordinates": [15.06601832807064, 37.54889390753284]}}], "price": 2.209, "ultima_rilevazione": "15/06/2022 11:53:45"}, {"Gestore": "GE.I.CA. DI INGAGLIO ANGELO E C.  S.N.C.", "Bandiera": "Q8", "Tipo impianto": "Altro", "Indirizzo": "VIA ETNEA  92 95030", "Nome impianto": "Q8", "Comune": "GRAVINA DI CATANIA", "idImpianto": 41283, "points": [{"type": "Feature", "properties": {}, "geometry": {"type": "Point", "coordinates": [15.06601832807064, 37.54889390753284]}}], "price": 2.249, "ultima_rilevazione": "15/06/2022 11:53:45"}], "5": [{"Gestore": "S.M.T. DI FILIPPO TENERELLO & C. S.A.S.", "Bandiera": "Q8", "Tipo impianto": "Altro", "Indirizzo": "VIA LORENZO BOLANO 42 95123", "Nome impianto": "smt di Filippo Tenerello", "Comune": "CATANIA", "idImpianto": 42218, "points": [{"type": "Feature", "properties": {}, "geometry": {"type": "Point", "coordinates": [15.056099431946564, 37.517802231926446]}}], "price": 2.349, "ultima_rilevazione": "16/06/2022 08:08:23"}, {"Gestore": "EGI-2GO S.R.L.", "Bandiera": "Esso", "Tipo impianto": "Altro", "Indirizzo": "VIA A. DIAZ 11 95121", "Nome impianto": "Diaz", "Comune": "CATANIA", "idImpianto": 48715, "points": [{"type": "Feature", "properties": {}, "geometry": {"type": "Point", "coordinates": [15.056489387731531, 37.5117304257775]}}], "price": 2.139, "ultima_rilevazione": "16/06/2022 11:01:15"}, {"Gestore": "SERVIZI & GESTIONI ITALIA S.R.L.", "Bandiera": "Q8", "Tipo impianto": "Altro", "Indirizzo": "STRADA PROVINCIALE 42  95030", "Nome impianto": "PEDARA STRADA PROVINCIALE 42", "Comune": "PEDARA", "idImpianto": 32493, "points": [{"type": "Feature", "properties": {}, "geometry": {"type": "Point", "coordinates": [15.065449561376909, 37.60186980344919]}}], "price": 2.289, "ultima_rilevazione": "17/06/2022 07:07:10"}, {"Gestore": "SERVIZI & GESTIONI ITALIA S.R.L.", "Bandiera": "Q8", "Tipo impianto": "Altro", "Indirizzo": "STRADA PROVINCIALE 42  95030", "Nome impianto": "PEDARA STRADA PROVINCIALE 42", "Comune": "PEDARA", "idImpianto": 32493, "points": [{"type": "Feature", "properties": {}, "geometry": {"type": "Point", "coordinates": [15.065449561376909, 37.60186980344919]}}], "price": 2.369, "ultima_rilevazione": "17/06/2022 07:07:10"}, {"Gestore": "T & T SERVICE S.R.L.", "Bandiera": "Q8", "Tipo impianto": "Altro", "Indirizzo": "VIA ETNEA ANG.ARDIZZONE GIOENI, 95100", "Nome impianto": "T&T SERVICE SRL", "Comune": "CATANIA", "idImpianto": 10759, "points": [{"type": "Feature", "properties": {}, "geometry": {"type": "Point", "coordinates": [15.081546306610107, 37.52573095543272]}}], "price": 2.297, "ultima_rilevazione": "17/06/2022 07:22:46"}, {"Gestore": "EOS SERVICES S.R.L. A SOCIO UNICO", "Bandiera": "Q8", "Tipo impianto": "Altro", "Indirizzo": "PIAZZA EROI D UNGHERIA S.N. 95122", "Nome impianto": "CT064", "Comune": "CATANIA", "idImpianto": 47458, "points": [{"type": "Feature", "properties": {}, "geometry": {"type": "Point", "coordinates": [15.0511522591114, 37.5080532809172]}}], "price": 2.179, "ultima_rilevazione": "17/06/2022 07:53:51"}]}, "Blue Diesel": {"1": [], "3": [{"Gestore": "PUSILLICO CARMELO", "Bandiera": "Agip Eni", "Tipo impianto": "Altro", "Indirizzo": "via della misericordia snc 95123", "Nome impianto": "eni39227", "Comune": "CATANIA", "idImpianto": 49415, "points": [{"type": "Feature", "properties": {}, "geometry": {"type": "Point", "coordinates": [15.04657818067865, 37.54374333421922]}}], "price": 2.069, "ultima_rilevazione": "15/06/2022 04:06:55"}, {"Gestore": "CALABRESE IVAN", "Bandiera": "Agip Eni", "Tipo impianto": "Altro", "Indirizzo": "VIA A. GRAMSCI 16 95030", "Nome impianto": "Distributore Eni di Ivan Calabrese", "Comune": "GRAVINA DI CATANIA", "idImpianto": 38013, "points": [{"type": "Feature", "properties": {}, "geometry": {"type": "Point", "coordinates": [15.065124168986586, 37.55249895261787]}}], "price": 2.109, "ultima_rilevazione": "16/06/2022 07:05:08"}, {"Gestore": "FKM OIL S.R.L.", "Bandiera": "Agip Eni", "Tipo impianto": "Altro", "Indirizzo": "VIA ALCIDE DE GASPERI SN 95030", "Nome impianto": "FKM OIL SRL", "Comune": "MASCALUCIA", "idImpianto": 44028, "points": [{"type": "Feature", "properties": {}, "geometry": {"type": "Point", "coordinates": [15.058175000123, 37.573192000123]}}], "price": 2.109, "ultima_rilevazione": "16/06/2022 09:39:28"}, {"Gestore": "FKM OIL S.R.L.", "Bandiera": "Agip Eni", "Tipo impianto": "Altro", "Indirizzo": "VIA ALCIDE DE GASPERI SN 95030", "Nome impianto": "FKM OIL SRL", "Comune": "MASCALUCIA", "idImpianto": 47065, "points": [{"type": "Feature", "properties": {}, "geometry": {"type": "Point", "coordinates": [15.058175000123, 37.573192000123]}}], "price": 2.109, "ultima_rilevazione": "16/06/2022 09:42:23"}], "5": [{"Gestore": "PREDA ALINA COSTINELA", "Bandiera": "Agip Eni", "Tipo impianto": "Altro", "Indirizzo": "VIA FRANCESCO LO JACONO 75 95030", "Nome impianto": "ENI STATION", "Comune": "SANT'AGATA LI BATTIATI", "idImpianto": 48664, "points": [{"type": "Feature", "properties": {}, "geometry": {"type": "Point", "coordinates": [15.08074415944222, 37.5408619009466]}}], "price": 1.669, "ultima_rilevazione": "11/10/2021 18:23:37"}, {"Gestore": "D'URSO SALVATORE", "Bandiera": "Agip Eni", "Tipo impianto": "Altro", "Indirizzo": "VIA ETNEA 400 95030", "Nome impianto": "eni station 58304 di d'urso salvatore", "Comune": "TREMESTIERI ETNEO", "idImpianto": 15650, "points": [{"type": "Feature", "properties": {}, "geometry": {"type": "Point", "coordinates": [15.070404649737611, 37.5810188349678]}}], "price": 1.844, "ultima_rilevazione": "06/04/2022 19:02:45"}, {"Gestore": "D'URSO SALVATORE", "Bandiera": "Agip Eni", "Tipo impianto": "Altro", "Indirizzo": "VIA ETNEA 400 95030", "Nome impianto": "eni station 58304 di d'urso salvatore", "Comune": "TREMESTIERI ETNEO", "idImpianto": 15650, "points": [{"type": "Feature", "properties": {}, "geometry": {"type": "Point", "coordinates": [15.070404649737611, 37.5810188349678]}}], "price": 1.924, "ultima_rilevazione": "06/04/2022 19:02:45"}, {"Gestore": "FORTUNATO ANTONIO", "Bandiera": "Agip Eni", "Tipo impianto": "Altro", "Indirizzo": "CORSO CARLO MARX 60 95045", "Nome impianto": "FORTUNATO ANTONIO", "Comune": "MISTERBIANCO", "idImpianto": 23347, "points": [{"type": "Feature", "properties": {}, "geometry": {"type": "Point", "coordinates": [15.024357580950891, 37.51434873166808]}}], "price": 2.089, "ultima_rilevazione": "13/06/2022 16:03:17"}, {"Gestore": "FORTUNATO ANTONIO", "Bandiera": "Agip Eni", "Tipo impianto": "Altro", "Indirizzo": "CORSO CARLO MARX 60 95045", "Nome impianto": "FORTUNATO ANTONIO", "Comune": "MISTERBIANCO", "idImpianto": 23347, "points": [{"type": "Feature", "properties": {}, "geometry": {"type": "Point", "coordinates": [15.024357580950891, 37.51434873166808]}}], "price": 2.199, "ultima_rilevazione": "13/06/2022 16:03:17"}, {"Gestore": "STAZIONE ENI DI ZUCCARO RICCARDO", "Bandiera": "Agip Eni", "Tipo impianto": "Altro", "Indirizzo": "VIALE ANDREA DORIA 8 95125", "Nome impianto": "ENI PV 55106", "Comune": "CATANIA", "idImpianto": 42894, "points": [{"type": "Feature", "properties": {}, "geometry": {"type": "Point", "coordinates": [15.075013271163924, 37.52520395415928]}}], "price": 2.109, "ultima_rilevazione": "16/06/2022 07:19:09"}, {"Gestore": "AMENDOLIA SERGIO", "Bandiera": "Agip Eni", "Tipo impianto": "Altro", "Indirizzo": "VIA FELICE FONTANA SN 95122", "Nome impianto": "Eni 19572", "Comune": "CATANIA", "idImpianto": 37069, "points": [{"type": "Feature", "properties": {}, "geometry": {"type": "Point", "coordinates": [15.04106506705284, 37.51378190808904]}}], "price": 2.219, "ultima_rilevazione": "16/06/2022 09:05:09"}, {"Gestore": "AMENDOLIA SERGIO", "Bandiera": "Agip Eni", "Tipo impianto": "Altro", "Indirizzo": "VIA FELICE FONTANA SN 95122", "Nome impianto": "Eni 19572", "Comune": "CATANIA", "idImpianto": 37069, "points": [{"type": "Feature", "properties": {}, "geometry": {"type": "Point", "coordinates": [15.04106506705284, 37.51378190808904]}}], "price": 2.109, "ultima_rilevazione": "16/06/2022 09:05:09"}, {"Gestore": "DELF SERVICE CAR S.A.S. DI BIANCO DANIELA & C.", "Bandiera": "Agip Eni", "Tipo impianto": "Altro", "Indirizzo": "VIA G. VERDI S.N. 95040", "Nome impianto": "eni", "Comune": "MOTTA SANT'ANASTASIA", "idImpianto": 26828, "points": [{"type": "Feature", "properties": {}, "geometry": {"type": "Point", "coordinates": [14.998287856578829, 37.52078801608408]}}], "price": 2.109, "ultima_rilevazione": "16/06/2022 09:34:17"}, {"Gestore": "IOZZIA OMAR PIETRO", "Bandiera": "Agip Eni", "Tipo impianto": "Altro", "Indirizzo": "VIALE LORENZO BOLANO 50 95125", "Nome impianto": "Eni Bolano", "Comune": "CATANIA", "idImpianto": 38832, "points": [{"type": "Feature", "properties": {}, "geometry": {"type": "Point", "coordinates": [15.05875088274479, 37.51864425759192]}}], "price": 2.109, "ultima_rilevazione": "16/06/2022 11:05:37"}, {"Gestore": "ZAPPALA' SALVATORE E C. S.N.C.", "Bandiera": "Agip Eni", "Tipo impianto": "Altro", "Indirizzo": "VIA BARRIERA DEL BOSCO 5 95030", "Nome impianto": "ENI battiati", "Comune": "SANT'AGATA LI BATTIATI", "idImpianto": 27314, "points": [{"type": "Feature", "properties": {}, "geometry": {"type": "Point", "coordinates": [15.08294641971588, 37.54728154343967]}}], "price": 2.109, "ultima_rilevazione": "16/06/2022 11:51:11"}, {"Gestore": "ENI FUEL S.P.A.", "Bandiera": "Agip Eni", "Tipo impianto": "Altro", "Indirizzo": "Via Carlo Marx 10 95045", "Nome impianto": "9595 MISTERBIANCO", "Comune": "MISTERBIANCO", "idImpianto": 5406, "points": [{"type": "Feature", "properties": {}, "geometry": {"type": "Point", "coordinates": [15.030944265870858, 37.51253084817209]}}], "price": 2.109, "ultima_rilevazione": "17/06/2022 07:08:11"}, {"Gestore": "ENI FUEL S.P.A.", "Bandiera": "Agip Eni", "Tipo impianto": "Altro", "Indirizzo": "Viale Rapisardi 500 95122", "Nome impianto": "9590 Catania Rapisardi", "Comune": "CATANIA", "idImpianto": 35631, "points": [{"type": "Feature", "properties": {}, "geometry": {"type": "Point", "coordinates": [15.053733810782433, 37.50839157399883]}}], "price": 2.109, "ultima_rilevazione": "17/06/2022 07:26:09"}, {"Gestore": "ENI FUEL S.P.A.", "Bandiera": "Agip Eni", "Tipo impianto": "Altro", "Indirizzo": "Viale Rapisardi 500 95122", "Nome impianto": "9590 Catania Rapisardi", "Comune": "CATANIA", "idImpianto": 35631, "points": [{"type": "Feature", "properties": {}, "geometry": {"type": "Point", "coordinates": [15.053733810782433, 37.50839157399883]}}], "price": 1.0, "ultima_rilevazione": "17/06/2022 07:26:09"}]}, "Gasolio High Quality": {"1": [], "3": [], "5": [{"Gestore": "CAVALLARO LORENZO", "Bandiera": "Q8", "Tipo impianto": "Altro", "Indirizzo": "VIA VINCENZO CASAGRANDI S.N. 95123", "Nome impianto": "Area di Servizio Q8 di Cavallaro Lorenzo", "Comune": "CATANIA", "idImpianto": 28557, "points": [{"type": "Feature", "properties": {}, "geometry": {"type": "Point", "coordinates": [15.065513853717448, 37.51669921524486]}}], "price": 1.846, "ultima_rilevazione": "15/06/2022 06:34:16"}]}, "Benzina": {"1": [{"Gestore": "RAPISARDA CARMELO", "Bandiera": "Agip Eni", "Tipo impianto": "Altro", "Indirizzo": "VIA A. DE GASPERI S.N. 95040", "Nome impianto": "STAZIONE DI SERVIZIO ENI di Rapisarda Carmelo", "Comune": "CAMPOROTONDO ETNEO", "idImpianto": 32033, "points": [{"type": "Feature", "properties": {}, "geometry": {"type": "Point", "coordinates": [15.00587448477745, 37.57031279591856]}}], "price": 2.039, "ultima_rilevazione": "13/06/2022 10:29:40"}, {"Gestore": "LA ROSA ANTONINO", "Bandiera": "EOS", "Tipo impianto": "Altro", "Indirizzo": "via roma 56 95030", "Nome impianto": "PV EOS", "Comune": "SAN PIETRO CLARENZA", "idImpianto": 51010, "points": [{"type": "Feature", "properties": {}, "geometry": {"type": "Point", "coordinates": [15.02309839789172, 37.56951975812039]}}], "price": 2.059, "ultima_rilevazione": "13/06/2022 23:57:03"}, {"Gestore": "F.LLI LA PIANA S.N.C. DI LA PIANA TOMMASO E C.", "Bandiera": "Petrol Company", "Tipo impianto": "Altro", "Indirizzo": "Via Don Giovanni Minzoni snc 95123", "Nome impianto": "STAZIONE DI SERVIZIO PETROL COMPANY CT", "Comune": "CATANIA", "idImpianto": 42949, "points": [{"type": "Feature", "properties": {}, "geometry": {"type": "Point", "coordinates": [15.04600430613425, 37.547559189875166]}}], "price": 2.019, "ultima_rilevazione": "17/06/2022 00:10:06"}], "3": [{"Gestore": "GUAGLIARDO GIANMARCO", "Bandiera": "Api-Ip", "Tipo impianto": "Altro", "Indirizzo": "VIA GALERMO ANG. VIA DEI GIACINTI SN 95123", "Nome impianto": "IP", "Comune": "CATANIA", "idImpianto": 42516, "points": [{"type": "Feature", "properties": {}, "geometry": {"type": "Point", "coordinates": [15.055889636278152, 37.53964286139565]}}], "price": 1.879, "ultima_rilevazione": "26/05/2022 19:40:02"}, {"Gestore": "ETNA CARBURANTI S.R.L.S.", "Bandiera": "Pompe Bianche", "Tipo impianto": "Altro", "Indirizzo": "S.P. n. 14  95032", "Nome impianto": "AP - Etna Carburanti", "Comune": "BELPASSO", "idImpianto": 45018, "points": [{"type": "Feature", "properties": {}, "geometry": {"type": "Point", "coordinates": [14.978098644020974, 37.57790845019118]}}], "price": 2.029, "ultima_rilevazione": "11/06/2022 16:08:15"}, {"Gestore": "COMANGAS S.R.L.", "Bandiera": "Pompe Bianche", "Tipo impianto": "Altro", "Indirizzo": "Strada Provinciale 56/i  54 95032", "Nome impianto": "COMANGAS", "Comune": "BELPASSO", "idImpianto": 37101, "points": [{"type": "Feature", "properties": {}, "geometry": {"type": "Point", "coordinates": [14.994662608026148, 37.57489090120445]}}], "price": 2.009, "ultima_rilevazione": "13/06/2022 12:40:39"}, {"Gestore": "G. & G. PETROLI S.R.L.", "Bandiera": "Lukoil", "Tipo impianto": "Altro", "Indirizzo": "SP3iii  95032", "Nome impianto": "G&G PETROLI", "Comune": "BELPASSO", "idImpianto": 25115, "points": [{"type": "Feature", "properties": {}, "geometry": {"type": "Point", "coordinates": [14.983834773302078, 37.55691948273381]}}], "price": 1.997, "ultima_rilevazione": "14/06/2022 09:10:52"}, {"Gestore": "ETNA CARBURANTI S.R.L.", "Bandiera": "Pompe Bianche", "Tipo impianto": "Altro", "Indirizzo": "Via Polveriera 52 95030", "Nome impianto": "Etna Carburanti", "Comune": "MASCALUCIA", "idImpianto": 22602, "points": [{"type": "Feature", "properties": {}, "geometry": {"type": "Point", "coordinates": [15.046859309077265, 37.56428850548005]}}], "price": 2.019, "ultima_rilevazione": "14/06/2022 11:13:42"}, {"Gestore": "ENFA S.R.L.S.", "Bandiera": "Nobile Oil", "Tipo impianto": "Altro", "Indirizzo": "VIA DEL BOSCO 247 95030", "Nome impianto": "NOBILE  ENFA srls", "Comune": "MASCALUCIA", "idImpianto": 50339, "points": [{"type": "Feature", "properties": {}, "geometry": {"type": "Point", "coordinates": [15.031842277606092, 37.60737248021352]}}], "price": 2.029, "ultima_rilevazione": "14/06/2022 18:58:51"}, {"Gestore": "PUSILLICO CARMELO", "Bandiera": "Agip Eni", "Tipo impianto": "Altro", "Indirizzo": "via della misericordia snc 95123", "Nome impianto": "eni39227", "Comune": "CATANIA", "idImpianto": 49415, "points": [{"type": "Feature", "properties": {}, "geometry": {"type": "Point", "coordinates": [15.04657818067865, 37.54374333421922]}}], "price": 2.059, "ultima_rilevazione": "15/06/2022 04:06:55"}, {"Gestore": "GE.I.CA. DI INGAGLIO ANGELO E C.  S.N.C.", "Bandiera": "Q8", "Tipo impianto": "Altro", "Indirizzo": "VIA ETNEA  92 95030", "Nome impianto": "Q8", "Comune": "GRAVINA DI CATANIA", "idImpianto": 41283, "points": [{"type": "Feature", "properties": {}, "geometry": {"type": "Point", "coordinates": [15.06601832807064, 37.54889390753284]}}], "price": 2.039, "ultima_rilevazione": "15/06/2022 11:53:45"}, {"Gestore": "CALABRESE IVAN", "Bandiera": "Agip Eni", "Tipo impianto": "Altro", "Indirizzo": "VIA A. GRAMSCI 16 95030", "Nome impianto": "Distributore Eni di Ivan Calabrese", "Comune": "GRAVINA DI CATANIA", "idImpianto": 38013, "points": [{"type": "Feature", "properties": {}, "geometry": {"type": "Point", "coordinates": [15.065124168986586, 37.55249895261787]}}], "price": 2.069, "ultima_rilevazione": "16/06/2022 07:05:08"}, {"Gestore": "ENERGY CONSULTANCY OIL S.R.L.", "Bandiera": "Ecoil", "Tipo impianto": "Altro", "Indirizzo": "strada san giovanni galermo sn 95045", "Nome impianto": "Ecoil", "Comune": "MISTERBIANCO", "idImpianto": 49479, "points": [{"type": "Feature", "properties": {}, "geometry": {"type": "Point", "coordinates": [15.0316366836364, 37.53448285210843]}}], "price": 1.989, "ultima_rilevazione": "16/06/2022 08:04:16"}, {"Gestore": "FKM OIL S.R.L.", "Bandiera": "Agip Eni", "Tipo impianto": "Altro", "Indirizzo": "VIA ALCIDE DE GASPERI SN 95030", "Nome impianto": "FKM OIL SRL", "Comune": "MASCALUCIA", "idImpianto": 44028, "points": [{"type": "Feature", "properties": {}, "geometry": {"type": "Point", "coordinates": [15.058175000123, 37.573192000123]}}], "price": 2.089, "ultima_rilevazione": "16/06/2022 09:39:28"}, {"Gestore": "FKM OIL S.R.L.", "Bandiera": "Agip Eni", "Tipo impianto": "Altro", "Indirizzo": "VIA ALCIDE DE GASPERI SN 95030", "Nome impianto": "FKM OIL SRL", "Comune": "MASCALUCIA", "idImpianto": 47065, "points": [{"type": "Feature", "properties": {}, "geometry": {"type": "Point", "coordinates": [15.058175000123, 37.573192000123]}}], "price": 2.089, "ultima_rilevazione": "16/06/2022 09:42:23"}, {"Gestore": "G.M. PETROLI S.R.L.", "Bandiera": "Pompe Bianche", "Tipo impianto": "Altro", "Indirizzo": " STR. S.G.GALERMO ANG C. SPORT. S.N. 95045", "Nome impianto": "POGGIO LUPO ", "Comune": "MISTERBIANCO", "idImpianto": 41743, "points": [{"type": "Feature", "properties": {}, "geometry": {"type": "Point", "coordinates": [15.038356821826142, 37.53725174811804]}}], "price": 1.989, "ultima_rilevazione": "16/06/2022 11:14:52"}, {"Gestore": "T.D.M. S.R.L.", "Bandiera": "Tamoil", "Tipo impianto": "Altro", "Indirizzo": "VIA ETNEA 498 95030", "Nome impianto": "8405", "Comune": "GRAVINA DI CATANIA", "idImpianto": 42411, "points": [{"type": "Feature", "properties": {}, "geometry": {"type": "Point", "coordinates": [15.059654787182808, 37.56473519901591]}}], "price": 2.039, "ultima_rilevazione": "17/06/2022 07:58:03"}, {"Gestore": "G.M. PETROLI S.R.L.", "Bandiera": "Pompe Bianche", "Tipo impianto": "Altro", "Indirizzo": "VIA ALCIDE DE GASPERI S.N. 95030", "Nome impianto": "MASCALUCIA", "Comune": "MASCALUCIA", "idImpianto": 41744, "points": [{"type": "Feature", "properties": {}, "geometry": {"type": "Point", "coordinates": [15.058395637048308, 37.56848470004883]}}], "price": 1.999, "ultima_rilevazione": "16/06/2022 12:29:14"}, {"Gestore": "SACCNE RETE SRL", "Bandiera": "Api-Ip", "Tipo impianto": "Altro", "Indirizzo": "VIA ALCIDE DE GASPERI  95030", "Nome impianto": "MASCALUCIA - SACCNE RETE Srl", "Comune": "MASCALUCIA", "idImpianto": 36064, "points": [{"type": "Feature", "properties": {}, "geometry": {"type": "Point", "coordinates": [15.05851149559021, 37.57002260534959]}}], "price": 2.029, "ultima_rilevazione": "16/06/2022 17:42:52"}, {"Gestore": "SERVIZI E GESTIONI ZENIT S.R.L. IN SIGLA - ZENIT S.R.L.", "Bandiera": "Giap", "Tipo impianto": "Altro", "Indirizzo": "C.DA GROTTA DEL BUE", "Nome impianto": "C.DA GROTTA DEL BUE MASCALUCIA", "Comune": "MASCALUCIA", "idImpianto": 24884, "points": [{"type": "Feature", "properties": {}, "geometry": {"type": "Point", "coordinates": [15.033427476882936, 37.60430084841633]}}], "price": 2.049, "ultima_rilevazione": "16/06/2022 17:53:18"}, {"Gestore": "SERVIZI E GESTIONI ZENIT S.R.L. IN SIGLA - ZENIT S.R.L.", "Bandiera": "Esso", "Tipo impianto": "Altro", "Indirizzo": "S.P. 56/1 PER CAMPOROTONDO  95032", "Nome impianto": "S.P. 56/1 PER CAMPOROTONDO - BELPASSO", "Comune": "BELPASSO", "idImpianto": 40220, "points": [{"type": "Feature", "properties": {}, "geometry": {"type": "Point", "coordinates": [14.983198580465682, 37.58015893956463]}}], "price": 2.079, "ultima_rilevazione": "16/06/2022 17:53:33"}, {"Gestore": "F.LLI LA PIANA S.N.C. DI LA PIANA TOMMASO E C.", "Bandiera": "Petrol Company", "Tipo impianto": "Altro", "Indirizzo": "STRADA PER SAN GIOVANNI GALERMO 104 95045", "Nome impianto": "petrol company MISTERBIANCO", "Comune": "MISTERBIANCO", "idImpianto": 42843, "points": [{"type": "Feature", "properties": {}, "geometry": {"type": "Point", "coordinates": [15.04069186011884, 37.53849445868678]}}], "price": 2.009, "ultima_rilevazione": "17/06/2022 00:10:05"}, {"Gestore": "PETROL COMPANY  S.R.L.", "Bandiera": "Petrol Company", "Tipo impianto": "Altro", "Indirizzo": "VIA ETNEA  SNC 95030", "Nome impianto": "PETROL COMPANY GRAVINA DI CATANIA - 74778", "Comune": "GRAVINA DI CATANIA", "idImpianto": 33483, "points": [{"type": "Feature", "properties": {}, "geometry": {"type": "Point", "coordinates": [15.06608735101588, 37.54751941297728]}}], "price": 2.019, "ultima_rilevazione": "17/06/2022 00:12:10"}, {"Gestore": "SERVIZI & GESTIONI ITALIA S.R.L.", "Bandiera": "Q8", "Tipo impianto": "Altro", "Indirizzo": "VIA A. DE GASPERI SNC 95028", "Nome impianto": "MASCALUCIA VIA A. DE GASPERI SNC", "Comune": "MASCALUCIA", "idImpianto": 41103, "points": [{"type": "Feature", "properties": {}, "geometry": {"type": "Point", "coordinates": [15.053292311674111, 37.58178450244323]}}], "price": 2.069, "ultima_rilevazione": "17/06/2022 01:45:47"}], "5": [{"Gestore": "PREDA ALINA COSTINELA", "Bandiera": "Agip Eni", "Tipo impianto": "Altro", "Indirizzo": "VIA FRANCESCO LO JACONO 75 95030", "Nome impianto": "ENI STATION", "Comune": "SANT'AGATA LI BATTIATI", "idImpianto": 48664, "points": [{"type": "Feature", "properties": {}, "geometry": {"type": "Point", "coordinates": [15.08074415944222, 37.5408619009466]}}], "price": 1.679, "ultima_rilevazione": "11/10/2021 18:23:37"}, {"Gestore": "SAPIENZA MARIA ELENA", "Bandiera": "Esso", "Tipo impianto": "Altro", "Indirizzo": "VIA ETNEA 20 95030", "Nome impianto": "RIFORNIMENTO ESSO DI SAPIENZA MARIA ELENA", "Comune": "GRAVINA DI CATANIA", "idImpianto": 26895, "points": [{"type": "Feature", "properties": {}, "geometry": {"type": "Point", "coordinates": [15.07476031780243, 37.54353779808862]}}], "price": 1.529, "ultima_rilevazione": "17/06/2022 06:18:03"}, {"Gestore": "D'URSO SALVATORE", "Bandiera": "Agip Eni", "Tipo impianto": "Altro", "Indirizzo": "VIA ETNEA 400 95030", "Nome impianto": "eni station 58304 di d'urso salvatore", "Comune": "TREMESTIERI ETNEO", "idImpianto": 15650, "points": [{"type": "Feature", "properties": {}, "geometry": {"type": "Point", "coordinates": [15.070404649737611, 37.5810188349678]}}], "price": 1.774, "ultima_rilevazione": "06/04/2022 19:02:45"}, {"Gestore": "GIUFFRIDA CLAUDIO", "Bandiera": "Sicilpetroli", "Tipo impianto": "Altro", "Indirizzo": "VIA UMBERTO 31 95030", "Nome impianto": "GIUFFRIDA CLAUDIO", "Comune": "SANT'AGATA LI BATTIATI", "idImpianto": 32423, "points": [{"type": "Feature", "properties": {}, "geometry": {"type": "Point", "coordinates": [15.08115292883599, 37.55594657704682]}}], "price": 1.779, "ultima_rilevazione": "09/05/2022 18:52:59"}, {"Gestore": "BONANNO SALVATORE", "Bandiera": "Pompe Bianche", "Tipo impianto": "Altro", "Indirizzo": "STRADA PROVINCIALE GIARRE-S. MARIA DI LICODIA 252 95030", "Nome impianto": "S.B. GAS AUTO", "Comune": "NICOLOSI", "idImpianto": 21763, "points": [{"type": "Feature", "properties": {}, "geometry": {"type": "Point", "coordinates": [15.00744491815567, 37.611086992721184]}}], "price": 1.979, "ultima_rilevazione": "09/06/2022 12:50:27"}, {"Gestore": "A.S. ENERGETICA S.R.L.", "Bandiera": "Pompe Bianche", "Tipo impianto": "Altro", "Indirizzo": "STRADA PROVINCIALE 13 69 95040", "Nome impianto": "AS ENERGETICA SRL", "Comune": "MOTTA SANT'ANASTASIA", "idImpianto": 51227, "points": [{"type": "Feature", "properties": {}, "geometry": {"type": "Point", "coordinates": [14.99072541935569, 37.52519001018309]}}], "price": 1.969, "ultima_rilevazione": "11/06/2022 08:21:13"}, {"Gestore": "NICOLOSI ANTONINO", "Bandiera": "Agip Eni", "Tipo impianto": "Altro", "Indirizzo": "via della regione n.151, 95037", "Nome impianto": "eni", "Comune": "SAN GIOVANNI LA PUNTA", "idImpianto": 19845, "points": [{"type": "Feature", "properties": {}, "geometry": {"type": "Point", "coordinates": [15.089331325131296, 37.578194666033376]}}], "price": 2.019, "ultima_rilevazione": "11/06/2022 09:46:24"}, {"Gestore": "SANTONOCITO ANTONINO", "Bandiera": "DBCarburanti", "Tipo impianto": "Altro", "Indirizzo": "S.P.N.56/11 BELPASSO-PATERNO'  95032", "Nome impianto": "AUTORIFORNIMENTO ESSO", "Comune": "BELPASSO", "idImpianto": 14317, "points": [{"type": "Feature", "properties": {}, "geometry": {"type": "Point", "coordinates": [14.972405978438928, 37.58348358098364]}}], "price": 2.009, "ultima_rilevazione": "13/06/2022 06:59:39"}, {"Gestore": "FAMA' GAETANO & C.  S.N.C.", "Bandiera": "Api-Ip", "Tipo impianto": "Altro", "Indirizzo": "via Mongibello ,  4 95032", "Nome impianto": "IP  FAMA' GAETANO & C. snc", "Comune": "BELPASSO", "idImpianto": 26063, "points": [{"type": "Feature", "properties": {}, "geometry": {"type": "Point", "coordinates": [14.983726143836977, 37.53646789298786]}}], "price": 2.079, "ultima_rilevazione": "13/06/2022 13:02:16"}, {"Gestore": "FORTUNATO ANTONIO", "Bandiera": "Agip Eni", "Tipo impianto": "Altro", "Indirizzo": "CORSO CARLO MARX 60 95045", "Nome impianto": "FORTUNATO ANTONIO", "Comune": "MISTERBIANCO", "idImpianto": 23347, "points": [{"type": "Feature", "properties": {}, "geometry": {"type": "Point", "coordinates": [15.024357580950891, 37.51434873166808]}}], "price": 2.049, "ultima_rilevazione": "13/06/2022 16:03:17"}, {"Gestore": "SALAMANCA CARBURANTI DI SALAMANCA GRACIE & C. S.A.S.", "Bandiera": "SP Energia Siciliana", "Tipo impianto": "Altro", "Indirizzo": "PIAZZA EROI D' UNGHERIA 1 95122", "Nome impianto": "SP ENERGIA SICILIANA", "Comune": "CATANIA", "idImpianto": 49547, "points": [{"type": "Feature", "properties": {}, "geometry": {"type": "Point", "coordinates": [15.051065087318417, 37.50761816296298]}}], "price": 2.059, "ultima_rilevazione": "14/06/2022 08:19:21"}, {"Gestore": "LEONARDI ANTONIO", "Bandiera": "Pompe Bianche", "Tipo impianto": "Altro", "Indirizzo": "via Bellini 19 95030", "Nome impianto": "Stazione di servizio Nobile Oil di Antonio Leonardi", "Comune": "SANT'AGATA LI BATTIATI", "idImpianto": 38127, "points": [{"type": "Feature", "properties": {}, "geometry": {"type": "Point", "coordinates": [15.076740458607674, 37.55907638682088]}}], "price": 2.029, "ultima_rilevazione": "14/06/2022 09:10:16"}, {"Gestore": "GRASSO FRANCESCO", "Bandiera": "Q8", "Tipo impianto": "Altro", "Indirizzo": "VIA LENIN 29 95045", "Nome impianto": "GRASSO FRANCESCO", "Comune": "MISTERBIANCO", "idImpianto": 15962, "points": [{"type": "Feature", "properties": {}, "geometry": {"type": "Point", "coordinates": [15.04014917724612, 37.52033248268344]}}], "price": 2.059, "ultima_rilevazione": "14/06/2022 11:05:46"}, {"Gestore": "CO.GE.KAT. S.R.L.", "Bandiera": "Pompe Bianche", "Tipo impianto": "Altro", "Indirizzo": "PIAZZA XXV APRILE SNC 95045", "Nome impianto": "CO.GE.KAT. MISTERBIANCO", "Comune": "MISTERBIANCO", "idImpianto": 34785, "points": [{"type": "Feature", "properties": {}, "geometry": {"type": "Point", "coordinates": [15.003494024276732, 37.518187927155495]}}], "price": 2.019, "ultima_rilevazione": "14/06/2022 12:06:18"}, {"Gestore": "CASTRO DANIELE", "Bandiera": "Esso", "Tipo impianto": "Altro", "Indirizzo": "Viale della Regione 134/136 95027", "Nome impianto": "Distributore Carburanti di Castro Daniele", "Comune": "SAN GIOVANNI LA PUNTA", "idImpianto": 29403, "points": [{"type": "Feature", "properties": {}, "geometry": {"type": "Point", "coordinates": [15.088679132185348, 37.576084544783306]}}], "price": 2.029, "ultima_rilevazione": "14/06/2022 12:33:18"}, {"Gestore": "CAVALLARO LORENZO", "Bandiera": "Q8", "Tipo impianto": "Altro", "Indirizzo": "VIA VINCENZO CASAGRANDI S.N. 95123", "Nome impianto": "Area di Servizio Q8 di Cavallaro Lorenzo", "Comune": "CATANIA", "idImpianto": 28557, "points": [{"type": "Feature", "properties": {}, "geometry": {"type": "Point", "coordinates": [15.065513853717448, 37.51669921524486]}}], "price": 2.099, "ultima_rilevazione": "15/06/2022 06:34:16"}, {"Gestore": "EOS SERVICES S.R.L. A SOCIO UNICO", "Bandiera": "Q8", "Tipo impianto": "Altro", "Indirizzo": "PIAZZA EROI D UNGHERIA S.N. 95122", "Nome impianto": "CT064", "Comune": "CATANIA", "idImpianto": 47458, "points": [{"type": "Feature", "properties": {}, "geometry": {"type": "Point", "coordinates": [15.0511522591114, 37.5080532809172]}}], "price": 2.019, "ultima_rilevazione": "17/06/2022 07:53:51"}, {"Gestore": "GE.RI.CA. GESTIONE RIFORNIMENTI CARBURANTI SOCIETA' A            RESPONSABILITA' LIMITATA SEMPLIFICATA", "Bandiera": "Api-Ip", "Tipo impianto": "Altro", "Indirizzo": "S.P. 13 - C.da Tirit\u00ec  95040", "Nome impianto": "Motta S.Anastasia - C.da Tirit\u00ec", "Comune": "MOTTA SANT'ANASTASIA", "idImpianto": 48286, "points": [{"type": "Feature", "properties": {}, "geometry": {"type": "Point", "coordinates": [14.990786419643406, 37.52518549403502]}}], "price": 2.099, "ultima_rilevazione": "15/06/2022 14:21:24"}, {"Gestore": "STAZIONE ENI DI ZUCCARO RICCARDO", "Bandiera": "Agip Eni", "Tipo impianto": "Altro", "Indirizzo": "VIALE ANDREA DORIA 8 95125", "Nome impianto": "ENI PV 55106", "Comune": "CATANIA", "idImpianto": 42894, "points": [{"type": "Feature", "properties": {}, "geometry": {"type": "Point", "coordinates": [15.075013271163924, 37.52520395415928]}}], "price": 2.069, "ultima_rilevazione": "16/06/2022 07:19:09"}, {"Gestore": "S.M.T. DI FILIPPO TENERELLO & C. S.A.S.", "Bandiera": "Q8", "Tipo impianto": "Altro", "Indirizzo": "VIA LORENZO BOLANO 42 95123", "Nome impianto": "smt di Filippo Tenerello", "Comune": "CATANIA", "idImpianto": 42218, "points": [{"type": "Feature", "properties": {}, "geometry": {"type": "Point", "coordinates": [15.056099431946564, 37.517802231926446]}}], "price": 2.069, "ultima_rilevazione": "16/06/2022 08:08:23"}, {"Gestore": "CO.GE.KAT. S.R.L.", "Bandiera": "Pompe Bianche", "Tipo impianto": "Altro", "Indirizzo": "CONTRADA RAVANUSA SNC 95030", "Nome impianto": "CO.GE.KAT. T.E.", "Comune": "TREMESTIERI ETNEO", "idImpianto": 33515, "points": [{"type": "Feature", "properties": {}, "geometry": {"type": "Point", "coordinates": [15.08382886648178, 37.56856398202246]}}], "price": 2.019, "ultima_rilevazione": "16/06/2022 08:37:23"}, {"Gestore": "MIRICI CAPPA GIUSY", "Bandiera": "Pompe Bianche", "Tipo impianto": "Altro", "Indirizzo": "VIA PIETRO DELL'OVA 190A 95125", "Nome impianto": "MIRICI CAPPA GIUSY", "Comune": "CATANIA", "idImpianto": 37075, "points": [{"type": "Feature", "properties": {}, "geometry": {"type": "Point", "coordinates": [15.087318420410156, 37.53437159110208]}}], "price": 2.069, "ultima_rilevazione": "16/06/2022 08:49:47"}, {"Gestore": "G. & G. PETROLI S.R.L.", "Bandiera": "Lukoil", "Tipo impianto": "Altro", "Indirizzo": "VIA CAVOUR ANG. VIA C. SALANITRO  SN 95030", "Nome impianto": "G&G PETROLI SRL TREMESTIERI", "Comune": "TREMESTIERI ETNEO", "idImpianto": 49179, "points": [{"type": "Feature", "properties": {}, "geometry": {"type": "Point", "coordinates": [15.072303414344788, 37.56728667987174]}}], "price": 2.007, "ultima_rilevazione": "16/06/2022 08:57:22"}, {"Gestore": "AMENDOLIA SERGIO", "Bandiera": "Agip Eni", "Tipo impianto": "Altro", "Indirizzo": "VIA FELICE FONTANA SN 95122", "Nome impianto": "Eni 19572", "Comune": "CATANIA", "idImpianto": 37069, "points": [{"type": "Feature", "properties": {}, "geometry": {"type": "Point", "coordinates": [15.04106506705284, 37.51378190808904]}}], "price": 2.069, "ultima_rilevazione": "16/06/2022 09:05:09"}, {"Gestore": "EOS SERVICES S.R.L. A SOCIO UNICO", "Bandiera": "EOS", "Tipo impianto": "Altro", "Indirizzo": "PIAZZA MUNICIPIO S.N. 95032", "Nome impianto": "CT077", "Comune": "BELPASSO", "idImpianto": 47587, "points": [{"type": "Feature", "properties": {}, "geometry": {"type": "Point", "coordinates": [14.977996349334711, 37.59083799842856]}}], "price": 2.019, "ultima_rilevazione": "16/06/2022 09:32:53"}, {"Gestore": "DELF SERVICE CAR S.A.S. DI BIANCO DANIELA & C.", "Bandiera": "Agip Eni", "Tipo impianto": "Altro", "Indirizzo": "VIA G. VERDI S.N. 95040", "Nome impianto": "eni", "Comune": "MOTTA SANT'ANASTASIA", "idImpianto": 26828, "points": [{"type": "Feature", "properties": {}, "geometry": {"type": "Point", "coordinates": [14.998287856578829, 37.52078801608408]}}], "price": 2.069, "ultima_rilevazione": "16/06/2022 09:34:17"}, {"Gestore": "EGI-2GO S.R.L.", "Bandiera": "Esso", "Tipo impianto": "Altro", "Indirizzo": "VIA A. DIAZ 11 95121", "Nome impianto": "Diaz", "Comune": "CATANIA", "idImpianto": 48715, "points": [{"type": "Feature", "properties": {}, "geometry": {"type": "Point", "coordinates": [15.056489387731531, 37.5117304257775]}}], "price": 2.049, "ultima_rilevazione": "16/06/2022 11:01:15"}, {"Gestore": "IOZZIA OMAR PIETRO", "Bandiera": "Agip Eni", "Tipo impianto": "Altro", "Indirizzo": "VIALE LORENZO BOLANO 50 95125", "Nome impianto": "Eni Bolano", "Comune": "CATANIA", "idImpianto": 38832, "points": [{"type": "Feature", "properties": {}, "geometry": {"type": "Point", "coordinates": [15.05875088274479, 37.51864425759192]}}], "price": 2.069, "ultima_rilevazione": "16/06/2022 11:05:37"}, {"Gestore": "T.D.M. S.R.L.", "Bandiera": "Tamoil", "Tipo impianto": "Altro", "Indirizzo": "via Marconi  95030", "Nome impianto": "8409", "Comune": "NICOLOSI", "idImpianto": 35712, "points": [{"type": "Feature", "properties": {}, "geometry": {"type": "Point", "coordinates": [15.017385184764862, 37.61232886774137]}}], "price": 2.029, "ultima_rilevazione": "16/06/2022 11:22:15"}, {"Gestore": "FIZZAR S.A.S. DI MORABITO AGATINO & C.", "Bandiera": "Api-Ip", "Tipo impianto": "Altro", "Indirizzo": "CORSO ARA DI GIOVE 340 95030", "Nome impianto": "FIZZAR", "Comune": "PEDARA", "idImpianto": 26920, "points": [{"type": "Feature", "properties": {}, "geometry": {"type": "Point", "coordinates": [15.048993175888084, 37.61563489639989]}}], "price": 2.099, "ultima_rilevazione": "16/06/2022 11:28:32"}, {"Gestore": "ZAPPALA' SALVATORE E C. S.N.C.", "Bandiera": "Agip Eni", "Tipo impianto": "Altro", "Indirizzo": "VIA BARRIERA DEL BOSCO 5 95030", "Nome impianto": "ENI battiati", "Comune": "SANT'AGATA LI BATTIATI", "idImpianto": 27314, "points": [{"type": "Feature", "properties": {}, "geometry": {"type": "Point", "coordinates": [15.08294641971588, 37.54728154343967]}}], "price": 2.069, "ultima_rilevazione": "16/06/2022 11:51:11"}, {"Gestore": "MARGOIL S.R.L.", "Bandiera": "Pompe Bianche", "Tipo impianto": "Altro", "Indirizzo": "via Aldo Moro SN 95045", "Nome impianto": "MARGOIL", "Comune": "MISTERBIANCO", "idImpianto": 46985, "points": [{"type": "Feature", "properties": {}, "geometry": {"type": "Point", "coordinates": [15.013797000123, 37.513947000123]}}], "price": 1.987, "ultima_rilevazione": "16/06/2022 12:30:20"}, {"Gestore": "SERVIZI E GESTIONI ZENIT S.R.L. IN SIGLA - ZENIT S.R.L.", "Bandiera": "Agip Eni", "Tipo impianto": "Altro", "Indirizzo": "VIA RAVANUSA 20 95037", "Nome impianto": "VIA RAVANUSA SGP", "Comune": "SAN GIOVANNI LA PUNTA", "idImpianto": 12035, "points": [{"type": "Feature", "properties": {}, "geometry": {"type": "Point", "coordinates": [15.087617580356664, 37.57209173411017]}}], "price": 2.058, "ultima_rilevazione": "16/06/2022 17:53:16"}, {"Gestore": "SERVIZI E GESTIONI ZENIT S.R.L. IN SIGLA - ZENIT S.R.L.", "Bandiera": "Agip Eni", "Tipo impianto": "Altro", "Indirizzo": "VIA PALERMO  95122", "Nome impianto": "VIA PALERMO CT", "Comune": "CATANIA", "idImpianto": 12380, "points": [{"type": "Feature", "properties": {}, "geometry": {"type": "Point", "coordinates": [15.045227948410002, 37.50952878676218]}}], "price": 2.029, "ultima_rilevazione": "16/06/2022 17:53:17"}, {"Gestore": "SERVIZI E GESTIONI ZENIT S.R.L. IN SIGLA - ZENIT S.R.L.", "Bandiera": "Esso", "Tipo impianto": "Altro", "Indirizzo": "VIA MICHELE CANTONE 36 95100", "Nome impianto": "VIA MICHELE CANTONE, 36 - CATANIA", "Comune": "CATANIA", "idImpianto": 40705, "points": [{"type": "Feature", "properties": {}, "geometry": {"type": "Point", "coordinates": [15.069434624165297, 37.516908166057895]}}], "price": 2.089, "ultima_rilevazione": "16/06/2022 17:53:21"}, {"Gestore": "IPERSTAROIL S.R.L.", "Bandiera": "Pompe Bianche", "Tipo impianto": "Altro", "Indirizzo": "VIA ENRICO MATTEI  90045", "Nome impianto": "IPERSTAROIL ", "Comune": "MISTERBIANCO", "idImpianto": 50488, "points": [{"type": "Feature", "properties": {}, "geometry": {"type": "Point", "coordinates": [15.021663971163932, 37.51415417246397]}}], "price": 1.989, "ultima_rilevazione": "16/06/2022 18:10:02"}, {"Gestore": "FOOD&OIL DI CRISTIANO TITOLA", "Bandiera": "Esso", "Tipo impianto": "Altro", "Indirizzo": "via del bosco  380 95125", "Nome impianto": "esso", "Comune": "CATANIA", "idImpianto": 46818, "points": [{"type": "Feature", "properties": {}, "geometry": {"type": "Point", "coordinates": [15.078447991029408, 37.54390100392222]}}], "price": 2.039, "ultima_rilevazione": "16/06/2022 20:32:31"}, {"Gestore": "SOGECAR S.R.L.", "Bandiera": "Petrol Company", "Tipo impianto": "Altro", "Indirizzo": "VIA PASSO GRAVINA 170 95121", "Nome impianto": "PETROL COMPANY CATANIA PASSO GRAVINA", "Comune": "CATANIA", "idImpianto": 33267, "points": [{"type": "Feature", "properties": {}, "geometry": {"type": "Point", "coordinates": [15.074898451566696, 37.53532148519354]}}], "price": 2.019, "ultima_rilevazione": "17/06/2022 00:10:02"}, {"Gestore": "IBLEA PETROLI S.R.L.", "Bandiera": "Iblea Petroli", "Tipo impianto": "Altro", "Indirizzo": "VIA SAN GREGORIO 1/B 95030", "Nome impianto": "IBLEA PETROLI", "Comune": "SANT'AGATA LI BATTIATI", "idImpianto": 35774, "points": [{"type": "Feature", "properties": {}, "geometry": {"type": "Point", "coordinates": [15.090414360165596, 37.544031190395245]}}], "price": 2.039, "ultima_rilevazione": "17/06/2022 00:10:03"}, {"Gestore": "ENI FUEL S.P.A.", "Bandiera": "Agip Eni", "Tipo impianto": "Altro", "Indirizzo": "Via Carlo Marx 10 95045", "Nome impianto": "9595 MISTERBIANCO", "Comune": "MISTERBIANCO", "idImpianto": 5406, "points": [{"type": "Feature", "properties": {}, "geometry": {"type": "Point", "coordinates": [15.030944265870858, 37.51253084817209]}}], "price": 2.069, "ultima_rilevazione": "17/06/2022 07:08:11"}, {"Gestore": "CARBOMIX - S.R.L.", "Bandiera": "Petrol Company", "Tipo impianto": "Altro", "Indirizzo": "Via Palermo snc 95122", "Nome impianto": "PETROL COMPANY CT VIA PALERMO", "Comune": "CATANIA", "idImpianto": 50944, "points": [{"type": "Feature", "properties": {}, "geometry": {"type": "Point", "coordinates": [15.041542247850437, 37.5112735773333]}}], "price": 2.019, "ultima_rilevazione": "17/06/2022 00:18:18"}, {"Gestore": "SERVIZI & GESTIONI ITALIA S.R.L.", "Bandiera": "Q8", "Tipo impianto": "Altro", "Indirizzo": "VIA  CASAGRANDI  95123", "Nome impianto": "CATANIA CASAGRANDI", "Comune": "CATANIA", "idImpianto": 25589, "points": [{"type": "Feature", "properties": {}, "geometry": {"type": "Point", "coordinates": [15.065841546627098, 37.51657538270625]}}], "price": 2.129, "ultima_rilevazione": "17/06/2022 01:45:23"}, {"Gestore": "SERVIZI & GESTIONI ITALIA srl", "Bandiera": "Q8", "Tipo impianto": "Altro", "Indirizzo": "DUCA DEGLI ABRUZZI 203 95037", "Nome impianto": "SAN GIOVANNI LA PUNTA DUCA DEGLI ABRUZZI 203", "Comune": "SAN GIOVANNI LA PUNTA", "idImpianto": 6773, "points": [{"type": "Feature", "properties": {}, "geometry": {"type": "Point", "coordinates": [15.087661032540836, 37.55042545526232]}}], "price": 2.029, "ultima_rilevazione": "17/06/2022 01:45:24"}, {"Gestore": "SERVIZI & GESTIONI ITALIA S.R.L.", "Bandiera": "Q8", "Tipo impianto": "Altro", "Indirizzo": "STRADA PROVINCIALE 42  95030", "Nome impianto": "PEDARA STRADA PROVINCIALE 42", "Comune": "PEDARA", "idImpianto": 32493, "points": [{"type": "Feature", "properties": {}, "geometry": {"type": "Point", "coordinates": [15.065449561376909, 37.60186980344919]}}], "price": 2.069, "ultima_rilevazione": "17/06/2022 07:07:10"}, {"Gestore": "T & T SERVICE S.R.L.", "Bandiera": "Q8", "Tipo impianto": "Altro", "Indirizzo": "VIA ETNEA ANG.ARDIZZONE GIOENI, 95100", "Nome impianto": "T&T SERVICE SRL", "Comune": "CATANIA", "idImpianto": 10759, "points": [{"type": "Feature", "properties": {}, "geometry": {"type": "Point", "coordinates": [15.081546306610107, 37.52573095543272]}}], "price": 2.099, "ultima_rilevazione": "17/06/2022 07:22:46"}, {"Gestore": "ZAFARANA ADRIANO", "Bandiera": "Api-Ip", "Tipo impianto": "Altro", "Indirizzo": "Via F. Lo Jacono 77 95030", "Nome impianto": "Stazione di servizio IP di Zafarana Adriano", "Comune": "SANT'AGATA LI BATTIATI", "idImpianto": 12149, "points": [{"type": "Feature", "properties": {}, "geometry": {"type": "Point", "coordinates": [15.0813048499665, 37.54070075287584]}}], "price": 2.049, "ultima_rilevazione": "17/06/2022 07:24:12"}, {"Gestore": "ENI FUEL S.P.A.", "Bandiera": "Agip Eni", "Tipo impianto": "Altro", "Indirizzo": "Viale Rapisardi 500 95122", "Nome impianto": "9590 Catania Rapisardi", "Comune": "CATANIA", "idImpianto": 35631, "points": [{"type": "Feature", "properties": {}, "geometry": {"type": "Point", "coordinates": [15.053733810782433, 37.50839157399883]}}], "price": 2.069, "ultima_rilevazione": "17/06/2022 07:26:09"}, {"Gestore": "PERCOLLA DARIO", "Bandiera": "Esso", "Tipo impianto": "Altro", "Indirizzo": "via della regione 2 95030", "Nome impianto": "esso percolla dario", "Comune": "SAN GIOVANNI LA PUNTA", "idImpianto": 13970, "points": [{"type": "Feature", "properties": {}, "geometry": {"type": "Point", "coordinates": [15.086534619331356, 37.57166488976966]}}], "price": 2.059, "ultima_rilevazione": "17/06/2022 07:29:46"}, {"Gestore": "CASTRO FRANCESCO", "Bandiera": "Esso", "Tipo impianto": "Altro", "Indirizzo": "VIALE FRATELLI VIVALDI SN 95123", "Nome impianto": "ESSO", "Comune": "CATANIA", "idImpianto": 47055, "points": [{"type": "Feature", "properties": {}, "geometry": {"type": "Point", "coordinates": [15.06784280625757, 37.5225585354149]}}], "price": 2.066, "ultima_rilevazione": "17/06/2022 07:35:01"}, {"Gestore": "DBS SERVIZI PETROLIFERI S.R.L.", "Bandiera": "Sicilpetroli", "Tipo impianto": "Altro", "Indirizzo": "Via Aldo Moro  95045", "Nome impianto": "DBS SERVIZI PETROLIFERI SRL MISTERBIANCO MORO", "Comune": "MISTERBIANCO", "idImpianto": 38095, "points": [{"type": "Feature", "properties": {}, "geometry": {"type": "Point", "coordinates": [15.013864155854437, 37.51408872939491]}}], "price": 1.987, "ultima_rilevazione": "17/06/2022 07:48:09"}, {"Gestore": "SICILPETROLI S.R.L.", "Bandiera": "Sicilpetroli", "Tipo impianto": "Altro", "Indirizzo": "C.SO UMBERTO 12 95030", "Nome impianto": "SICILPETROLI SRL SALB", "Comune": "SANT'AGATA LI BATTIATI", "idImpianto": 41480, "points": [{"type": "Feature", "properties": {}, "geometry": {"type": "Point", "coordinates": [15.080917328596115, 37.55688631225984]}}], "price": 1.989, "ultima_rilevazione": "17/06/2022 07:49:25"}]}, "null": {}, "GPL": {"1": [{"Gestore": "RAPISARDA CARMELO", "Bandiera": "Agip Eni", "Tipo impianto": "Altro", "Indirizzo": "VIA A. DE GASPERI S.N. 95040", "Nome impianto": "STAZIONE DI SERVIZIO ENI di Rapisarda Carmelo", "Comune": "CAMPOROTONDO ETNEO", "idImpianto": 32033, "points": [{"type": "Feature", "properties": {}, "geometry": {"type": "Point", "coordinates": [15.00587448477745, 37.57031279591856]}}], "price": 0.849, "ultima_rilevazione": "13/06/2022 10:29:40"}], "3": [{"Gestore": "GUAGLIARDO GIANMARCO", "Bandiera": "Api-Ip", "Tipo impianto": "Altro", "Indirizzo": "VIA GALERMO ANG. VIA DEI GIACINTI SN 95123", "Nome impianto": "IP", "Comune": "CATANIA", "idImpianto": 42516, "points": [{"type": "Feature", "properties": {}, "geometry": {"type": "Point", "coordinates": [15.055889636278152, 37.53964286139565]}}], "price": 0.799, "ultima_rilevazione": "26/05/2022 19:40:02"}, {"Gestore": "COMANGAS S.R.L.", "Bandiera": "Pompe Bianche", "Tipo impianto": "Altro", "Indirizzo": "Strada Provinciale 56/i  54 95032", "Nome impianto": "COMANGAS", "Comune": "BELPASSO", "idImpianto": 37101, "points": [{"type": "Feature", "properties": {}, "geometry": {"type": "Point", "coordinates": [14.994662608026148, 37.57489090120445]}}], "price": 0.8, "ultima_rilevazione": "13/06/2022 12:40:39"}, {"Gestore": "G. & G. PETROLI S.R.L.", "Bandiera": "Lukoil", "Tipo impianto": "Altro", "Indirizzo": "SP3iii  95032", "Nome impianto": "G&G PETROLI", "Comune": "BELPASSO", "idImpianto": 25115, "points": [{"type": "Feature", "properties": {}, "geometry": {"type": "Point", "coordinates": [14.983834773302078, 37.55691948273381]}}], "price": 0.785, "ultima_rilevazione": "14/06/2022 09:10:52"}, {"Gestore": "ETNA CARBURANTI S.R.L.", "Bandiera": "Pompe Bianche", "Tipo impianto": "Altro", "Indirizzo": "Via Polveriera 52 95030", "Nome impianto": "Etna Carburanti", "Comune": "MASCALUCIA", "idImpianto": 22602, "points": [{"type": "Feature", "properties": {}, "geometry": {"type": "Point", "coordinates": [15.046859309077265, 37.56428850548005]}}], "price": 0.8, "ultima_rilevazione": "14/06/2022 11:13:42"}, {"Gestore": "G.M. PETROLI S.R.L.", "Bandiera": "Pompe Bianche", "Tipo impianto": "Altro", "Indirizzo": " STR. S.G.GALERMO ANG C. SPORT. S.N. 95045", "Nome impianto": "POGGIO LUPO ", "Comune": "MISTERBIANCO", "idImpianto": 41743, "points": [{"type": "Feature", "properties": {}, "geometry": {"type": "Point", "coordinates": [15.038356821826142, 37.53725174811804]}}], "price": 0.785, "ultima_rilevazione": "16/06/2022 11:14:52"}, {"Gestore": "G.M. PETROLI S.R.L.", "Bandiera": "Pompe Bianche", "Tipo impianto": "Altro", "Indirizzo": "VIA ALCIDE DE GASPERI S.N. 95030", "Nome impianto": "MASCALUCIA", "Comune": "MASCALUCIA", "idImpianto": 41744, "points": [{"type": "Feature", "properties": {}, "geometry": {"type": "Point", "coordinates": [15.058395637048308, 37.56848470004883]}}], "price": 0.785, "ultima_rilevazione": "16/06/2022 12:29:14"}, {"Gestore": "PETROL COMPANY  S.R.L.", "Bandiera": "Petrol Company", "Tipo impianto": "Altro", "Indirizzo": "VIA ETNEA  SNC 95030", "Nome impianto": "PETROL COMPANY GRAVINA DI CATANIA - 74778", "Comune": "GRAVINA DI CATANIA", "idImpianto": 33483, "points": [{"type": "Feature", "properties": {}, "geometry": {"type": "Point", "coordinates": [15.06608735101588, 37.54751941297728]}}], "price": 0.787, "ultima_rilevazione": "17/06/2022 00:12:10"}], "5": [{"Gestore": "BONANNO SALVATORE", "Bandiera": "Pompe Bianche", "Tipo impianto": "Altro", "Indirizzo": "STRADA PROVINCIALE GIARRE-S. MARIA DI LICODIA 252 95030", "Nome impianto": "S.B. GAS AUTO", "Comune": "NICOLOSI", "idImpianto": 21763, "points": [{"type": "Feature", "properties": {}, "geometry": {"type": "Point", "coordinates": [15.00744491815567, 37.611086992721184]}}], "price": 0.785, "ultima_rilevazione": "09/06/2022 12:50:27"}, {"Gestore": "GE.RI.CA. GESTIONE RIFORNIMENTI CARBURANTI SOCIETA' A            RESPONSABILITA' LIMITATA SEMPLIFICATA", "Bandiera": "Api-Ip", "Tipo impianto": "Altro", "Indirizzo": "S.P. 13 - C.da Tirit\u00ec  95040", "Nome impianto": "Motta S.Anastasia - C.da Tirit\u00ec", "Comune": "MOTTA SANT'ANASTASIA", "idImpianto": 48286, "points": [{"type": "Feature", "properties": {}, "geometry": {"type": "Point", "coordinates": [14.990786419643406, 37.52518549403502]}}], "price": 0.819, "ultima_rilevazione": "15/06/2022 14:21:24"}, {"Gestore": "G. & G. PETROLI S.R.L.", "Bandiera": "Lukoil", "Tipo impianto": "Altro", "Indirizzo": "VIA CAVOUR ANG. VIA C. SALANITRO  SN 95030", "Nome impianto": "G&G PETROLI SRL TREMESTIERI", "Comune": "TREMESTIERI ETNEO", "idImpianto": 49179, "points": [{"type": "Feature", "properties": {}, "geometry": {"type": "Point", "coordinates": [15.072303414344788, 37.56728667987174]}}], "price": 0.785, "ultima_rilevazione": "16/06/2022 08:57:22"}, {"Gestore": "FIZZAR S.A.S. DI MORABITO AGATINO & C.", "Bandiera": "Api-Ip", "Tipo impianto": "Altro", "Indirizzo": "CORSO ARA DI GIOVE 340 95030", "Nome impianto": "FIZZAR", "Comune": "PEDARA", "idImpianto": 26920, "points": [{"type": "Feature", "properties": {}, "geometry": {"type": "Point", "coordinates": [15.048993175888084, 37.61563489639989]}}], "price": 0.839, "ultima_rilevazione": "16/06/2022 11:28:32"}, {"Gestore": "MARGOIL S.R.L.", "Bandiera": "Pompe Bianche", "Tipo impianto": "Altro", "Indirizzo": "via Aldo Moro SN 95045", "Nome impianto": "MARGOIL", "Comune": "MISTERBIANCO", "idImpianto": 46985, "points": [{"type": "Feature", "properties": {}, "geometry": {"type": "Point", "coordinates": [15.013797000123, 37.513947000123]}}], "price": 0.785, "ultima_rilevazione": "16/06/2022 12:30:20"}, {"Gestore": "IPERSTAROIL S.R.L.", "Bandiera": "Pompe Bianche", "Tipo impianto": "Altro", "Indirizzo": "VIA ENRICO MATTEI  90045", "Nome impianto": "IPERSTAROIL ", "Comune": "MISTERBIANCO", "idImpianto": 50488, "points": [{"type": "Feature", "properties": {}, "geometry": {"type": "Point", "coordinates": [15.021663971163932, 37.51415417246397]}}], "price": 0.78, "ultima_rilevazione": "16/06/2022 18:10:02"}, {"Gestore": "ZAFARANA ADRIANO", "Bandiera": "Api-Ip", "Tipo impianto": "Altro", "Indirizzo": "Via F. Lo Jacono 77 95030", "Nome impianto": "Stazione di servizio IP di Zafarana Adriano", "Comune": "SANT'AGATA LI BATTIATI", "idImpianto": 12149, "points": [{"type": "Feature", "properties": {}, "geometry": {"type": "Point", "coordinates": [15.0813048499665, 37.54070075287584]}}], "price": 0.787, "ultima_rilevazione": "17/06/2022 07:24:12"}, {"Gestore": "DBS SERVIZI PETROLIFERI S.R.L.", "Bandiera": "Sicilpetroli", "Tipo impianto": "Altro", "Indirizzo": "Via Aldo Moro  95045", "Nome impianto": "DBS SERVIZI PETROLIFERI SRL MISTERBIANCO MORO", "Comune": "MISTERBIANCO", "idImpianto": 38095, "points": [{"type": "Feature", "properties": {}, "geometry": {"type": "Point", "coordinates": [15.013864155854437, 37.51408872939491]}}], "price": 0.78, "ultima_rilevazione": "17/06/2022 07:48:09"}]}, "Gasolio": {"1": [{"Gestore": "RAPISARDA CARMELO", "Bandiera": "Agip Eni", "Tipo impianto": "Altro", "Indirizzo": "VIA A. DE GASPERI S.N. 95040", "Nome impianto": "STAZIONE DI SERVIZIO ENI di Rapisarda Carmelo", "Comune": "CAMPOROTONDO ETNEO", "idImpianto": 32033, "points": [{"type": "Feature", "properties": {}, "geometry": {"type": "Point", "coordinates": [15.00587448477745, 37.57031279591856]}}], "price": 1.989, "ultima_rilevazione": "13/06/2022 10:29:40"}, {"Gestore": "LA ROSA ANTONINO", "Bandiera": "EOS", "Tipo impianto": "Altro", "Indirizzo": "via roma 56 95030", "Nome impianto": "PV EOS", "Comune": "SAN PIETRO CLARENZA", "idImpianto": 51010, "points": [{"type": "Feature", "properties": {}, "geometry": {"type": "Point", "coordinates": [15.02309839789172, 37.56951975812039]}}], "price": 1.969, "ultima_rilevazione": "13/06/2022 23:57:03"}, {"Gestore": "F.LLI LA PIANA S.N.C. DI LA PIANA TOMMASO E C.", "Bandiera": "Petrol Company", "Tipo impianto": "Altro", "Indirizzo": "Via Don Giovanni Minzoni snc 95123", "Nome impianto": "STAZIONE DI SERVIZIO PETROL COMPANY CT", "Comune": "CATANIA", "idImpianto": 42949, "points": [{"type": "Feature", "properties": {}, "geometry": {"type": "Point", "coordinates": [15.04600430613425, 37.547559189875166]}}], "price": 2.029, "ultima_rilevazione": "17/06/2022 00:10:06"}], "3": [{"Gestore": "GUAGLIARDO GIANMARCO", "Bandiera": "Api-Ip", "Tipo impianto": "Altro", "Indirizzo": "VIA GALERMO ANG. VIA DEI GIACINTI SN 95123", "Nome impianto": "IP", "Comune": "CATANIA", "idImpianto": 42516, "points": [{"type": "Feature", "properties": {}, "geometry": {"type": "Point", "coordinates": [15.055889636278152, 37.53964286139565]}}], "price": 1.799, "ultima_rilevazione": "26/05/2022 19:40:02"}, {"Gestore": "ETNA CARBURANTI S.R.L.S.", "Bandiera": "Pompe Bianche", "Tipo impianto": "Altro", "Indirizzo": "S.P. n. 14  95032", "Nome impianto": "AP - Etna Carburanti", "Comune": "BELPASSO", "idImpianto": 45018, "points": [{"type": "Feature", "properties": {}, "geometry": {"type": "Point", "coordinates": [14.978098644020974, 37.57790845019118]}}], "price": 1.979, "ultima_rilevazione": "11/06/2022 16:08:15"}, {"Gestore": "COMANGAS S.R.L.", "Bandiera": "Pompe Bianche", "Tipo impianto": "Altro", "Indirizzo": "Strada Provinciale 56/i  54 95032", "Nome impianto": "COMANGAS", "Comune": "BELPASSO", "idImpianto": 37101, "points": [{"type": "Feature", "properties": {}, "geometry": {"type": "Point", "coordinates": [14.994662608026148, 37.57489090120445]}}], "price": 1.969, "ultima_rilevazione": "13/06/2022 12:40:39"}, {"Gestore": "G. & G. PETROLI S.R.L.", "Bandiera": "Lukoil", "Tipo impianto": "Altro", "Indirizzo": "SP3iii  95032", "Nome impianto": "G&G PETROLI", "Comune": "BELPASSO", "idImpianto": 25115, "points": [{"type": "Feature", "properties": {}, "geometry": {"type": "Point", "coordinates": [14.983834773302078, 37.55691948273381]}}], "price": 1.957, "ultima_rilevazione": "14/06/2022 09:10:52"}, {"Gestore": "ETNA CARBURANTI S.R.L.", "Bandiera": "Pompe Bianche", "Tipo impianto": "Altro", "Indirizzo": "Via Polveriera 52 95030", "Nome impianto": "Etna Carburanti", "Comune": "MASCALUCIA", "idImpianto": 22602, "points": [{"type": "Feature", "properties": {}, "geometry": {"type": "Point", "coordinates": [15.046859309077265, 37.56428850548005]}}], "price": 1.979, "ultima_rilevazione": "14/06/2022 11:13:42"}, {"Gestore": "ENFA S.R.L.S.", "Bandiera": "Nobile Oil", "Tipo impianto": "Altro", "Indirizzo": "VIA DEL BOSCO 247 95030", "Nome impianto": "NOBILE  ENFA srls", "Comune": "MASCALUCIA", "idImpianto": 50339, "points": [{"type": "Feature", "properties": {}, "geometry": {"type": "Point", "coordinates": [15.031842277606092, 37.60737248021352]}}], "price": 1.969, "ultima_rilevazione": "14/06/2022 18:58:51"}, {"Gestore": "PUSILLICO CARMELO", "Bandiera": "Agip Eni", "Tipo impianto": "Altro", "Indirizzo": "via della misericordia snc 95123", "Nome impianto": "eni39227", "Comune": "CATANIA", "idImpianto": 49415, "points": [{"type": "Feature", "properties": {}, "geometry": {"type": "Point", "coordinates": [15.04657818067865, 37.54374333421922]}}], "price": 1.969, "ultima_rilevazione": "15/06/2022 04:06:55"}, {"Gestore": "GE.I.CA. DI INGAGLIO ANGELO E C.  S.N.C.", "Bandiera": "Q8", "Tipo impianto": "Altro", "Indirizzo": "VIA ETNEA  92 95030", "Nome impianto": "Q8", "Comune": "GRAVINA DI CATANIA", "idImpianto": 41283, "points": [{"type": "Feature", "properties": {}, "geometry": {"type": "Point", "coordinates": [15.06601832807064, 37.54889390753284]}}], "price": 1.989, "ultima_rilevazione": "15/06/2022 11:53:45"}, {"Gestore": "CALABRESE IVAN", "Bandiera": "Agip Eni", "Tipo impianto": "Altro", "Indirizzo": "VIA A. GRAMSCI 16 95030", "Nome impianto": "Distributore Eni di Ivan Calabrese", "Comune": "GRAVINA DI CATANIA", "idImpianto": 38013, "points": [{"type": "Feature", "properties": {}, "geometry": {"type": "Point", "coordinates": [15.065124168986586, 37.55249895261787]}}], "price": 2.009, "ultima_rilevazione": "16/06/2022 07:05:08"}, {"Gestore": "ENERGY CONSULTANCY OIL S.R.L.", "Bandiera": "Ecoil", "Tipo impianto": "Altro", "Indirizzo": "strada san giovanni galermo sn 95045", "Nome impianto": "Ecoil", "Comune": "MISTERBIANCO", "idImpianto": 49479, "points": [{"type": "Feature", "properties": {}, "geometry": {"type": "Point", "coordinates": [15.0316366836364, 37.53448285210843]}}], "price": 1.969, "ultima_rilevazione": "16/06/2022 08:04:16"}, {"Gestore": "FKM OIL S.R.L.", "Bandiera": "Agip Eni", "Tipo impianto": "Altro", "Indirizzo": "VIA ALCIDE DE GASPERI SN 95030", "Nome impianto": "FKM OIL SRL", "Comune": "MASCALUCIA", "idImpianto": 44028, "points": [{"type": "Feature", "properties": {}, "geometry": {"type": "Point", "coordinates": [15.058175000123, 37.573192000123]}}], "price": 2.009, "ultima_rilevazione": "16/06/2022 09:39:28"}, {"Gestore": "FKM OIL S.R.L.", "Bandiera": "Agip Eni", "Tipo impianto": "Altro", "Indirizzo": "VIA ALCIDE DE GASPERI SN 95030", "Nome impianto": "FKM OIL SRL", "Comune": "MASCALUCIA", "idImpianto": 47065, "points": [{"type": "Feature", "properties": {}, "geometry": {"type": "Point", "coordinates": [15.058175000123, 37.573192000123]}}], "price": 2.009, "ultima_rilevazione": "16/06/2022 09:42:23"}, {"Gestore": "G.M. PETROLI S.R.L.", "Bandiera": "Pompe Bianche", "Tipo impianto": "Altro", "Indirizzo": " STR. S.G.GALERMO ANG C. SPORT. S.N. 95045", "Nome impianto": "POGGIO LUPO ", "Comune": "MISTERBIANCO", "idImpianto": 41743, "points": [{"type": "Feature", "properties": {}, "geometry": {"type": "Point", "coordinates": [15.038356821826142, 37.53725174811804]}}], "price": 1.969, "ultima_rilevazione": "16/06/2022 11:14:52"}, {"Gestore": "T.D.M. S.R.L.", "Bandiera": "Tamoil", "Tipo impianto": "Altro", "Indirizzo": "VIA ETNEA 498 95030", "Nome impianto": "8405", "Comune": "GRAVINA DI CATANIA", "idImpianto": 42411, "points": [{"type": "Feature", "properties": {}, "geometry": {"type": "Point", "coordinates": [15.059654787182808, 37.56473519901591]}}], "price": 2.029, "ultima_rilevazione": "17/06/2022 07:58:03"}, {"Gestore": "G.M. PETROLI S.R.L.", "Bandiera": "Pompe Bianche", "Tipo impianto": "Altro", "Indirizzo": "VIA ALCIDE DE GASPERI S.N. 95030", "Nome impianto": "MASCALUCIA", "Comune": "MASCALUCIA", "idImpianto": 41744, "points": [{"type": "Feature", "properties": {}, "geometry": {"type": "Point", "coordinates": [15.058395637048308, 37.56848470004883]}}], "price": 1.979, "ultima_rilevazione": "16/06/2022 12:29:14"}, {"Gestore": "SACCNE RETE SRL", "Bandiera": "Api-Ip", "Tipo impianto": "Altro", "Indirizzo": "VIA ALCIDE DE GASPERI  95030", "Nome impianto": "MASCALUCIA - SACCNE RETE Srl", "Comune": "MASCALUCIA", "idImpianto": 36064, "points": [{"type": "Feature", "properties": {}, "geometry": {"type": "Point", "coordinates": [15.05851149559021, 37.57002260534959]}}], "price": 1.999, "ultima_rilevazione": "16/06/2022 17:42:52"}, {"Gestore": "SERVIZI E GESTIONI ZENIT S.R.L. IN SIGLA - ZENIT S.R.L.", "Bandiera": "Giap", "Tipo impianto": "Altro", "Indirizzo": "C.DA GROTTA DEL BUE", "Nome impianto": "C.DA GROTTA DEL BUE MASCALUCIA", "Comune": "MASCALUCIA", "idImpianto": 24884, "points": [{"type": "Feature", "properties": {}, "geometry": {"type": "Point", "coordinates": [15.033427476882936, 37.60430084841633]}}], "price": 1.999, "ultima_rilevazione": "16/06/2022 17:53:18"}, {"Gestore": "SERVIZI E GESTIONI ZENIT S.R.L. IN SIGLA - ZENIT S.R.L.", "Bandiera": "Esso", "Tipo impianto": "Altro", "Indirizzo": "S.P. 56/1 PER CAMPOROTONDO  95032", "Nome impianto": "S.P. 56/1 PER CAMPOROTONDO - BELPASSO", "Comune": "BELPASSO", "idImpianto": 40220, "points": [{"type": "Feature", "properties": {}, "geometry": {"type": "Point", "coordinates": [14.983198580465682, 37.58015893956463]}}], "price": 2.039, "ultima_rilevazione": "16/06/2022 17:53:33"}, {"Gestore": "F.LLI LA PIANA S.N.C. DI LA PIANA TOMMASO E C.", "Bandiera": "Petrol Company", "Tipo impianto": "Altro", "Indirizzo": "STRADA PER SAN GIOVANNI GALERMO 104 95045", "Nome impianto": "petrol company MISTERBIANCO", "Comune": "MISTERBIANCO", "idImpianto": 42843, "points": [{"type": "Feature", "properties": {}, "geometry": {"type": "Point", "coordinates": [15.04069186011884, 37.53849445868678]}}], "price": 2.019, "ultima_rilevazione": "17/06/2022 00:10:05"}, {"Gestore": "PETROL COMPANY  S.R.L.", "Bandiera": "Petrol Company", "Tipo impianto": "Altro", "Indirizzo": "VIA ETNEA  SNC 95030", "Nome impianto": "PETROL COMPANY GRAVINA DI CATANIA - 74778", "Comune": "GRAVINA DI CATANIA", "idImpianto": 33483, "points": [{"type": "Feature", "properties": {}, "geometry": {"type": "Point", "coordinates": [15.06608735101588, 37.54751941297728]}}], "price": 1.989, "ultima_rilevazione": "17/06/2022 00:12:10"}, {"Gestore": "SERVIZI & GESTIONI ITALIA S.R.L.", "Bandiera": "Q8", "Tipo impianto": "Altro", "Indirizzo": "VIA A. DE GASPERI SNC 95028", "Nome impianto": "MASCALUCIA VIA A. DE GASPERI SNC", "Comune": "MASCALUCIA", "idImpianto": 41103, "points": [{"type": "Feature", "properties": {}, "geometry": {"type": "Point", "coordinates": [15.053292311674111, 37.58178450244323]}}], "price": 1.989, "ultima_rilevazione": "17/06/2022 01:45:47"}], "5": [{"Gestore": "PREDA ALINA COSTINELA", "Bandiera": "Agip Eni", "Tipo impianto": "Altro", "Indirizzo": "VIA FRANCESCO LO JACONO 75 95030", "Nome impianto": "ENI STATION", "Comune": "SANT'AGATA LI BATTIATI", "idImpianto": 48664, "points": [{"type": "Feature", "properties": {}, "geometry": {"type": "Point", "coordinates": [15.08074415944222, 37.5408619009466]}}], "price": 1.569, "ultima_rilevazione": "11/10/2021 18:23:37"}, {"Gestore": "SAPIENZA MARIA ELENA", "Bandiera": "Esso", "Tipo impianto": "Altro", "Indirizzo": "VIA ETNEA 20 95030", "Nome impianto": "RIFORNIMENTO ESSO DI SAPIENZA MARIA ELENA", "Comune": "GRAVINA DI CATANIA", "idImpianto": 26895, "points": [{"type": "Feature", "properties": {}, "geometry": {"type": "Point", "coordinates": [15.07476031780243, 37.54353779808862]}}], "price": 1.449, "ultima_rilevazione": "17/06/2022 06:18:03"}, {"Gestore": "D'URSO SALVATORE", "Bandiera": "Agip Eni", "Tipo impianto": "Altro", "Indirizzo": "VIA ETNEA 400 95030", "Nome impianto": "eni station 58304 di d'urso salvatore", "Comune": "TREMESTIERI ETNEO", "idImpianto": 15650, "points": [{"type": "Feature", "properties": {}, "geometry": {"type": "Point", "coordinates": [15.070404649737611, 37.5810188349678]}}], "price": 1.744, "ultima_rilevazione": "06/04/2022 19:02:45"}, {"Gestore": "GIUFFRIDA CLAUDIO", "Bandiera": "Sicilpetroli", "Tipo impianto": "Altro", "Indirizzo": "VIA UMBERTO 31 95030", "Nome impianto": "GIUFFRIDA CLAUDIO", "Comune": "SANT'AGATA LI BATTIATI", "idImpianto": 32423, "points": [{"type": "Feature", "properties": {}, "geometry": {"type": "Point", "coordinates": [15.08115292883599, 37.55594657704682]}}], "price": 1.759, "ultima_rilevazione": "09/05/2022 18:52:59"}, {"Gestore": "BONANNO SALVATORE", "Bandiera": "Pompe Bianche", "Tipo impianto": "Altro", "Indirizzo": "STRADA PROVINCIALE GIARRE-S. MARIA DI LICODIA 252 95030", "Nome impianto": "S.B. GAS AUTO", "Comune": "NICOLOSI", "idImpianto": 21763, "points": [{"type": "Feature", "properties": {}, "geometry": {"type": "Point", "coordinates": [15.00744491815567, 37.611086992721184]}}], "price": 1.929, "ultima_rilevazione": "09/06/2022 12:50:27"}, {"Gestore": "A.S. ENERGETICA S.R.L.", "Bandiera": "Pompe Bianche", "Tipo impianto": "Altro", "Indirizzo": "STRADA PROVINCIALE 13 69 95040", "Nome impianto": "AS ENERGETICA SRL", "Comune": "MOTTA SANT'ANASTASIA", "idImpianto": 51227, "points": [{"type": "Feature", "properties": {}, "geometry": {"type": "Point", "coordinates": [14.99072541935569, 37.52519001018309]}}], "price": 1.959, "ultima_rilevazione": "11/06/2022 08:21:13"}, {"Gestore": "NICOLOSI ANTONINO", "Bandiera": "Agip Eni", "Tipo impianto": "Altro", "Indirizzo": "via della regione n.151, 95037", "Nome impianto": "eni", "Comune": "SAN GIOVANNI LA PUNTA", "idImpianto": 19845, "points": [{"type": "Feature", "properties": {}, "geometry": {"type": "Point", "coordinates": [15.089331325131296, 37.578194666033376]}}], "price": 1.979, "ultima_rilevazione": "11/06/2022 09:46:24"}, {"Gestore": "SANTONOCITO ANTONINO", "Bandiera": "DBCarburanti", "Tipo impianto": "Altro", "Indirizzo": "S.P.N.56/11 BELPASSO-PATERNO'  95032", "Nome impianto": "AUTORIFORNIMENTO ESSO", "Comune": "BELPASSO", "idImpianto": 14317, "points": [{"type": "Feature", "properties": {}, "geometry": {"type": "Point", "coordinates": [14.972405978438928, 37.58348358098364]}}], "price": 1.979, "ultima_rilevazione": "13/06/2022 06:59:39"}, {"Gestore": "FAMA' GAETANO & C.  S.N.C.", "Bandiera": "Api-Ip", "Tipo impianto": "Altro", "Indirizzo": "via Mongibello ,  4 95032", "Nome impianto": "IP  FAMA' GAETANO & C. snc", "Comune": "BELPASSO", "idImpianto": 26063, "points": [{"type": "Feature", "properties": {}, "geometry": {"type": "Point", "coordinates": [14.983726143836977, 37.53646789298786]}}], "price": 1.979, "ultima_rilevazione": "13/06/2022 13:02:16"}, {"Gestore": "FORTUNATO ANTONIO", "Bandiera": "Agip Eni", "Tipo impianto": "Altro", "Indirizzo": "CORSO CARLO MARX 60 95045", "Nome impianto": "FORTUNATO ANTONIO", "Comune": "MISTERBIANCO", "idImpianto": 23347, "points": [{"type": "Feature", "properties": {}, "geometry": {"type": "Point", "coordinates": [15.024357580950891, 37.51434873166808]}}], "price": 1.969, "ultima_rilevazione": "13/06/2022 16:03:17"}, {"Gestore": "SALAMANCA CARBURANTI DI SALAMANCA GRACIE & C. S.A.S.", "Bandiera": "SP Energia Siciliana", "Tipo impianto": "Altro", "Indirizzo": "PIAZZA EROI D' UNGHERIA 1 95122", "Nome impianto": "SP ENERGIA SICILIANA", "Comune": "CATANIA", "idImpianto": 49547, "points": [{"type": "Feature", "properties": {}, "geometry": {"type": "Point", "coordinates": [15.051065087318417, 37.50761816296298]}}], "price": 1.999, "ultima_rilevazione": "14/06/2022 08:19:21"}, {"Gestore": "LEONARDI ANTONIO", "Bandiera": "Pompe Bianche", "Tipo impianto": "Altro", "Indirizzo": "via Bellini 19 95030", "Nome impianto": "Stazione di servizio Nobile Oil di Antonio Leonardi", "Comune": "SANT'AGATA LI BATTIATI", "idImpianto": 38127, "points": [{"type": "Feature", "properties": {}, "geometry": {"type": "Point", "coordinates": [15.076740458607674, 37.55907638682088]}}], "price": 1.959, "ultima_rilevazione": "14/06/2022 09:10:16"}, {"Gestore": "GRASSO FRANCESCO", "Bandiera": "Q8", "Tipo impianto": "Altro", "Indirizzo": "VIA LENIN 29 95045", "Nome impianto": "GRASSO FRANCESCO", "Comune": "MISTERBIANCO", "idImpianto": 15962, "points": [{"type": "Feature", "properties": {}, "geometry": {"type": "Point", "coordinates": [15.04014917724612, 37.52033248268344]}}], "price": 1.959, "ultima_rilevazione": "14/06/2022 11:05:46"}, {"Gestore": "CO.GE.KAT. S.R.L.", "Bandiera": "Pompe Bianche", "Tipo impianto": "Altro", "Indirizzo": "PIAZZA XXV APRILE SNC 95045", "Nome impianto": "CO.GE.KAT. MISTERBIANCO", "Comune": "MISTERBIANCO", "idImpianto": 34785, "points": [{"type": "Feature", "properties": {}, "geometry": {"type": "Point", "coordinates": [15.003494024276732, 37.518187927155495]}}], "price": 1.979, "ultima_rilevazione": "14/06/2022 12:06:18"}, {"Gestore": "CASTRO DANIELE", "Bandiera": "Esso", "Tipo impianto": "Altro", "Indirizzo": "Viale della Regione 134/136 95027", "Nome impianto": "Distributore Carburanti di Castro Daniele", "Comune": "SAN GIOVANNI LA PUNTA", "idImpianto": 29403, "points": [{"type": "Feature", "properties": {}, "geometry": {"type": "Point", "coordinates": [15.088679132185348, 37.576084544783306]}}], "price": 1.969, "ultima_rilevazione": "14/06/2022 12:33:18"}, {"Gestore": "CAVALLARO LORENZO", "Bandiera": "Q8", "Tipo impianto": "Altro", "Indirizzo": "VIA VINCENZO CASAGRANDI S.N. 95123", "Nome impianto": "Area di Servizio Q8 di Cavallaro Lorenzo", "Comune": "CATANIA", "idImpianto": 28557, "points": [{"type": "Feature", "properties": {}, "geometry": {"type": "Point", "coordinates": [15.065513853717448, 37.51669921524486]}}], "price": 1.999, "ultima_rilevazione": "15/06/2022 06:34:16"}, {"Gestore": "GE.RI.CA. GESTIONE RIFORNIMENTI CARBURANTI SOCIETA' A            RESPONSABILITA' LIMITATA SEMPLIFICATA", "Bandiera": "Api-Ip", "Tipo impianto": "Altro", "Indirizzo": "S.P. 13 - C.da Tirit\u00ec  95040", "Nome impianto": "Motta S.Anastasia - C.da Tirit\u00ec", "Comune": "MOTTA SANT'ANASTASIA", "idImpianto": 48286, "points": [{"type": "Feature", "properties": {}, "geometry": {"type": "Point", "coordinates": [14.990786419643406, 37.52518549403502]}}], "price": 1.999, "ultima_rilevazione": "15/06/2022 14:21:24"}, {"Gestore": "STAZIONE ENI DI ZUCCARO RICCARDO", "Bandiera": "Agip Eni", "Tipo impianto": "Altro", "Indirizzo": "VIALE ANDREA DORIA 8 95125", "Nome impianto": "ENI PV 55106", "Comune": "CATANIA", "idImpianto": 42894, "points": [{"type": "Feature", "properties": {}, "geometry": {"type": "Point", "coordinates": [15.075013271163924, 37.52520395415928]}}], "price": 2.009, "ultima_rilevazione": "16/06/2022 07:19:09"}, {"Gestore": "S.M.T. DI FILIPPO TENERELLO & C. S.A.S.", "Bandiera": "Q8", "Tipo impianto": "Altro", "Indirizzo": "VIA LORENZO BOLANO 42 95123", "Nome impianto": "smt di Filippo Tenerello", "Comune": "CATANIA", "idImpianto": 42218, "points": [{"type": "Feature", "properties": {}, "geometry": {"type": "Point", "coordinates": [15.056099431946564, 37.517802231926446]}}], "price": 1.999, "ultima_rilevazione": "16/06/2022 08:08:23"}, {"Gestore": "CO.GE.KAT. S.R.L.", "Bandiera": "Pompe Bianche", "Tipo impianto": "Altro", "Indirizzo": "CONTRADA RAVANUSA SNC 95030", "Nome impianto": "CO.GE.KAT. T.E.", "Comune": "TREMESTIERI ETNEO", "idImpianto": 33515, "points": [{"type": "Feature", "properties": {}, "geometry": {"type": "Point", "coordinates": [15.08382886648178, 37.56856398202246]}}], "price": 1.979, "ultima_rilevazione": "16/06/2022 08:37:23"}, {"Gestore": "MIRICI CAPPA GIUSY", "Bandiera": "Pompe Bianche", "Tipo impianto": "Altro", "Indirizzo": "VIA PIETRO DELL'OVA 190A 95125", "Nome impianto": "MIRICI CAPPA GIUSY", "Comune": "CATANIA", "idImpianto": 37075, "points": [{"type": "Feature", "properties": {}, "geometry": {"type": "Point", "coordinates": [15.087318420410156, 37.53437159110208]}}], "price": 1.979, "ultima_rilevazione": "16/06/2022 08:49:47"}, {"Gestore": "G. & G. PETROLI S.R.L.", "Bandiera": "Lukoil", "Tipo impianto": "Altro", "Indirizzo": "VIA CAVOUR ANG. VIA C. SALANITRO  SN 95030", "Nome impianto": "G&G PETROLI SRL TREMESTIERI", "Comune": "TREMESTIERI ETNEO", "idImpianto": 49179, "points": [{"type": "Feature", "properties": {}, "geometry": {"type": "Point", "coordinates": [15.072303414344788, 37.56728667987174]}}], "price": 1.967, "ultima_rilevazione": "16/06/2022 08:57:22"}, {"Gestore": "AMENDOLIA SERGIO", "Bandiera": "Agip Eni", "Tipo impianto": "Altro", "Indirizzo": "VIA FELICE FONTANA SN 95122", "Nome impianto": "Eni 19572", "Comune": "CATANIA", "idImpianto": 37069, "points": [{"type": "Feature", "properties": {}, "geometry": {"type": "Point", "coordinates": [15.04106506705284, 37.51378190808904]}}], "price": 2.009, "ultima_rilevazione": "16/06/2022 09:05:09"}, {"Gestore": "EOS SERVICES S.R.L. A SOCIO UNICO", "Bandiera": "EOS", "Tipo impianto": "Altro", "Indirizzo": "PIAZZA MUNICIPIO S.N. 95032", "Nome impianto": "CT077", "Comune": "BELPASSO", "idImpianto": 47587, "points": [{"type": "Feature", "properties": {}, "geometry": {"type": "Point", "coordinates": [14.977996349334711, 37.59083799842856]}}], "price": 1.999, "ultima_rilevazione": "16/06/2022 09:32:53"}, {"Gestore": "DELF SERVICE CAR S.A.S. DI BIANCO DANIELA & C.", "Bandiera": "Agip Eni", "Tipo impianto": "Altro", "Indirizzo": "VIA G. VERDI S.N. 95040", "Nome impianto": "eni", "Comune": "MOTTA SANT'ANASTASIA", "idImpianto": 26828, "points": [{"type": "Feature", "properties": {}, "geometry": {"type": "Point", "coordinates": [14.998287856578829, 37.52078801608408]}}], "price": 2.209, "ultima_rilevazione": "16/06/2022 09:34:17"}, {"Gestore": "EGI-2GO S.R.L.", "Bandiera": "Esso", "Tipo impianto": "Altro", "Indirizzo": "VIA A. DIAZ 11 95121", "Nome impianto": "Diaz", "Comune": "CATANIA", "idImpianto": 48715, "points": [{"type": "Feature", "properties": {}, "geometry": {"type": "Point", "coordinates": [15.056489387731531, 37.5117304257775]}}], "price": 1.989, "ultima_rilevazione": "16/06/2022 11:01:15"}, {"Gestore": "IOZZIA OMAR PIETRO", "Bandiera": "Agip Eni", "Tipo impianto": "Altro", "Indirizzo": "VIALE LORENZO BOLANO 50 95125", "Nome impianto": "Eni Bolano", "Comune": "CATANIA", "idImpianto": 38832, "points": [{"type": "Feature", "properties": {}, "geometry": {"type": "Point", "coordinates": [15.05875088274479, 37.51864425759192]}}], "price": 2.009, "ultima_rilevazione": "16/06/2022 11:05:37"}, {"Gestore": "T.D.M. S.R.L.", "Bandiera": "Tamoil", "Tipo impianto": "Altro", "Indirizzo": "via Marconi  95030", "Nome impianto": "8409", "Comune": "NICOLOSI", "idImpianto": 35712, "points": [{"type": "Feature", "properties": {}, "geometry": {"type": "Point", "coordinates": [15.017385184764862, 37.61232886774137]}}], "price": 2.019, "ultima_rilevazione": "16/06/2022 11:22:15"}, {"Gestore": "FIZZAR S.A.S. DI MORABITO AGATINO & C.", "Bandiera": "Api-Ip", "Tipo impianto": "Altro", "Indirizzo": "CORSO ARA DI GIOVE 340 95030", "Nome impianto": "FIZZAR", "Comune": "PEDARA", "idImpianto": 26920, "points": [{"type": "Feature", "properties": {}, "geometry": {"type": "Point", "coordinates": [15.048993175888084, 37.61563489639989]}}], "price": 2.039, "ultima_rilevazione": "16/06/2022 11:28:32"}, {"Gestore": "ZAPPALA' SALVATORE E C. S.N.C.", "Bandiera": "Agip Eni", "Tipo impianto": "Altro", "Indirizzo": "VIA BARRIERA DEL BOSCO 5 95030", "Nome impianto": "ENI battiati", "Comune": "SANT'AGATA LI BATTIATI", "idImpianto": 27314, "points": [{"type": "Feature", "properties": {}, "geometry": {"type": "Point", "coordinates": [15.08294641971588, 37.54728154343967]}}], "price": 2.009, "ultima_rilevazione": "16/06/2022 11:51:11"}, {"Gestore": "MARGOIL S.R.L.", "Bandiera": "Pompe Bianche", "Tipo impianto": "Altro", "Indirizzo": "via Aldo Moro SN 95045", "Nome impianto": "MARGOIL", "Comune": "MISTERBIANCO", "idImpianto": 46985, "points": [{"type": "Feature", "properties": {}, "geometry": {"type": "Point", "coordinates": [15.013797000123, 37.513947000123]}}], "price": 1.967, "ultima_rilevazione": "16/06/2022 12:30:20"}, {"Gestore": "SERVIZI E GESTIONI ZENIT S.R.L. IN SIGLA - ZENIT S.R.L.", "Bandiera": "Agip Eni", "Tipo impianto": "Altro", "Indirizzo": "VIA RAVANUSA 20 95037", "Nome impianto": "VIA RAVANUSA SGP", "Comune": "SAN GIOVANNI LA PUNTA", "idImpianto": 12035, "points": [{"type": "Feature", "properties": {}, "geometry": {"type": "Point", "coordinates": [15.087617580356664, 37.57209173411017]}}], "price": 1.998, "ultima_rilevazione": "16/06/2022 17:53:16"}, {"Gestore": "SERVIZI E GESTIONI ZENIT S.R.L. IN SIGLA - ZENIT S.R.L.", "Bandiera": "Agip Eni", "Tipo impianto": "Altro", "Indirizzo": "VIA PALERMO  95122", "Nome impianto": "VIA PALERMO CT", "Comune": "CATANIA", "idImpianto": 12380, "points": [{"type": "Feature", "properties": {}, "geometry": {"type": "Point", "coordinates": [15.045227948410002, 37.50952878676218]}}], "price": 1.989, "ultima_rilevazione": "16/06/2022 17:53:17"}, {"Gestore": "SERVIZI E GESTIONI ZENIT S.R.L. IN SIGLA - ZENIT S.R.L.", "Bandiera": "Esso", "Tipo impianto": "Altro", "Indirizzo": "VIA MICHELE CANTONE 36 95100", "Nome impianto": "VIA MICHELE CANTONE, 36 - CATANIA", "Comune": "CATANIA", "idImpianto": 40705, "points": [{"type": "Feature", "properties": {}, "geometry": {"type": "Point", "coordinates": [15.069434624165297, 37.516908166057895]}}], "price": 2.019, "ultima_rilevazione": "16/06/2022 17:53:21"}, {"Gestore": "IPERSTAROIL S.R.L.", "Bandiera": "Pompe Bianche", "Tipo impianto": "Altro", "Indirizzo": "VIA ENRICO MATTEI  90045", "Nome impianto": "IPERSTAROIL ", "Comune": "MISTERBIANCO", "idImpianto": 50488, "points": [{"type": "Feature", "properties": {}, "geometry": {"type": "Point", "coordinates": [15.021663971163932, 37.51415417246397]}}], "price": 1.969, "ultima_rilevazione": "16/06/2022 18:10:02"}, {"Gestore": "FOOD&OIL DI CRISTIANO TITOLA", "Bandiera": "Esso", "Tipo impianto": "Altro", "Indirizzo": "via del bosco  380 95125", "Nome impianto": "esso", "Comune": "CATANIA", "idImpianto": 46818, "points": [{"type": "Feature", "properties": {}, "geometry": {"type": "Point", "coordinates": [15.078447991029408, 37.54390100392222]}}], "price": 2.019, "ultima_rilevazione": "16/06/2022 20:32:31"}, {"Gestore": "SOGECAR S.R.L.", "Bandiera": "Petrol Company", "Tipo impianto": "Altro", "Indirizzo": "VIA PASSO GRAVINA 170 95121", "Nome impianto": "PETROL COMPANY CATANIA PASSO GRAVINA", "Comune": "CATANIA", "idImpianto": 33267, "points": [{"type": "Feature", "properties": {}, "geometry": {"type": "Point", "coordinates": [15.074898451566696, 37.53532148519354]}}], "price": 1.989, "ultima_rilevazione": "17/06/2022 00:10:02"}, {"Gestore": "IBLEA PETROLI S.R.L.", "Bandiera": "Iblea Petroli", "Tipo impianto": "Altro", "Indirizzo": "VIA SAN GREGORIO 1/B 95030", "Nome impianto": "IBLEA PETROLI", "Comune": "SANT'AGATA LI BATTIATI", "idImpianto": 35774, "points": [{"type": "Feature", "properties": {}, "geometry": {"type": "Point", "coordinates": [15.090414360165596, 37.544031190395245]}}], "price": 2.019, "ultima_rilevazione": "17/06/2022 00:10:03"}, {"Gestore": "ENI FUEL S.P.A.", "Bandiera": "Agip Eni", "Tipo impianto": "Altro", "Indirizzo": "Via Carlo Marx 10 95045", "Nome impianto": "9595 MISTERBIANCO", "Comune": "MISTERBIANCO", "idImpianto": 5406, "points": [{"type": "Feature", "properties": {}, "geometry": {"type": "Point", "coordinates": [15.030944265870858, 37.51253084817209]}}], "price": 2.009, "ultima_rilevazione": "17/06/2022 07:08:11"}, {"Gestore": "CARBOMIX - S.R.L.", "Bandiera": "Petrol Company", "Tipo impianto": "Altro", "Indirizzo": "Via Palermo snc 95122", "Nome impianto": "PETROL COMPANY CT VIA PALERMO", "Comune": "CATANIA", "idImpianto": 50944, "points": [{"type": "Feature", "properties": {}, "geometry": {"type": "Point", "coordinates": [15.041542247850437, 37.5112735773333]}}], "price": 1.989, "ultima_rilevazione": "17/06/2022 00:18:18"}, {"Gestore": "SERVIZI & GESTIONI ITALIA S.R.L.", "Bandiera": "Q8", "Tipo impianto": "Altro", "Indirizzo": "VIA  CASAGRANDI  95123", "Nome impianto": "CATANIA CASAGRANDI", "Comune": "CATANIA", "idImpianto": 25589, "points": [{"type": "Feature", "properties": {}, "geometry": {"type": "Point", "coordinates": [15.065841546627098, 37.51657538270625]}}], "price": 2.024, "ultima_rilevazione": "17/06/2022 01:45:23"}, {"Gestore": "SERVIZI & GESTIONI ITALIA srl", "Bandiera": "Q8", "Tipo impianto": "Altro", "Indirizzo": "DUCA DEGLI ABRUZZI 203 95037", "Nome impianto": "SAN GIOVANNI LA PUNTA DUCA DEGLI ABRUZZI 203", "Comune": "SAN GIOVANNI LA PUNTA", "idImpianto": 6773, "points": [{"type": "Feature", "properties": {}, "geometry": {"type": "Point", "coordinates": [15.087661032540836, 37.55042545526232]}}], "price": 1.999, "ultima_rilevazione": "17/06/2022 01:45:24"}, {"Gestore": "SERVIZI & GESTIONI ITALIA S.R.L.", "Bandiera": "Q8", "Tipo impianto": "Altro", "Indirizzo": "STRADA PROVINCIALE 42  95030", "Nome impianto": "PEDARA STRADA PROVINCIALE 42", "Comune": "PEDARA", "idImpianto": 32493, "points": [{"type": "Feature", "properties": {}, "geometry": {"type": "Point", "coordinates": [15.065449561376909, 37.60186980344919]}}], "price": 1.989, "ultima_rilevazione": "17/06/2022 07:07:10"}, {"Gestore": "T & T SERVICE S.R.L.", "Bandiera": "Q8", "Tipo impianto": "Altro", "Indirizzo": "VIA ETNEA ANG.ARDIZZONE GIOENI, 95100", "Nome impianto": "T&T SERVICE SRL", "Comune": "CATANIA", "idImpianto": 10759, "points": [{"type": "Feature", "properties": {}, "geometry": {"type": "Point", "coordinates": [15.081546306610107, 37.52573095543272]}}], "price": 2.019, "ultima_rilevazione": "17/06/2022 07:22:46"}, {"Gestore": "ZAFARANA ADRIANO", "Bandiera": "Api-Ip", "Tipo impianto": "Altro", "Indirizzo": "Via F. Lo Jacono 77 95030", "Nome impianto": "Stazione di servizio IP di Zafarana Adriano", "Comune": "SANT'AGATA LI BATTIATI", "idImpianto": 12149, "points": [{"type": "Feature", "properties": {}, "geometry": {"type": "Point", "coordinates": [15.0813048499665, 37.54070075287584]}}], "price": 1.999, "ultima_rilevazione": "17/06/2022 07:24:12"}, {"Gestore": "ENI FUEL S.P.A.", "Bandiera": "Agip Eni", "Tipo impianto": "Altro", "Indirizzo": "Viale Rapisardi 500 95122", "Nome impianto": "9590 Catania Rapisardi", "Comune": "CATANIA", "idImpianto": 35631, "points": [{"type": "Feature", "properties": {}, "geometry": {"type": "Point", "coordinates": [15.053733810782433, 37.50839157399883]}}], "price": 2.009, "ultima_rilevazione": "17/06/2022 07:26:09"}, {"Gestore": "PERCOLLA DARIO", "Bandiera": "Esso", "Tipo impianto": "Altro", "Indirizzo": "via della regione 2 95030", "Nome impianto": "esso percolla dario", "Comune": "SAN GIOVANNI LA PUNTA", "idImpianto": 13970, "points": [{"type": "Feature", "properties": {}, "geometry": {"type": "Point", "coordinates": [15.086534619331356, 37.57166488976966]}}], "price": 2.029, "ultima_rilevazione": "17/06/2022 07:29:46"}, {"Gestore": "CASTRO FRANCESCO", "Bandiera": "Esso", "Tipo impianto": "Altro", "Indirizzo": "VIALE FRATELLI VIVALDI SN 95123", "Nome impianto": "ESSO", "Comune": "CATANIA", "idImpianto": 47055, "points": [{"type": "Feature", "properties": {}, "geometry": {"type": "Point", "coordinates": [15.06784280625757, 37.5225585354149]}}], "price": 2.006, "ultima_rilevazione": "17/06/2022 07:35:01"}, {"Gestore": "DBS SERVIZI PETROLIFERI S.R.L.", "Bandiera": "Sicilpetroli", "Tipo impianto": "Altro", "Indirizzo": "Via Aldo Moro  95045", "Nome impianto": "DBS SERVIZI PETROLIFERI SRL MISTERBIANCO MORO", "Comune": "MISTERBIANCO", "idImpianto": 38095, "points": [{"type": "Feature", "properties": {}, "geometry": {"type": "Point", "coordinates": [15.013864155854437, 37.51408872939491]}}], "price": 1.969, "ultima_rilevazione": "17/06/2022 07:48:09"}, {"Gestore": "SICILPETROLI S.R.L.", "Bandiera": "Sicilpetroli", "Tipo impianto": "Altro", "Indirizzo": "C.SO UMBERTO 12 95030", "Nome impianto": "SICILPETROLI SRL SALB", "Comune": "SANT'AGATA LI BATTIATI", "idImpianto": 41480, "points": [{"type": "Feature", "properties": {}, "geometry": {"type": "Point", "coordinates": [15.080917328596115, 37.55688631225984]}}], "price": 1.999, "ultima_rilevazione": "17/06/2022 07:49:25"}, {"Gestore": "EOS SERVICES S.R.L. A SOCIO UNICO", "Bandiera": "Q8", "Tipo impianto": "Altro", "Indirizzo": "PIAZZA EROI D UNGHERIA S.N. 95122", "Nome impianto": "CT064", "Comune": "CATANIA", "idImpianto": 47458, "points": [{"type": "Feature", "properties": {}, "geometry": {"type": "Point", "coordinates": [15.0511522591114, 37.5080532809172]}}], "price": 1.979, "ultima_rilevazione": "17/06/2022 07:53:51"}]}, "Metano": {"1": [], "3": [{"Gestore": "COMANGAS S.R.L.", "Bandiera": "Pompe Bianche", "Tipo impianto": "Altro", "Indirizzo": "Strada Provinciale 56/i  54 95032", "Nome impianto": "COMANGAS", "Comune": "BELPASSO", "idImpianto": 37101, "points": [{"type": "Feature", "properties": {}, "geometry": {"type": "Point", "coordinates": [14.994662608026148, 37.57489090120445]}}], "price": 1.739, "ultima_rilevazione": "13/06/2022 12:40:39"}, {"Gestore": "ETNA CARBURANTI S.R.L.", "Bandiera": "Pompe Bianche", "Tipo impianto": "Altro", "Indirizzo": "Via Polveriera 52 95030", "Nome impianto": "Etna Carburanti", "Comune": "MASCALUCIA", "idImpianto": 22602, "points": [{"type": "Feature", "properties": {}, "geometry": {"type": "Point", "coordinates": [15.046859309077265, 37.56428850548005]}}], "price": 1.899, "ultima_rilevazione": "14/06/2022 11:13:42"}, {"Gestore": "ENERGY CONSULTANCY OIL S.R.L.", "Bandiera": "Ecoil", "Tipo impianto": "Altro", "Indirizzo": "strada san giovanni galermo sn 95045", "Nome impianto": "Ecoil", "Comune": "MISTERBIANCO", "idImpianto": 49479, "points": [{"type": "Feature", "properties": {}, "geometry": {"type": "Point", "coordinates": [15.0316366836364, 37.53448285210843]}}], "price": 1.398, "ultima_rilevazione": "16/06/2022 08:04:16"}], "5": []}}