{"area_comune": "[{\"type\": \"Feature\", \"properties\": {}, \"geometry\": {\"type\": \"Polygon\", \"coordinates\": [[[14.59873329004907, 40.77586516990977], [14.59699992225213, 40.77263504666089], [14.59236377922944, 40.766594778294554], [14.589813063079, 40.764757256121186], [14.587005844889639, 40.763600345468056], [14.581374574223764, 40.76414845561575], [14.578324592441628, 40.764902748155606], [14.571310151118734, 40.764292610142874], [14.560981894791526, 40.77098140918628], [14.564549788526639, 40.776048187526264], [14.56605634620339, 40.777811775261114], [14.56724928108425, 40.77838419420273], [14.57359004863462, 40.78015666294674], [14.575718689931467, 40.78097623716499], [14.576320620806547, 40.78139267169073], [14.576578409089997, 40.781906797006805], [14.576737772310619, 40.78285331161013], [14.576554703966483, 40.78359137449218], [14.580893163391703, 40.78486401895423], [14.593874070020432, 40.782957485742266], [14.598462368270363, 40.78259471408141], [14.59873329004907, 40.77586516990977]]]}}]", "comune": "san-marzano-sul-sarno", "buffer_1": "[{\"type\": \"Feature\", \"properties\": {}, \"geometry\": {\"type\": \"Polygon\", \"coordinates\": [[[14.610545567415926, 40.776139387666994], [14.610527067167746, 40.77529372449122], [14.610404039158755, 40.77445313129464], [14.6101775776459, 40.77362505795566], [14.609849693357898, 40.772816843130656], [14.609423295548883, 40.77203564923861], [14.608902166103002, 40.771288399015816], [14.608290925923258, 40.770581714201676], [14.596562867771393, 40.7583179147003], [14.595821866617293, 40.75761912477309], [14.594992872597668, 40.7569800461882], [14.594084161825279, 40.75640705753195], [14.593104805343726, 40.75590587765908], [14.592064578615755, 40.75548150866536], [14.590973864014162, 40.755138186009695], [14.589843547285389, 40.75487933628125], [14.58868490901481, 40.75470754303131], [14.5875095121714, 40.75462452100886], [14.58632908684796, 40.75463109905668], [14.585155413340324, 40.75472721183725], [14.58400020472537, 40.75491190047184], [14.582874990102574, 40.75518332208632], [14.556853671892549, 40.76256327108323], [14.555798120412188, 40.76290779155249], [14.55479154076679, 40.76332860721399], [14.553843443907398, 40.76382174257326], [14.552962788868868, 40.76438253875267], [14.5521578981467, 40.76500569745942], [14.551436379058025, 40.76568533099524], [14.550805051829432, 40.76641501783761], [14.550269885091748, 40.767187863269385], [14.549835939393349, 40.7679965644863], [14.549507319268743, 40.76883347956872], [14.54928713431935, 40.76969069966784], [14.549177469679146, 40.77056012372524], [14.549179366149811, 40.771433535020826], [14.549292810199056, 40.772302678825824], [14.549516733922896, 40.77315934042765], [14.549849024978508, 40.773995422788154], [14.550286546399787, 40.774803023100965], [14.550825166113905, 40.775574507522904], [14.55145979588489, 40.77630258337158], [14.552184439320174, 40.77698036810492], [14.552992248489563, 40.77760145442867], [14.572904142673613, 40.79148542147348], [14.573824672923475, 40.79206473832144], [14.574817481302956, 40.7925704409659], [14.575872416895349, 40.792997358426284], [14.576978692868629, 40.79334112531181], [14.578124996867048, 40.793598226501246], [14.579299606803872, 40.793766033119084], [14.580490510865216, 40.79384282943886], [14.581685530491082, 40.79382783043701], [14.582872445068382, 40.7937211898176], [14.600443861382093, 40.79145143559962], [14.601574367081788, 40.79126159734441], [14.602675005006788, 40.79098860522906], [14.603735212978693, 40.7906350793932], [14.60474481731906, 40.79020441277213], [14.605694130554578, 40.78970073849202], [14.606574044429163, 40.789128890158025], [14.607376117327854, 40.78849435541901], [14.60809265527204, 40.78780322325671], [14.60871678570852, 40.78706212550774], [14.609242523385419, 40.786278173181465], [14.609664827685027, 40.785458888187534], [14.609979650866913, 40.78461213112975], [14.610183976762766, 40.783746025860836], [14.61027584955702, 40.78286888152325], [14.610545567415926, 40.776139387666994]]]}}]", "buffer_3": "[{\"type\": \"Feature\", \"properties\": {}, \"geometry\": {\"type\": \"Polygon\", \"coordinates\": [[[14.634170002759303, 40.77668415666691], [14.634113601890954, 40.774147237551325], [14.633743653928077, 40.771625590617454], [14.633063472189711, 40.76914156079755], [14.63207911704074, 40.76671715732387], [14.630799341057834, 40.76437385892216], [14.629235510467623, 40.762132423778155], [14.627401503588189, 40.76001270594962], [14.615672222852451, 40.74775095622075], [14.613449096877359, 40.745654953298065], [14.610962183952708, 40.74373808017809], [14.608236309633723, 40.742019458188345], [14.605298676755158, 40.74051623020749], [14.602178594307977, 40.73924339012684], [14.598907185605695, 40.738213633709115], [14.595517078622928, 40.73743723231128], [14.592042081555304, 40.73692193071328], [14.588516846787872, 40.736672870058314], [14.584976526567324, 40.73669253666324], [14.581456423750968, 40.736980737205], [14.577991641051868, 40.73753460053033], [14.574616732214722, 40.738348606075554], [14.54860067557946, 40.745726327132125], [14.54543460556921, 40.74675959188155], [14.542415299062124, 40.74802170936752], [14.53957127260325, 40.74950076551613], [14.536929393325387, 40.75118279687473], [14.53451462545657, 40.753051922020035], [14.532349794527807, 40.75509049108109], [14.530455371503912, 40.75727925198496], [14.5288492788831, 40.759597531875116], [14.527546720613895, 40.76202343200796], [14.526560037462978, 40.76453403430354], [14.525898589236082, 40.7671056176139], [14.525568665008198, 40.76971388167733], [14.525573422260676, 40.77233417665105], [14.525912855554155, 40.77494173605741], [14.52658379508931, 40.777511910943105], [14.527579935225292, 40.78002040303472], [14.528891892740655, 40.782443494679484], [14.530507294336639, 40.78475827338703], [14.532410892600318, 40.78694284883513], [14.534584709368744, 40.78897656027122], [14.537008205167183, 40.790840172329865], [14.556921347706528, 40.80472685509607], [14.559683200436124, 40.80646515422925], [14.562662070878002, 40.80798257753547], [14.565827488127313, 40.80926359919189], [14.56914706678366, 40.8102951120253], [14.57258683914218, 40.81106656200151], [14.576111603823021, 40.811570056509176], [14.579685287218084, 40.811800445314844], [14.583271313994102, 40.81175537335018], [14.586832982793016, 40.8114353047861], [14.604408824746134, 40.809164651331535], [14.607801161089565, 40.80859493137913], [14.6111037869568, 40.807775696020045], [14.614284988531058, 40.806714815602604], [14.617314222652487, 40.80542248054529], [14.620162410781498, 40.80391110307589], [14.622802218652131, 40.80219519760279], [14.62520831890627, 40.80029124088748], [14.62735763417354, 40.798217513382106], [14.62922955826107, 40.79599392327712], [14.630806153339039, 40.79364181496944], [14.632072321249593, 40.79118376380933], [14.633015947325665, 40.788643359114026], [14.63362801537942, 40.78604497754519], [14.633902692804645, 40.783413549037036], [14.634170002759303, 40.77668415666691]]]}}]", "buffer_5": "[{\"type\": \"Feature\", \"properties\": {}, \"geometry\": {\"type\": \"Polygon\", \"coordinates\": [[[14.657794274119054, 40.777224036937604], [14.657698772603352, 40.77299595647838], [14.657080753279242, 40.768793433360926], [14.65594578921845, 40.76465370125928], [14.654304027927338, 40.76061343096378], [14.65217009830357, 40.7567084061049], [14.649562978247536, 40.75297320693678], [14.64650582419758, 40.74944090495029], [14.634775325409038, 40.737181204848504], [14.63106991250721, 40.733688477949244], [14.626925173836595, 40.73049429353102], [14.622382480596807, 40.72763049645528], [14.61748715362974, 40.72512563542083], [14.612288012238649, 40.72300467963543], [14.60683688895647, 40.72128877106315], [14.601188115021301, 40.71999501466008], [14.595397981578216, 40.71913630864092], [14.589524181842814, 40.71872121643082], [14.583625239631044, 40.71875388155174], [14.57775992978196, 40.71923398627872], [14.571986696073587, 40.72015675447786], [14.566363072257348, 40.72151299861102], [14.540352274261897, 40.72888849372931], [14.535076464545726, 40.73061010765026], [14.530045007731829, 40.73271308807919], [14.525305404216654, 40.73517759886314], [14.520902415902874, 40.73798038950386], [14.516877644342996, 40.74109501334915], [14.513269137965297, 40.744492075957204], [14.510111032078633, 40.748139511345485], [14.507433225072734, 40.75200288357235], [14.505261093917941, 40.75604571085539], [14.503615251724936, 40.760229809214024], [14.502511349752782, 40.764515652431605], [14.501959925855246, 40.76886274496925], [14.501966300933958, 40.773230004331765], [14.502530524525485, 40.77757614928577], [14.503647370191901, 40.78186009026276], [14.50530638091468, 40.78604131824866], [14.507491964214111, 40.79008028846345], [14.510183536236001, 40.79393879517394], [14.51335571356839, 40.79758033405679], [14.516978551079177, 40.800970448638736], [14.521017823605753, 40.804077057485486], [14.540932210745023, 40.817966457529685], [14.54553573462384, 40.8208642041306], [14.55050126064854, 40.82339376906544], [14.555777973739797, 40.82552925444341], [14.561311856702794, 40.827248796589615], [14.567046245574732, 40.828534790949135], [14.57292241276487, 40.82937407315636], [14.578880171865917, 40.82975805437233], [14.584858497770066, 40.82968280947487], [14.590796155550157, 40.82914911718373], [14.608376426837761, 40.826877563763766], [14.614031687224674, 40.82592768823748], [14.619537251254, 40.82456186389586], [14.624840217029636, 40.82279322457435], [14.629889642377716, 40.82063877370258], [14.634637036201422, 40.81811921978918], [14.639036825598216, 40.81525877621454], [14.643046794184517, 40.8120849273114], [14.646628487380056, 40.80862816304077], [14.649747580753566, 40.80492168487213], [14.652374207918776, 40.801001085752], [14.654483244889498, 40.796904007289406], [14.656054548250106, 40.79266977749906], [14.657073144967038, 40.78833903262136], [14.657529372152968, 40.78395332668115], [14.657794274119054, 40.777224036937604]]]}}]", "centroid": "[{\"type\": \"Feature\", \"properties\": {}, \"geometry\": {\"type\": \"Point\", \"coordinates\": [14.581572878613391, 40.774532361751575]}}]", "Diesel High Quality": {"1": [], "3": [], "5": [{"Gestore": "ORGANIZZAZIONE SERVIZI AUTO - O.S.A. - S.P.A.", "Bandiera": "Esso", "Tipo impianto": "Altro", "Indirizzo": "VIA PASSANTI 267 84018", "Nome impianto": "ESSO SCAFATI", "Comune": "SCAFATI", "idImpianto": 50249, "points": [{"type": "Feature", "properties": {}, "geometry": {"type": "Point", "coordinates": [14.517707887191804, 40.76596745019975]}}], "price": 2.199, "ultima_rilevazione": "22/06/2022 15:51:45"}, {"Gestore": "PADOVANO LUIGI", "Bandiera": "Esso", "Tipo impianto": "Altro", "Indirizzo": "VIA DEI GOTI 87 84012", "Nome impianto": "PADOVANO LUIGI", "Comune": "ANGRI", "idImpianto": 45211, "points": [{"type": "Feature", "properties": {}, "geometry": {"type": "Point", "coordinates": [14.569725000123, 40.734039000123]}}], "price": 2.199, "ultima_rilevazione": "23/06/2022 17:06:49"}, {"Gestore": "CARBURANTE DI CASCONE NICOLA", "Bandiera": "Esso", "Tipo impianto": "Altro", "Indirizzo": "VIA DANTE ALIGHIERI 27 84018", "Nome impianto": "CARBURANTE DI CASCONE NICOLA", "Comune": "SCAFATI", "idImpianto": 45066, "points": [{"type": "Feature", "properties": {}, "geometry": {"type": "Point", "coordinates": [14.534445000123, 40.749389000123]}}], "price": 2.239, "ultima_rilevazione": "24/06/2022 11:30:39"}, {"Gestore": "CORPORATION FUELS S.R.L.", "Bandiera": "Q8", "Tipo impianto": "Altro", "Indirizzo": "via olivella  6 84016", "Nome impianto": "Q8 ", "Comune": "PAGANI", "idImpianto": 18901, "points": [{"type": "Feature", "properties": {}, "geometry": {"type": "Point", "coordinates": [14.62159879929493, 40.74704017765911]}}], "price": 2.199, "ultima_rilevazione": "27/06/2022 12:00:22"}]}, "Blue Diesel": {"1": [], "3": [{"Gestore": "F.S. PETROLI S.R.L. A CAPITALE RIDOTTO", "Bandiera": "Agip Eni", "Tipo impianto": "Altro", "Indirizzo": "VIA PADRE VINCENZO SORRENTINO SNC 84016", "Nome impianto": "F.S. PETROLI S.R.L.", "Comune": "PAGANI", "idImpianto": 20971, "points": [{"type": "Feature", "properties": {}, "geometry": {"type": "Point", "coordinates": [14.61111232638359, 40.7535128869219]}}], "price": 2.144, "ultima_rilevazione": "22/06/2022 15:04:15"}, {"Gestore": "F.S. PETROLI S.R.L. A CAPITALE RIDOTTO", "Bandiera": "Agip Eni", "Tipo impianto": "Altro", "Indirizzo": "VIA PADRE VINCENZO SORRENTINO SNC 84016", "Nome impianto": "F.S. PETROLI S.R.L.", "Comune": "PAGANI", "idImpianto": 20971, "points": [{"type": "Feature", "properties": {}, "geometry": {"type": "Point", "coordinates": [14.61111232638359, 40.7535128869219]}}], "price": 2.254, "ultima_rilevazione": "22/06/2022 15:04:15"}, {"Gestore": "MULTICARBURANTE DI MARESCA ANNA & C. S.N.C.", "Bandiera": "Agip Eni", "Tipo impianto": "Altro", "Indirizzo": "Via Taurano 128 84016", "Nome impianto": "Multicarburante di Maresca Anna & C. s.n.c.", "Comune": "PAGANI", "idImpianto": 5643, "points": [{"type": "Feature", "properties": {}, "geometry": {"type": "Point", "coordinates": [14.592188000679016, 40.75515215542613]}}], "price": 2.254, "ultima_rilevazione": "27/06/2022 08:09:40"}, {"Gestore": "MULTICARBURANTE DI MARESCA ANNA & C. S.N.C.", "Bandiera": "Agip Eni", "Tipo impianto": "Altro", "Indirizzo": "Via Taurano 128 84016", "Nome impianto": "Multicarburante di Maresca Anna & C. s.n.c.", "Comune": "PAGANI", "idImpianto": 5643, "points": [{"type": "Feature", "properties": {}, "geometry": {"type": "Point", "coordinates": [14.592188000679016, 40.75515215542613]}}], "price": 2.164, "ultima_rilevazione": "27/06/2022 08:09:40"}], "5": [{"Gestore": "MI.SA. CARBURANTI S.R.L.", "Bandiera": "Agip Eni", "Tipo impianto": "Altro", "Indirizzo": "VIA DE GASPERI 47 84018", "Nome impianto": "MISA CARBURANTI SRL", "Comune": "SCAFATI", "idImpianto": 43176, "points": [{"type": "Feature", "properties": {}, "geometry": {"type": "Point", "coordinates": [14.52959227423969, 40.75511612456466]}}], "price": 2.124, "ultima_rilevazione": "22/06/2022 07:29:25"}, {"Gestore": "MI.SA. CARBURANTI S.R.L.", "Bandiera": "Agip Eni", "Tipo impianto": "Altro", "Indirizzo": "VIA DE GASPERI 47 84018", "Nome impianto": "MISA CARBURANTI SRL", "Comune": "SCAFATI", "idImpianto": 43176, "points": [{"type": "Feature", "properties": {}, "geometry": {"type": "Point", "coordinates": [14.52959227423969, 40.75511612456466]}}], "price": 2.254, "ultima_rilevazione": "22/06/2022 07:29:25"}]}, "Gasolio High Quality": {"1": [], "3": [{"Gestore": "LANGELLA CARBURANTI DI LANGELLA DAVIDE", "Bandiera": "Pompe Bianche", "Tipo impianto": "Altro", "Indirizzo": "VIA FILETTINE 118 84016", "Nome impianto": "LANGELLA CARBURANTI", "Comune": "PAGANI", "idImpianto": 49857, "points": [{"type": "Feature", "properties": {}, "geometry": {"type": "Point", "coordinates": [14.608788183872583, 40.755019758641126]}}], "price": 2.129, "ultima_rilevazione": "24/06/2022 15:48:00"}, {"Gestore": "TRAMONTANO S.R.L.", "Bandiera": "Esso", "Tipo impianto": "Altro", "Indirizzo": "VIA SARNO-STRIANO  84087", "Nome impianto": "DISTRIBUTORE ESSO", "Comune": "SARNO", "idImpianto": 13697, "points": [{"type": "Feature", "properties": {}, "geometry": {"type": "Point", "coordinates": [14.592645317316055, 40.80898497152845]}}], "price": 2.199, "ultima_rilevazione": "27/06/2022 17:36:13"}], "5": [{"Gestore": "S.A.R.A. S.A.S. DI SALVATORE MANZO & C.", "Bandiera": "Esso", "Tipo impianto": "Altro", "Indirizzo": "VIA NAZIONALE 27 84016", "Nome impianto": "s.a.r.a. esso", "Comune": "PAGANI", "idImpianto": 50444, "points": [{"type": "Feature", "properties": {}, "geometry": {"type": "Point", "coordinates": [14.625697267327084, 40.74334472636938]}}], "price": 2.179, "ultima_rilevazione": "29/06/2022 07:38:46"}]}, "Benzina": {"1": [{"Gestore": "BELLACOSA ALFREDO", "Bandiera": "Pompe Bianche", "Tipo impianto": "Altro", "Indirizzo": "VIA PIAVE 106 84010", "Nome impianto": "stazione di servizio bellacosa alfredo", "Comune": "SAN MARZANO SUL SARNO", "idImpianto": 47669, "points": [{"type": "Feature", "properties": {}, "geometry": {"type": "Point", "coordinates": [14.591359582207756, 40.77709121761687]}}], "price": 2.299, "ultima_rilevazione": "27/06/2022 13:02:50"}, {"Gestore": "GAS S.R.L.", "Bandiera": "Pompe Bianche", "Tipo impianto": "Altro", "Indirizzo": "via Cesina 78 84010", "Nome impianto": "MECK OIL ", "Comune": "SAN VALENTINO TORIO", "idImpianto": 35752, "points": [{"type": "Feature", "properties": {}, "geometry": {"type": "Point", "coordinates": [14.60015252883602, 40.788597446740106]}}], "price": 2.069, "ultima_rilevazione": "28/06/2022 11:02:59"}], "3": [{"Gestore": "TORTORA FILIPPO", "Bandiera": "Pompe Bianche", "Tipo impianto": "Altro", "Indirizzo": "VIALE PAPA GIOVANNI XXIII 145 84012", "Nome impianto": "ANGELINA PETROLI", "Comune": "ANGRI", "idImpianto": 32242, "points": [{"type": "Feature", "properties": {}, "geometry": {"type": "Point", "coordinates": [14.56538276580227, 40.74103632577491]}}], "price": 2.109, "ultima_rilevazione": "16/06/2022 20:02:29"}, {"Gestore": "PAKO CARBURANTI S.R.L.", "Bandiera": "Pompe Bianche", "Tipo impianto": "Altro", "Indirizzo": "VIA MARRA 175 80041", "Nome impianto": "PAKO CARBURANTI", "Comune": "BOSCOREALE", "idImpianto": 47980, "points": [{"type": "Feature", "properties": {}, "geometry": {"type": "Point", "coordinates": [14.546382294477445, 40.78290918565107]}}], "price": 2.049, "ultima_rilevazione": "17/06/2022 13:12:06"}, {"Gestore": "MANNA DI MASCOLO LUIGI E ANNARUMMA ALESSANDRO & C. S.N.C.", "Bandiera": "Q8", "Tipo impianto": "Altro", "Indirizzo": "via san domenico 98 84016", "Nome impianto": "ALGISA PETROLI ", "Comune": "PAGANI", "idImpianto": 43054, "points": [{"type": "Feature", "properties": {}, "geometry": {"type": "Point", "coordinates": [14.60260385959782, 40.74152181786024]}}], "price": 2.099, "ultima_rilevazione": "17/06/2022 16:34:13"}, {"Gestore": "ISMAN PETROLEUM S.R.L.", "Bandiera": "Pompe Bianche", "Tipo impianto": "Altro", "Indirizzo": "VIA VETICE 13 84010", "Nome impianto": "ISMAN PETROLEUM", "Comune": "SAN VALENTINO TORIO", "idImpianto": 31815, "points": [{"type": "Feature", "properties": {}, "geometry": {"type": "Point", "coordinates": [14.593898510689542, 40.79242573664654]}}], "price": 2.119, "ultima_rilevazione": "20/06/2022 12:58:31"}, {"Gestore": "F.S. PETROLI S.R.L. A CAPITALE RIDOTTO", "Bandiera": "Agip Eni", "Tipo impianto": "Altro", "Indirizzo": "VIA PADRE VINCENZO SORRENTINO SNC 84016", "Nome impianto": "F.S. PETROLI S.R.L.", "Comune": "PAGANI", "idImpianto": 20971, "points": [{"type": "Feature", "properties": {}, "geometry": {"type": "Point", "coordinates": [14.61111232638359, 40.7535128869219]}}], "price": 2.104, "ultima_rilevazione": "22/06/2022 15:04:15"}, {"Gestore": "LANGELLA CARBURANTI DI LANGELLA DAVIDE", "Bandiera": "Pompe Bianche", "Tipo impianto": "Altro", "Indirizzo": "VIA FILETTINE 118 84016", "Nome impianto": "LANGELLA CARBURANTI", "Comune": "PAGANI", "idImpianto": 49857, "points": [{"type": "Feature", "properties": {}, "geometry": {"type": "Point", "coordinates": [14.608788183872583, 40.755019758641126]}}], "price": 2.028, "ultima_rilevazione": "24/06/2022 15:48:00"}, {"Gestore": "CRISPO PETROL SERVICE S.N.C. DI CRISPO P. & E.", "Bandiera": "Api-Ip", "Tipo impianto": "Altro", "Indirizzo": "VIA SOTTOSANTI 40 84010", "Nome impianto": "IP", "Comune": "SAN VALENTINO TORIO", "idImpianto": 13494, "points": [{"type": "Feature", "properties": {}, "geometry": {"type": "Point", "coordinates": [14.60153775267554, 40.79552600094498]}}], "price": 2.089, "ultima_rilevazione": "25/06/2022 07:53:33"}, {"Gestore": "SERVIZI & GESTIONI ITALIA srl", "Bandiera": "Q8", "Tipo impianto": "Altro", "Indirizzo": "VIA S.P.21 KM 2 SNC 84018", "Nome impianto": "SCAFATI VIA S.P.21 KM 2", "Comune": "SCAFATI", "idImpianto": 6739, "points": [{"type": "Feature", "properties": {}, "geometry": {"type": "Point", "coordinates": [14.54173958283809, 40.77428223475604]}}], "price": 2.049, "ultima_rilevazione": "27/06/2022 00:36:53"}, {"Gestore": "MULTICARBURANTE DI MARESCA ANNA & C. S.N.C.", "Bandiera": "Agip Eni", "Tipo impianto": "Altro", "Indirizzo": "Via Taurano 128 84016", "Nome impianto": "Multicarburante di Maresca Anna & C. s.n.c.", "Comune": "PAGANI", "idImpianto": 5643, "points": [{"type": "Feature", "properties": {}, "geometry": {"type": "Point", "coordinates": [14.592188000679016, 40.75515215542613]}}], "price": 2.104, "ultima_rilevazione": "27/06/2022 08:09:40"}, {"Gestore": "GALASSO GIUSEPPINA", "Bandiera": "Pompe Bianche", "Tipo impianto": "Altro", "Indirizzo": "VIA NUOVA SAN MARZANO 98 80040", "Nome impianto": "GALASSO GIUSEPPINA", "Comune": "POGGIOMARINO", "idImpianto": 22356, "points": [{"type": "Feature", "properties": {}, "geometry": {"type": "Point", "coordinates": [14.545705318450814, 40.79643830714438]}}], "price": 2.079, "ultima_rilevazione": "27/06/2022 10:15:31"}, {"Gestore": "TRAMONTANO S.R.L.", "Bandiera": "Esso", "Tipo impianto": "Altro", "Indirizzo": "VIA SARNO-STRIANO  84087", "Nome impianto": "DISTRIBUTORE ESSO", "Comune": "SARNO", "idImpianto": 13697, "points": [{"type": "Feature", "properties": {}, "geometry": {"type": "Point", "coordinates": [14.592645317316055, 40.80898497152845]}}], "price": 1.999, "ultima_rilevazione": "27/06/2022 17:36:13"}, {"Gestore": "SERVIZI & GESTIONI ITALIA srl", "Bandiera": "Q8", "Tipo impianto": "Altro", "Indirizzo": "SS 18 LC BAGNI SNC 84018", "Nome impianto": "SCAFATI SS 18 LC BAGNI", "Comune": "SCAFATI", "idImpianto": 6735, "points": [{"type": "Feature", "properties": {}, "geometry": {"type": "Point", "coordinates": [14.547430870534868, 40.7488283369454]}}], "price": 2.089, "ultima_rilevazione": "28/06/2022 02:05:04"}, {"Gestore": "IP SERVICES S.R.L.", "Bandiera": "Api-Ip", "Tipo impianto": "Altro", "Indirizzo": "Viale Kennedy 23 84010", "Nome impianto": "S.EGIDIO MONTE ALBINO", "Comune": "SANT'EGIDIO DEL MONTE ALBINO", "idImpianto": 34896, "points": [{"type": "Feature", "properties": {}, "geometry": {"type": "Point", "coordinates": [14.597060343586008, 40.738189638920026]}}], "price": 2.099, "ultima_rilevazione": "28/06/2022 11:04:01"}, {"Gestore": "GRIMALDI S.R.L.", "Bandiera": "Esso", "Tipo impianto": "Altro", "Indirizzo": "Via Nazionale 398 84012", "Nome impianto": "PIC ANGRI", "Comune": "ANGRI", "idImpianto": 43551, "points": [{"type": "Feature", "properties": {}, "geometry": {"type": "Point", "coordinates": [14.581970125436785, 40.7481375560265]}}], "price": 2.089, "ultima_rilevazione": "28/06/2022 14:05:21"}, {"Gestore": "UP S.R.L.S.", "Bandiera": "UP", "Tipo impianto": "Altro", "Indirizzo": "VIA S. VALENTINO SARNO SNC 84087", "Nome impianto": "UP - SARNO", "Comune": "SARNO", "idImpianto": 46770, "points": [{"type": "Feature", "properties": {}, "geometry": {"type": "Point", "coordinates": [14.613734000123, 40.805797000123]}}], "price": 2.009, "ultima_rilevazione": "28/06/2022 14:54:05"}, {"Gestore": "PETROL SERVICE S.A.S. DI CASCONE VINCENZO", "Bandiera": "Q8", "Tipo impianto": "Altro", "Indirizzo": "VIA MANGIONI 1 84016", "Nome impianto": "ENERGAS", "Comune": "PAGANI", "idImpianto": 28298, "points": [{"type": "Feature", "properties": {}, "geometry": {"type": "Point", "coordinates": [14.619114696979524, 40.75153343863095]}}], "price": 2.088, "ultima_rilevazione": "28/06/2022 15:56:58"}, {"Gestore": "ADINOLFI S.R.L.", "Bandiera": "Repsol", "Tipo impianto": "Altro", "Indirizzo": "VIA PROVINCIALE 133 84010", "Nome impianto": "ADINOLFI SRL STAZ. SERVIZIO IP", "Comune": "SAN VALENTINO TORIO", "idImpianto": 29345, "points": [{"type": "Feature", "properties": {}, "geometry": {"type": "Point", "coordinates": [14.62157833997844, 40.78672217336834]}}], "price": 2.069, "ultima_rilevazione": "28/06/2022 16:11:43"}, {"Gestore": "PEGASO CARBURANTI S.R.L.", "Bandiera": "Pompe Bianche", "Tipo impianto": "Altro", "Indirizzo": "Via Taurano 123 84016", "Nome impianto": "Pegaso Carburanti Pagani", "Comune": "PAGANI", "idImpianto": 50920, "points": [{"type": "Feature", "properties": {}, "geometry": {"type": "Point", "coordinates": [14.598368931985153, 40.75241567036497]}}], "price": 1.999, "ultima_rilevazione": "28/06/2022 23:26:19"}, {"Gestore": "VOLO GROUP S.R.L.", "Bandiera": "CONAD", "Tipo impianto": "Altro", "Indirizzo": "VIA ALCIDE DE GASPERI 340 84016", "Nome impianto": "CONAD SUPERMERCATO", "Comune": "PAGANI", "idImpianto": 32396, "points": [{"type": "Feature", "properties": {}, "geometry": {"type": "Point", "coordinates": [14.59837898998262, 40.74986271798383]}}], "price": 1.969, "ultima_rilevazione": "29/06/2022 07:00:06"}], "5": [{"Gestore": "AMENDOLA FERDINANDO", "Bandiera": "Api-Ip", "Tipo impianto": "Altro", "Indirizzo": "via Napoli  84014", "Nome impianto": "totalerg di amendola ferdinando", "Comune": "NOCERA INFERIORE", "idImpianto": 28646, "points": [{"type": "Feature", "properties": {}, "geometry": {"type": "Point", "coordinates": [14.63225819170475, 40.74702307557615]}}], "price": 2.359, "ultima_rilevazione": "27/06/2022 12:54:31"}, {"Gestore": "F.LLI RUSSO S.N.C. DI RUSSO LUIGI E GIOVANNI", "Bandiera": "Pompe Bianche", "Tipo impianto": "Altro", "Indirizzo": "PIAZZA MARCONI 5 84087", "Nome impianto": "IMPIANTO", "Comune": "SARNO", "idImpianto": 18849, "points": [{"type": "Feature", "properties": {}, "geometry": {"type": "Point", "coordinates": [14.619951620376582, 40.81181822198798]}}], "price": 2.025, "ultima_rilevazione": "27/06/2022 11:47:48"}, {"Gestore": "MILANO TERESA", "Bandiera": "Agip Eni", "Tipo impianto": "Altro", "Indirizzo": "VIA CARLO TRAMONTANO 35 84016", "Nome impianto": "ENI", "Comune": "PAGANI", "idImpianto": 47290, "points": [{"type": "Feature", "properties": {}, "geometry": {"type": "Point", "coordinates": [14.617230790921209, 40.73821965415488]}}], "price": 1.999, "ultima_rilevazione": "11/06/2022 08:19:31"}, {"Gestore": "ROCAL S.R.L.", "Bandiera": "Pompe Bianche", "Tipo impianto": "Altro", "Indirizzo": "VIA SALICE 30 84012", "Nome impianto": "FERRI FUEL", "Comune": "ANGRI", "idImpianto": 45470, "points": [{"type": "Feature", "properties": {}, "geometry": {"type": "Point", "coordinates": [14.555597621551556, 40.74340303566079]}}], "price": 2.079, "ultima_rilevazione": "16/06/2022 20:15:18"}, {"Gestore": "MANNA DI MASCOLO LUIGI E ANNARUMMA ALESSANDRO & C. S.N.C.", "Bandiera": "Agip Eni", "Tipo impianto": "Altro", "Indirizzo": "VIA ADRIANA 7 84012", "Nome impianto": "MANNA PETROLI", "Comune": "ANGRI", "idImpianto": 47739, "points": [{"type": "Feature", "properties": {}, "geometry": {"type": "Point", "coordinates": [14.577712763537724, 40.736205840818]}}], "price": 2.099, "ultima_rilevazione": "17/06/2022 16:34:48"}, {"Gestore": "FINELLI ANTONIO S.R.L.", "Bandiera": "Pompe Bianche", "Tipo impianto": "Altro", "Indirizzo": "VIA G.IERVOLINO SNC 80040", "Nome impianto": "finfuel", "Comune": "POGGIOMARINO", "idImpianto": 41100, "points": [{"type": "Feature", "properties": {}, "geometry": {"type": "Point", "coordinates": [14.545948058366776, 40.810310236351945]}}], "price": 2.039, "ultima_rilevazione": "17/06/2022 20:35:59"}, {"Gestore": "CARBURANTI MILONE DI MILONE ULDERICO", "Bandiera": "Api-Ip", "Tipo impianto": "Altro", "Indirizzo": "VIA STRIANO 48 84087", "Nome impianto": "IP", "Comune": "SARNO", "idImpianto": 43075, "points": [{"type": "Feature", "properties": {}, "geometry": {"type": "Point", "coordinates": [14.607442705522544, 40.815288970048826]}}], "price": 2.119, "ultima_rilevazione": "17/06/2022 20:44:44"}, {"Gestore": "MI.SA. CARBURANTI S.R.L.", "Bandiera": "Agip Eni", "Tipo impianto": "Altro", "Indirizzo": "VIA DE GASPERI 47 84018", "Nome impianto": "MISA CARBURANTI SRL", "Comune": "SCAFATI", "idImpianto": 43176, "points": [{"type": "Feature", "properties": {}, "geometry": {"type": "Point", "coordinates": [14.52959227423969, 40.75511612456466]}}], "price": 2.104, "ultima_rilevazione": "22/06/2022 07:29:25"}, {"Gestore": "AFIERO MICHELE", "Bandiera": "Loro", "Tipo impianto": "Altro", "Indirizzo": "VIA MARTIRI D'UNGHERIA 101 84018", "Nome impianto": "AFIERO MICHELE", "Comune": "SCAFATI", "idImpianto": 40883, "points": [{"type": "Feature", "properties": {}, "geometry": {"type": "Point", "coordinates": [14.52107514283989, 40.75196803180263]}}], "price": 2.068, "ultima_rilevazione": "22/06/2022 09:31:06"}, {"Gestore": "ORGANIZZAZIONE SERVIZI AUTO - O.S.A. - S.P.A.", "Bandiera": "Esso", "Tipo impianto": "Altro", "Indirizzo": "VIA PASSANTI 267 84018", "Nome impianto": "ESSO SCAFATI", "Comune": "SCAFATI", "idImpianto": 50249, "points": [{"type": "Feature", "properties": {}, "geometry": {"type": "Point", "coordinates": [14.517707887191804, 40.76596745019975]}}], "price": 2.129, "ultima_rilevazione": "22/06/2022 15:51:45"}, {"Gestore": "DI PALMA GIUSEPPE VINCENZO", "Bandiera": "Tamoil", "Tipo impianto": "Altro", "Indirizzo": "VIA PASSANTI FLOCCO 262 80041", "Nome impianto": "TAMOIL DI DI PALMA GIUSEPPE VINCENZO", "Comune": "BOSCOREALE", "idImpianto": 14102, "points": [{"type": "Feature", "properties": {}, "geometry": {"type": "Point", "coordinates": [14.510054738928602, 40.783947231763015]}}], "price": 2.119, "ultima_rilevazione": "22/06/2022 20:56:20"}, {"Gestore": "SALVO PETROLI S.A.S. DI PANARIELLO TERESA & C.", "Bandiera": "Pompe Bianche", "Tipo impianto": "Altro", "Indirizzo": "VIA PASSANTI FLOCCO snc  80040", "Nome impianto": "AR PETROLI pv2", "Comune": "POGGIOMARINO", "idImpianto": 46538, "points": [{"type": "Feature", "properties": {}, "geometry": {"type": "Point", "coordinates": [14.527478, 40.79289]}}], "price": 2.076, "ultima_rilevazione": "23/06/2022 11:41:04"}, {"Gestore": "PADOVANO LUIGI", "Bandiera": "Esso", "Tipo impianto": "Altro", "Indirizzo": "VIA DEI GOTI 87 84012", "Nome impianto": "PADOVANO LUIGI", "Comune": "ANGRI", "idImpianto": 45211, "points": [{"type": "Feature", "properties": {}, "geometry": {"type": "Point", "coordinates": [14.569725000123, 40.734039000123]}}], "price": 2.089, "ultima_rilevazione": "23/06/2022 17:06:49"}, {"Gestore": "CAVALLARO S.N.C. DI CAVALLARO FRANCESCO E CAVALLARO MASSIMO", "Bandiera": "Pompe Bianche", "Tipo impianto": "Altro", "Indirizzo": "via sant'antonio abate 86 84018", "Nome impianto": "distributore cavallaro", "Comune": "SCAFATI", "idImpianto": 42182, "points": [{"type": "Feature", "properties": {}, "geometry": {"type": "Point", "coordinates": [14.530619451555252, 40.74301494983108]}}], "price": 2.189, "ultima_rilevazione": "24/06/2022 06:44:03"}, {"Gestore": "MERIDIONAL G.P.L. - S.R.L.", "Bandiera": "Pompe Bianche", "Tipo impianto": "Altro", "Indirizzo": "VIA SPINELLI 22 80045", "Nome impianto": "Meridional Gpl srl", "Comune": "POMPEI", "idImpianto": 9615, "points": [{"type": "Feature", "properties": {}, "geometry": {"type": "Point", "coordinates": [14.504981338977814, 40.76913387129056]}}], "price": 2.069, "ultima_rilevazione": "24/06/2022 08:30:10"}, {"Gestore": "PA.SA S.N.C. DI PAGANO V. E SALVATI F.", "Bandiera": "Api-Ip", "Tipo impianto": "Altro", "Indirizzo": "VIA PETRARCA 45 84014", "Nome impianto": "STAZIONE DI RIFORNIMENTO IP PA.SA.", "Comune": "NOCERA INFERIORE", "idImpianto": 28525, "points": [{"type": "Feature", "properties": {}, "geometry": {"type": "Point", "coordinates": [14.65238481760025, 40.76252714468493]}}], "price": 2.079, "ultima_rilevazione": "24/06/2022 09:05:30"}, {"Gestore": "BRUNO BATTIPAGLIA GIUSEPPE", "Bandiera": "Pompe Bianche", "Tipo impianto": "Altro", "Indirizzo": "VIA VECCHIA LAVORATE 108 84087", "Nome impianto": "ACP", "Comune": "SARNO", "idImpianto": 21102, "points": [{"type": "Feature", "properties": {}, "geometry": {"type": "Point", "coordinates": [14.648472145199776, 40.79057266511274]}}], "price": 2.069, "ultima_rilevazione": "24/06/2022 09:37:17"}, {"Gestore": "CARBURANTE DI CASCONE NICOLA", "Bandiera": "Esso", "Tipo impianto": "Altro", "Indirizzo": "VIA DANTE ALIGHIERI 27 84018", "Nome impianto": "CARBURANTE DI CASCONE NICOLA", "Comune": "SCAFATI", "idImpianto": 45066, "points": [{"type": "Feature", "properties": {}, "geometry": {"type": "Point", "coordinates": [14.534445000123, 40.749389000123]}}], "price": 2.089, "ultima_rilevazione": "24/06/2022 11:30:39"}, {"Gestore": "PETROLCHIMICA SUD - S.R.L.", "Bandiera": "Pompe Bianche", "Tipo impianto": "Altro", "Indirizzo": "VIA CAMPIA SNC 84013", "Nome impianto": "ANGRI", "Comune": "ANGRI", "idImpianto": 35638, "points": [{"type": "Feature", "properties": {}, "geometry": {"type": "Point", "coordinates": [14.561990350484848, 40.73931612267616]}}], "price": 2.069, "ultima_rilevazione": "24/06/2022 16:20:28"}, {"Gestore": "PETROLCHIMICA SUD - S.R.L.", "Bandiera": "Pompe Bianche", "Tipo impianto": "Altro", "Indirizzo": "VIA PROVINCIALE G. AMENDOLA SNC 84087", "Nome impianto": "SARNO", "Comune": "SARNO", "idImpianto": 20297, "points": [{"type": "Feature", "properties": {}, "geometry": {"type": "Point", "coordinates": [14.617112054027416, 40.806991418981085]}}], "price": 2.009, "ultima_rilevazione": "24/06/2022 16:21:00"}, {"Gestore": "2 G PETROLI S.R.L. SEMPLIFICATA", "Bandiera": "Pompe Bianche", "Tipo impianto": "Altro", "Indirizzo": "VIA G.B. CASCIELLO SNC 84018", "Nome impianto": "Eurogas", "Comune": "SCAFATI", "idImpianto": 46282, "points": [{"type": "Feature", "properties": {}, "geometry": {"type": "Point", "coordinates": [14.519029453570738, 40.76145869786863]}}], "price": 2.145, "ultima_rilevazione": "24/06/2022 18:16:48"}, {"Gestore": "DELTA PETROLI S.R.L.", "Bandiera": "Api-Ip", "Tipo impianto": "Altro", "Indirizzo": "Via Tre Ponti snc 80045", "Nome impianto": "Delta Petroli S.r.l. (Pompei)", "Comune": "POMPEI", "idImpianto": 32071, "points": [{"type": "Feature", "properties": {}, "geometry": {"type": "Point", "coordinates": [14.506644308567047, 40.76120620819259]}}], "price": 2.003, "ultima_rilevazione": "25/06/2022 10:07:17"}, {"Gestore": "SERVIZI & GESTIONI ITALIA srl", "Bandiera": "Q8", "Tipo impianto": "Altro", "Indirizzo": "VIA S.P.UNGARO SNC 84018", "Nome impianto": "SCAFATI VIA S.P.UNGARO", "Comune": "SCAFATI", "idImpianto": 6738, "points": [{"type": "Feature", "properties": {}, "geometry": {"type": "Point", "coordinates": [14.522836018420094, 40.7591448349824]}}], "price": 2.129, "ultima_rilevazione": "27/06/2022 00:36:53"}, {"Gestore": "SERVIZI & GESTIONI ITALIA srl", "Bandiera": "Q8", "Tipo impianto": "Altro", "Indirizzo": "SS. 18 KM. 36+450 LOC.S.CHIARA SNC PAGANI, SA 84016  ", "Nome impianto": "PAGANI SS. 18 KM. 36+450 LOC.S.CHIARA", "Comune": "PAGANI", "idImpianto": 6737, "points": [{"type": "Feature", "properties": {}, "geometry": {"type": "Point", "coordinates": [14.627369150530283, 40.743004191407564]}}], "price": 2.079, "ultima_rilevazione": "27/06/2022 01:03:31"}, {"Gestore": "VASTOLA F. S.A.S. DI ATTIANESE EMANUELA", "Bandiera": "Pompe Bianche", "Tipo impianto": "Altro", "Indirizzo": "VIA POGGIOMARINO 170 80040", "Nome impianto": "VASTOLA F. S.A.S.", "Comune": "STRIANO", "idImpianto": 16117, "points": [{"type": "Feature", "properties": {}, "geometry": {"type": "Point", "coordinates": [14.556227624416351, 40.809959839525874]}}], "price": 2.097, "ultima_rilevazione": "27/06/2022 09:24:48"}, {"Gestore": "POMPEANGAS - S.A.S. DI ALLEGRO CATELLO & C.", "Bandiera": "Pompe Bianche", "Tipo impianto": "Altro", "Indirizzo": "VIA SALICE 157 84012", "Nome impianto": "BREAK ZONE  - POMPEANGAS", "Comune": "ANGRI", "idImpianto": 16158, "points": [{"type": "Feature", "properties": {}, "geometry": {"type": "Point", "coordinates": [14.56152766942978, 40.74097687632511]}}], "price": 2.11, "ultima_rilevazione": "27/06/2022 09:26:53"}, {"Gestore": "DE.N. S.A.S. DI PINTO CLAUDIA", "Bandiera": "Repsol", "Tipo impianto": "Altro", "Indirizzo": "VIA S.ANNA 96 84014", "Nome impianto": "Repsol", "Comune": "NOCERA INFERIORE", "idImpianto": 44579, "points": [{"type": "Feature", "properties": {}, "geometry": {"type": "Point", "coordinates": [14.639450542602615, 40.75367832539927]}}], "price": 2.069, "ultima_rilevazione": "27/06/2022 10:01:37"}, {"Gestore": "ALMA S.R.L.", "Bandiera": "Tamoil", "Tipo impianto": "Autostradale", "Indirizzo": "Autostrada A30 CASERTA-SALERNO, Km. 33+400, dir. Sud 80040", "Nome impianto": "ANGIOINA OVEST", "Comune": "STRIANO", "idImpianto": 3680, "points": [{"type": "Feature", "properties": {}, "geometry": {"type": "Point", "coordinates": [14.568405070114068, 40.82695607098962]}}], "price": 2.129, "ultima_rilevazione": "27/06/2022 10:23:44"}, {"Gestore": "LE SPOSE DI BIANCA DI ANNARUMMA BIANCA", "Bandiera": "Pompe Bianche", "Tipo impianto": "Altro", "Indirizzo": "VIA PALUDICELLA 30A 84012", "Nome impianto": "VISCARDI CARBURANTI METANO GPL", "Comune": "ANGRI", "idImpianto": 42811, "points": [{"type": "Feature", "properties": {}, "geometry": {"type": "Point", "coordinates": [14.548700884665209, 40.72987052231823]}}], "price": 2.12, "ultima_rilevazione": "27/06/2022 11:16:43"}, {"Gestore": "CORPORATION FUELS S.R.L.", "Bandiera": "Q8", "Tipo impianto": "Altro", "Indirizzo": "via olivella  6 84016", "Nome impianto": "Q8 ", "Comune": "PAGANI", "idImpianto": 18901, "points": [{"type": "Feature", "properties": {}, "geometry": {"type": "Point", "coordinates": [14.62159879929493, 40.74704017765911]}}], "price": 2.099, "ultima_rilevazione": "27/06/2022 12:00:22"}, {"Gestore": "FACOMGAS S.R.L.", "Bandiera": "Pompe Bianche", "Tipo impianto": "Altro", "Indirizzo": "VIA PETRARCA  84014", "Nome impianto": "FACOMGAS S.r.l. (Nocera Inf.)", "Comune": "NOCERA INFERIORE", "idImpianto": 24952, "points": [{"type": "Feature", "properties": {}, "geometry": {"type": "Point", "coordinates": [14.653138518333437, 40.7638074245025]}}], "price": 2.079, "ultima_rilevazione": "27/06/2022 16:01:28"}, {"Gestore": "SANTONICOLA ALFONSO", "Bandiera": "Repsol", "Tipo impianto": "Altro", "Indirizzo": "VIA FIANO 102 84014", "Nome impianto": "stazione di servizio Alfonso Santonicola", "Comune": "NOCERA INFERIORE", "idImpianto": 21864, "points": [{"type": "Feature", "properties": {}, "geometry": {"type": "Point", "coordinates": [14.646015912294388, 40.77310100446204]}}], "price": 2.049, "ultima_rilevazione": "28/06/2022 06:32:34"}, {"Gestore": "COCCURULLO COSIMO", "Bandiera": "Pompe Bianche", "Tipo impianto": "Altro", "Indirizzo": "VIA E.CHIUNZI 2 84010", "Nome impianto": "Coccurullo Cosimo", "Comune": "CORBARA", "idImpianto": 50799, "points": [{"type": "Feature", "properties": {}, "geometry": {"type": "Point", "coordinates": [14.597206204893496, 40.72227233103176]}}], "price": 2.119, "ultima_rilevazione": "28/06/2022 07:55:47"}, {"Gestore": "LONGAS  S.R.L.", "Bandiera": "Pompe Bianche", "Tipo impianto": "Altro", "Indirizzo": "VIA PALMA 1 80040", "Nome impianto": "Longas", "Comune": "POGGIOMARINO", "idImpianto": 41864, "points": [{"type": "Feature", "properties": {}, "geometry": {"type": "Point", "coordinates": [14.55616056919098, 40.81263791225227]}}], "price": 2.025, "ultima_rilevazione": "28/06/2022 08:18:09"}, {"Gestore": "ALIBERTI VITTORIO", "Bandiera": "Tamoil", "Tipo impianto": "Altro", "Indirizzo": "VIA LEPANTO 287 80045", "Nome impianto": "TAMOIL DI ALIBERTI VITTORIO", "Comune": "POMPEI", "idImpianto": 29276, "points": [{"type": "Feature", "properties": {}, "geometry": {"type": "Point", "coordinates": [14.511073976755142, 40.74999486560387]}}], "price": 2.058, "ultima_rilevazione": "29/06/2022 07:54:07"}, {"Gestore": "UP S.R.L.S.", "Bandiera": "UP", "Tipo impianto": "Altro", "Indirizzo": "Via N.B.Grimaldi  76 84014", "Nome impianto": "UP - NOCERA INF. VIA N.B.GRIMALDI ", "Comune": "NOCERA INFERIORE", "idImpianto": 46429, "points": [{"type": "Feature", "properties": {}, "geometry": {"type": "Point", "coordinates": [14.62999885690699, 40.74495935271893]}}], "price": 1.999, "ultima_rilevazione": "28/06/2022 14:52:04"}, {"Gestore": "UP S.R.L.S.", "Bandiera": "UP", "Tipo impianto": "Altro", "Indirizzo": "VIA PIANO DEL PRINCIPE SNC 84040", "Nome impianto": "UP - POGGIOMARINO", "Comune": "POGGIOMARINO", "idImpianto": 46677, "points": [{"type": "Feature", "properties": {}, "geometry": {"type": "Point", "coordinates": [14.52587693044461, 40.80285799456114]}}], "price": 1.989, "ultima_rilevazione": "28/06/2022 14:53:42"}, {"Gestore": "F.A.S. PETROLI S.A.S. DI SALVATORE FRANCO", "Bandiera": "Tamoil", "Tipo impianto": "Altro", "Indirizzo": "Via papa giovanni23 18 84012", "Nome impianto": "Distributore tamoil", "Comune": "ANGRI", "idImpianto": 42932, "points": [{"type": "Feature", "properties": {}, "geometry": {"type": "Point", "coordinates": [14.566300069940551, 40.73623133987071]}}], "price": 2.089, "ultima_rilevazione": "29/06/2022 06:28:03"}, {"Gestore": "GRIMALDI GERARDO", "Bandiera": "Api-Ip", "Tipo impianto": "Altro", "Indirizzo": "VIALE DEGLI ARANCI 50 84010", "Nome impianto": "TOTALERG", "Comune": "SANT'EGIDIO DEL MONTE ALBINO", "idImpianto": 43142, "points": [{"type": "Feature", "properties": {}, "geometry": {"type": "Point", "coordinates": [14.586150813491829, 40.73649125888497]}}], "price": 2.099, "ultima_rilevazione": "28/06/2022 16:36:16"}, {"Gestore": "TOP GOMME DI ALFANO FRANCESCO", "Bandiera": "Pompe Bianche", "Tipo impianto": "Altro", "Indirizzo": "via murelle 57 84012", "Nome impianto": "staroil", "Comune": "ANGRI", "idImpianto": 32268, "points": [{"type": "Feature", "properties": {}, "geometry": {"type": "Point", "coordinates": [14.572852095530491, 40.736616335057086]}}], "price": 2.079, "ultima_rilevazione": "28/06/2022 19:02:59"}, {"Gestore": "DE SANTIS ANTONIO", "Bandiera": "Api-Ip", "Tipo impianto": "Altro", "Indirizzo": "VIA D'ANNA 16 80040", "Nome impianto": "I P", "Comune": "STRIANO", "idImpianto": 12833, "points": [{"type": "Feature", "properties": {}, "geometry": {"type": "Point", "coordinates": [14.5727459530641, 40.81404560002596]}}], "price": 2.029, "ultima_rilevazione": "28/06/2022 21:28:23"}, {"Gestore": "DV OIL SRL", "Bandiera": "DV OIL", "Tipo impianto": "Altro", "Indirizzo": "VIA ATZORI 271 84014", "Nome impianto": "DV OIL SRL", "Comune": "NOCERA INFERIORE", "idImpianto": 34416, "points": [{"type": "Feature", "properties": {}, "geometry": {"type": "Point", "coordinates": [14.635324149668122, 40.74057521976917]}}], "price": 2.009, "ultima_rilevazione": "29/06/2022 00:43:35"}, {"Gestore": "LA SUPREMA  - S.R.L.", "Bandiera": "Pompe Bianche", "Tipo impianto": "Altro", "Indirizzo": "VIA DEI GOTI 298 84012", "Nome impianto": "la suprema srl", "Comune": "ANGRI", "idImpianto": 42745, "points": [{"type": "Feature", "properties": {}, "geometry": {"type": "Point", "coordinates": [14.55362076686481, 40.72930309774013]}}], "price": 2.07, "ultima_rilevazione": "29/06/2022 06:31:52"}, {"Gestore": "S.A.R.A. S.A.S. DI SALVATORE MANZO & C.", "Bandiera": "Esso", "Tipo impianto": "Altro", "Indirizzo": "VIA NAZIONALE 27 84016", "Nome impianto": "s.a.r.a. esso", "Comune": "PAGANI", "idImpianto": 50444, "points": [{"type": "Feature", "properties": {}, "geometry": {"type": "Point", "coordinates": [14.625697267327084, 40.74334472636938]}}], "price": 2.069, "ultima_rilevazione": "29/06/2022 07:38:46"}]}, "null": {}, "GPL": {"1": [], "3": [{"Gestore": "MULTICARBURANTE DI MARESCA ANNA & C. S.N.C.", "Bandiera": "Agip Eni", "Tipo impianto": "Altro", "Indirizzo": "Via Taurano 128 84016", "Nome impianto": "Multicarburante di Maresca Anna & C. s.n.c.", "Comune": "PAGANI", "idImpianto": 5643, "points": [{"type": "Feature", "properties": {}, "geometry": {"type": "Point", "coordinates": [14.592188000679016, 40.75515215542613]}}], "price": 0.779, "ultima_rilevazione": "27/06/2022 08:09:40"}, {"Gestore": "LE SPOSE DI BIANCA DI ANNARUMMA BIANCA", "Bandiera": "Pompe Bianche", "Tipo impianto": "Altro", "Indirizzo": "VIA ORTALONGA 87 84018", "Nome impianto": "ANNARUMMA BIANCA", "Comune": "SCAFATI", "idImpianto": 34239, "points": [{"type": "Feature", "properties": {}, "geometry": {"type": "Point", "coordinates": [14.549692429938432, 40.762234569257394]}}], "price": 0.79, "ultima_rilevazione": "27/06/2022 11:16:33"}, {"Gestore": "TRAMONTANO S.R.L.", "Bandiera": "Esso", "Tipo impianto": "Altro", "Indirizzo": "VIA SARNO-STRIANO  84087", "Nome impianto": "DISTRIBUTORE ESSO", "Comune": "SARNO", "idImpianto": 13697, "points": [{"type": "Feature", "properties": {}, "geometry": {"type": "Point", "coordinates": [14.592645317316055, 40.80898497152845]}}], "price": 0.749, "ultima_rilevazione": "27/06/2022 17:36:13"}, {"Gestore": "PEGASO CARBURANTI S.R.L.", "Bandiera": "Pompe Bianche", "Tipo impianto": "Altro", "Indirizzo": "Via Alfonso Annunziata SNC 84018", "Nome impianto": "Pegaso Carburanti", "Comune": "SCAFATI", "idImpianto": 22998, "points": [{"type": "Feature", "properties": {}, "geometry": {"type": "Point", "coordinates": [14.544185959663425, 40.7726643749555]}}], "price": 0.795, "ultima_rilevazione": "28/06/2022 23:24:40"}, {"Gestore": "PEGASO CARBURANTI S.R.L.", "Bandiera": "Pompe Bianche", "Tipo impianto": "Altro", "Indirizzo": "Via Taurano 123 84016", "Nome impianto": "Pegaso Carburanti Pagani", "Comune": "PAGANI", "idImpianto": 50920, "points": [{"type": "Feature", "properties": {}, "geometry": {"type": "Point", "coordinates": [14.598368931985153, 40.75241567036497]}}], "price": 0.769, "ultima_rilevazione": "28/06/2022 23:26:19"}], "5": [{"Gestore": "ORGANIZZAZIONE SERVIZI AUTO - O.S.A. - S.P.A.", "Bandiera": "Esso", "Tipo impianto": "Altro", "Indirizzo": "VIA PASSANTI 267 84018", "Nome impianto": "ESSO SCAFATI", "Comune": "SCAFATI", "idImpianto": 50249, "points": [{"type": "Feature", "properties": {}, "geometry": {"type": "Point", "coordinates": [14.517707887191804, 40.76596745019975]}}], "price": 0.795, "ultima_rilevazione": "22/06/2022 15:51:45"}, {"Gestore": "SALVO PETROLI S.A.S. DI PANARIELLO TERESA & C.", "Bandiera": "Pompe Bianche", "Tipo impianto": "Altro", "Indirizzo": "VIA PASSANTI FLOCCO snc  80040", "Nome impianto": "AR PETROLI pv2", "Comune": "POGGIOMARINO", "idImpianto": 46538, "points": [{"type": "Feature", "properties": {}, "geometry": {"type": "Point", "coordinates": [14.527478, 40.79289]}}], "price": 0.79, "ultima_rilevazione": "23/06/2022 11:41:04"}, {"Gestore": "MERIDIONAL G.P.L. - S.R.L.", "Bandiera": "Pompe Bianche", "Tipo impianto": "Altro", "Indirizzo": "VIA SPINELLI 22 80045", "Nome impianto": "Meridional Gpl srl", "Comune": "POMPEI", "idImpianto": 9615, "points": [{"type": "Feature", "properties": {}, "geometry": {"type": "Point", "coordinates": [14.504981338977814, 40.76913387129056]}}], "price": 0.795, "ultima_rilevazione": "24/06/2022 08:30:10"}, {"Gestore": "2 G PETROLI S.R.L. SEMPLIFICATA", "Bandiera": "Pompe Bianche", "Tipo impianto": "Altro", "Indirizzo": "VIA G.B. CASCIELLO SNC 84018", "Nome impianto": "Eurogas", "Comune": "SCAFATI", "idImpianto": 46282, "points": [{"type": "Feature", "properties": {}, "geometry": {"type": "Point", "coordinates": [14.519029453570738, 40.76145869786863]}}], "price": 0.795, "ultima_rilevazione": "24/06/2022 18:16:48"}, {"Gestore": "DELTA PETROLI S.R.L.", "Bandiera": "Api-Ip", "Tipo impianto": "Altro", "Indirizzo": "Via Tre Ponti snc 80045", "Nome impianto": "Delta Petroli S.r.l. (Pompei)", "Comune": "POMPEI", "idImpianto": 32071, "points": [{"type": "Feature", "properties": {}, "geometry": {"type": "Point", "coordinates": [14.506644308567047, 40.76120620819259]}}], "price": 0.815, "ultima_rilevazione": "25/06/2022 10:07:17"}, {"Gestore": "POMPEANGAS - S.A.S. DI ALLEGRO CATELLO & C.", "Bandiera": "Pompe Bianche", "Tipo impianto": "Altro", "Indirizzo": "VIA SALICE 157 84012", "Nome impianto": "BREAK ZONE  - POMPEANGAS", "Comune": "ANGRI", "idImpianto": 16158, "points": [{"type": "Feature", "properties": {}, "geometry": {"type": "Point", "coordinates": [14.56152766942978, 40.74097687632511]}}], "price": 0.82, "ultima_rilevazione": "27/06/2022 09:26:53"}, {"Gestore": "ALMA S.R.L.", "Bandiera": "Tamoil", "Tipo impianto": "Autostradale", "Indirizzo": "Autostrada A30 CASERTA-SALERNO, Km. 33+400, dir. Sud 80040", "Nome impianto": "ANGIOINA OVEST", "Comune": "STRIANO", "idImpianto": 3680, "points": [{"type": "Feature", "properties": {}, "geometry": {"type": "Point", "coordinates": [14.568405070114068, 40.82695607098962]}}], "price": 0.949, "ultima_rilevazione": "27/06/2022 10:23:44"}, {"Gestore": "LE SPOSE DI BIANCA DI ANNARUMMA BIANCA", "Bandiera": "Pompe Bianche", "Tipo impianto": "Altro", "Indirizzo": "VIA PALUDICELLA 30A 84012", "Nome impianto": "VISCARDI CARBURANTI METANO GPL", "Comune": "ANGRI", "idImpianto": 42811, "points": [{"type": "Feature", "properties": {}, "geometry": {"type": "Point", "coordinates": [14.548700884665209, 40.72987052231823]}}], "price": 0.8, "ultima_rilevazione": "27/06/2022 11:16:43"}, {"Gestore": "FACOMGAS S.R.L.", "Bandiera": "Pompe Bianche", "Tipo impianto": "Altro", "Indirizzo": "VIA PETRARCA  84014", "Nome impianto": "FACOMGAS S.r.l. (Nocera Inf.)", "Comune": "NOCERA INFERIORE", "idImpianto": 24952, "points": [{"type": "Feature", "properties": {}, "geometry": {"type": "Point", "coordinates": [14.653138518333437, 40.7638074245025]}}], "price": 0.73, "ultima_rilevazione": "27/06/2022 16:01:28"}, {"Gestore": "LONGAS  S.R.L.", "Bandiera": "Pompe Bianche", "Tipo impianto": "Altro", "Indirizzo": "VIA PALMA 1 80040", "Nome impianto": "Longas", "Comune": "POGGIOMARINO", "idImpianto": 41864, "points": [{"type": "Feature", "properties": {}, "geometry": {"type": "Point", "coordinates": [14.55616056919098, 40.81263791225227]}}], "price": 0.755, "ultima_rilevazione": "28/06/2022 08:18:09"}]}, "Gasolio": {"1": [{"Gestore": "BELLACOSA ALFREDO", "Bandiera": "Pompe Bianche", "Tipo impianto": "Altro", "Indirizzo": "VIA PIAVE 106 84010", "Nome impianto": "stazione di servizio bellacosa alfredo", "Comune": "SAN MARZANO SUL SARNO", "idImpianto": 47669, "points": [{"type": "Feature", "properties": {}, "geometry": {"type": "Point", "coordinates": [14.591359582207756, 40.77709121761687]}}], "price": 2.299, "ultima_rilevazione": "27/06/2022 13:02:50"}, {"Gestore": "GAS S.R.L.", "Bandiera": "Pompe Bianche", "Tipo impianto": "Altro", "Indirizzo": "via Cesina 78 84010", "Nome impianto": "MECK OIL ", "Comune": "SAN VALENTINO TORIO", "idImpianto": 35752, "points": [{"type": "Feature", "properties": {}, "geometry": {"type": "Point", "coordinates": [14.60015252883602, 40.788597446740106]}}], "price": 2.039, "ultima_rilevazione": "28/06/2022 11:02:59"}], "3": [{"Gestore": "TORTORA FILIPPO", "Bandiera": "Pompe Bianche", "Tipo impianto": "Altro", "Indirizzo": "VIALE PAPA GIOVANNI XXIII 145 84012", "Nome impianto": "ANGELINA PETROLI", "Comune": "ANGRI", "idImpianto": 32242, "points": [{"type": "Feature", "properties": {}, "geometry": {"type": "Point", "coordinates": [14.56538276580227, 40.74103632577491]}}], "price": 2.089, "ultima_rilevazione": "16/06/2022 20:02:29"}, {"Gestore": "PAKO CARBURANTI S.R.L.", "Bandiera": "Pompe Bianche", "Tipo impianto": "Altro", "Indirizzo": "VIA MARRA 175 80041", "Nome impianto": "PAKO CARBURANTI", "Comune": "BOSCOREALE", "idImpianto": 47980, "points": [{"type": "Feature", "properties": {}, "geometry": {"type": "Point", "coordinates": [14.546382294477445, 40.78290918565107]}}], "price": 2.029, "ultima_rilevazione": "17/06/2022 13:12:06"}, {"Gestore": "MANNA DI MASCOLO LUIGI E ANNARUMMA ALESSANDRO & C. S.N.C.", "Bandiera": "Q8", "Tipo impianto": "Altro", "Indirizzo": "via san domenico 98 84016", "Nome impianto": "ALGISA PETROLI ", "Comune": "PAGANI", "idImpianto": 43054, "points": [{"type": "Feature", "properties": {}, "geometry": {"type": "Point", "coordinates": [14.60260385959782, 40.74152181786024]}}], "price": 2.069, "ultima_rilevazione": "17/06/2022 16:34:13"}, {"Gestore": "ISMAN PETROLEUM S.R.L.", "Bandiera": "Pompe Bianche", "Tipo impianto": "Altro", "Indirizzo": "VIA VETICE 13 84010", "Nome impianto": "ISMAN PETROLEUM", "Comune": "SAN VALENTINO TORIO", "idImpianto": 31815, "points": [{"type": "Feature", "properties": {}, "geometry": {"type": "Point", "coordinates": [14.593898510689542, 40.79242573664654]}}], "price": 2.089, "ultima_rilevazione": "20/06/2022 12:58:31"}, {"Gestore": "F.S. PETROLI S.R.L. A CAPITALE RIDOTTO", "Bandiera": "Agip Eni", "Tipo impianto": "Altro", "Indirizzo": "VIA PADRE VINCENZO SORRENTINO SNC 84016", "Nome impianto": "F.S. PETROLI S.R.L.", "Comune": "PAGANI", "idImpianto": 20971, "points": [{"type": "Feature", "properties": {}, "geometry": {"type": "Point", "coordinates": [14.61111232638359, 40.7535128869219]}}], "price": 2.044, "ultima_rilevazione": "22/06/2022 15:04:15"}, {"Gestore": "LANGELLA CARBURANTI DI LANGELLA DAVIDE", "Bandiera": "Pompe Bianche", "Tipo impianto": "Altro", "Indirizzo": "VIA FILETTINE 118 84016", "Nome impianto": "LANGELLA CARBURANTI", "Comune": "PAGANI", "idImpianto": 49857, "points": [{"type": "Feature", "properties": {}, "geometry": {"type": "Point", "coordinates": [14.608788183872583, 40.755019758641126]}}], "price": 2.029, "ultima_rilevazione": "24/06/2022 15:48:00"}, {"Gestore": "CRISPO PETROL SERVICE S.N.C. DI CRISPO P. & E.", "Bandiera": "Api-Ip", "Tipo impianto": "Altro", "Indirizzo": "VIA SOTTOSANTI 40 84010", "Nome impianto": "IP", "Comune": "SAN VALENTINO TORIO", "idImpianto": 13494, "points": [{"type": "Feature", "properties": {}, "geometry": {"type": "Point", "coordinates": [14.60153775267554, 40.79552600094498]}}], "price": 2.079, "ultima_rilevazione": "25/06/2022 07:53:33"}, {"Gestore": "SERVIZI & GESTIONI ITALIA srl", "Bandiera": "Q8", "Tipo impianto": "Altro", "Indirizzo": "VIA S.P.21 KM 2 SNC 84018", "Nome impianto": "SCAFATI VIA S.P.21 KM 2", "Comune": "SCAFATI", "idImpianto": 6739, "points": [{"type": "Feature", "properties": {}, "geometry": {"type": "Point", "coordinates": [14.54173958283809, 40.77428223475604]}}], "price": 2.029, "ultima_rilevazione": "27/06/2022 00:36:53"}, {"Gestore": "MULTICARBURANTE DI MARESCA ANNA & C. S.N.C.", "Bandiera": "Agip Eni", "Tipo impianto": "Altro", "Indirizzo": "Via Taurano 128 84016", "Nome impianto": "Multicarburante di Maresca Anna & C. s.n.c.", "Comune": "PAGANI", "idImpianto": 5643, "points": [{"type": "Feature", "properties": {}, "geometry": {"type": "Point", "coordinates": [14.592188000679016, 40.75515215542613]}}], "price": 2.064, "ultima_rilevazione": "27/06/2022 08:09:40"}, {"Gestore": "GALASSO GIUSEPPINA", "Bandiera": "Pompe Bianche", "Tipo impianto": "Altro", "Indirizzo": "VIA NUOVA SAN MARZANO 98 80040", "Nome impianto": "GALASSO GIUSEPPINA", "Comune": "POGGIOMARINO", "idImpianto": 22356, "points": [{"type": "Feature", "properties": {}, "geometry": {"type": "Point", "coordinates": [14.545705318450814, 40.79643830714438]}}], "price": 2.079, "ultima_rilevazione": "27/06/2022 10:15:31"}, {"Gestore": "TRAMONTANO S.R.L.", "Bandiera": "Esso", "Tipo impianto": "Altro", "Indirizzo": "VIA SARNO-STRIANO  84087", "Nome impianto": "DISTRIBUTORE ESSO", "Comune": "SARNO", "idImpianto": 13697, "points": [{"type": "Feature", "properties": {}, "geometry": {"type": "Point", "coordinates": [14.592645317316055, 40.80898497152845]}}], "price": 1.999, "ultima_rilevazione": "27/06/2022 17:36:13"}, {"Gestore": "SERVIZI & GESTIONI ITALIA srl", "Bandiera": "Q8", "Tipo impianto": "Altro", "Indirizzo": "SS 18 LC BAGNI SNC 84018", "Nome impianto": "SCAFATI SS 18 LC BAGNI", "Comune": "SCAFATI", "idImpianto": 6735, "points": [{"type": "Feature", "properties": {}, "geometry": {"type": "Point", "coordinates": [14.547430870534868, 40.7488283369454]}}], "price": 2.059, "ultima_rilevazione": "28/06/2022 02:05:04"}, {"Gestore": "IP SERVICES S.R.L.", "Bandiera": "Api-Ip", "Tipo impianto": "Altro", "Indirizzo": "Viale Kennedy 23 84010", "Nome impianto": "S.EGIDIO MONTE ALBINO", "Comune": "SANT'EGIDIO DEL MONTE ALBINO", "idImpianto": 34896, "points": [{"type": "Feature", "properties": {}, "geometry": {"type": "Point", "coordinates": [14.597060343586008, 40.738189638920026]}}], "price": 2.029, "ultima_rilevazione": "28/06/2022 11:04:01"}, {"Gestore": "GRIMALDI S.R.L.", "Bandiera": "Esso", "Tipo impianto": "Altro", "Indirizzo": "Via Nazionale 398 84012", "Nome impianto": "PIC ANGRI", "Comune": "ANGRI", "idImpianto": 43551, "points": [{"type": "Feature", "properties": {}, "geometry": {"type": "Point", "coordinates": [14.581970125436785, 40.7481375560265]}}], "price": 2.059, "ultima_rilevazione": "28/06/2022 14:05:21"}, {"Gestore": "UP S.R.L.S.", "Bandiera": "UP", "Tipo impianto": "Altro", "Indirizzo": "VIA S. VALENTINO SARNO SNC 84087", "Nome impianto": "UP - SARNO", "Comune": "SARNO", "idImpianto": 46770, "points": [{"type": "Feature", "properties": {}, "geometry": {"type": "Point", "coordinates": [14.613734000123, 40.805797000123]}}], "price": 1.999, "ultima_rilevazione": "28/06/2022 14:54:05"}, {"Gestore": "PETROL SERVICE S.A.S. DI CASCONE VINCENZO", "Bandiera": "Q8", "Tipo impianto": "Altro", "Indirizzo": "VIA MANGIONI 1 84016", "Nome impianto": "ENERGAS", "Comune": "PAGANI", "idImpianto": 28298, "points": [{"type": "Feature", "properties": {}, "geometry": {"type": "Point", "coordinates": [14.619114696979524, 40.75153343863095]}}], "price": 2.055, "ultima_rilevazione": "28/06/2022 15:56:58"}, {"Gestore": "ADINOLFI S.R.L.", "Bandiera": "Repsol", "Tipo impianto": "Altro", "Indirizzo": "VIA PROVINCIALE 133 84010", "Nome impianto": "ADINOLFI SRL STAZ. SERVIZIO IP", "Comune": "SAN VALENTINO TORIO", "idImpianto": 29345, "points": [{"type": "Feature", "properties": {}, "geometry": {"type": "Point", "coordinates": [14.62157833997844, 40.78672217336834]}}], "price": 2.049, "ultima_rilevazione": "28/06/2022 16:11:43"}, {"Gestore": "PEGASO CARBURANTI S.R.L.", "Bandiera": "Pompe Bianche", "Tipo impianto": "Altro", "Indirizzo": "Via Taurano 123 84016", "Nome impianto": "Pegaso Carburanti Pagani", "Comune": "PAGANI", "idImpianto": 50920, "points": [{"type": "Feature", "properties": {}, "geometry": {"type": "Point", "coordinates": [14.598368931985153, 40.75241567036497]}}], "price": 1.999, "ultima_rilevazione": "28/06/2022 23:26:19"}, {"Gestore": "VOLO GROUP S.R.L.", "Bandiera": "CONAD", "Tipo impianto": "Altro", "Indirizzo": "VIA ALCIDE DE GASPERI 340 84016", "Nome impianto": "CONAD SUPERMERCATO", "Comune": "PAGANI", "idImpianto": 32396, "points": [{"type": "Feature", "properties": {}, "geometry": {"type": "Point", "coordinates": [14.59837898998262, 40.74986271798383]}}], "price": 1.979, "ultima_rilevazione": "29/06/2022 07:00:06"}], "5": [{"Gestore": "AMENDOLA FERDINANDO", "Bandiera": "Api-Ip", "Tipo impianto": "Altro", "Indirizzo": "via Napoli  84014", "Nome impianto": "totalerg di amendola ferdinando", "Comune": "NOCERA INFERIORE", "idImpianto": 28646, "points": [{"type": "Feature", "properties": {}, "geometry": {"type": "Point", "coordinates": [14.63225819170475, 40.74702307557615]}}], "price": 2.299, "ultima_rilevazione": "27/06/2022 12:54:31"}, {"Gestore": "F.LLI RUSSO S.N.C. DI RUSSO LUIGI E GIOVANNI", "Bandiera": "Pompe Bianche", "Tipo impianto": "Altro", "Indirizzo": "PIAZZA MARCONI 5 84087", "Nome impianto": "IMPIANTO", "Comune": "SARNO", "idImpianto": 18849, "points": [{"type": "Feature", "properties": {}, "geometry": {"type": "Point", "coordinates": [14.619951620376582, 40.81181822198798]}}], "price": 1.988, "ultima_rilevazione": "27/06/2022 11:47:48"}, {"Gestore": "MILANO TERESA", "Bandiera": "Agip Eni", "Tipo impianto": "Altro", "Indirizzo": "VIA CARLO TRAMONTANO 35 84016", "Nome impianto": "ENI", "Comune": "PAGANI", "idImpianto": 47290, "points": [{"type": "Feature", "properties": {}, "geometry": {"type": "Point", "coordinates": [14.617230790921209, 40.73821965415488]}}], "price": 1.949, "ultima_rilevazione": "11/06/2022 08:19:31"}, {"Gestore": "ROCAL S.R.L.", "Bandiera": "Pompe Bianche", "Tipo impianto": "Altro", "Indirizzo": "VIA SALICE 30 84012", "Nome impianto": "FERRI FUEL", "Comune": "ANGRI", "idImpianto": 45470, "points": [{"type": "Feature", "properties": {}, "geometry": {"type": "Point", "coordinates": [14.555597621551556, 40.74340303566079]}}], "price": 1.979, "ultima_rilevazione": "16/06/2022 20:15:18"}, {"Gestore": "MANNA DI MASCOLO LUIGI E ANNARUMMA ALESSANDRO & C. S.N.C.", "Bandiera": "Agip Eni", "Tipo impianto": "Altro", "Indirizzo": "VIA ADRIANA 7 84012", "Nome impianto": "MANNA PETROLI", "Comune": "ANGRI", "idImpianto": 47739, "points": [{"type": "Feature", "properties": {}, "geometry": {"type": "Point", "coordinates": [14.577712763537724, 40.736205840818]}}], "price": 2.069, "ultima_rilevazione": "17/06/2022 16:34:48"}, {"Gestore": "FINELLI ANTONIO S.R.L.", "Bandiera": "Pompe Bianche", "Tipo impianto": "Altro", "Indirizzo": "VIA G.IERVOLINO SNC 80040", "Nome impianto": "finfuel", "Comune": "POGGIOMARINO", "idImpianto": 41100, "points": [{"type": "Feature", "properties": {}, "geometry": {"type": "Point", "coordinates": [14.545948058366776, 40.810310236351945]}}], "price": 1.999, "ultima_rilevazione": "17/06/2022 20:35:59"}, {"Gestore": "CARBURANTI MILONE DI MILONE ULDERICO", "Bandiera": "Api-Ip", "Tipo impianto": "Altro", "Indirizzo": "VIA STRIANO 48 84087", "Nome impianto": "IP", "Comune": "SARNO", "idImpianto": 43075, "points": [{"type": "Feature", "properties": {}, "geometry": {"type": "Point", "coordinates": [14.607442705522544, 40.815288970048826]}}], "price": 2.039, "ultima_rilevazione": "17/06/2022 20:44:44"}, {"Gestore": "MI.SA. CARBURANTI S.R.L.", "Bandiera": "Agip Eni", "Tipo impianto": "Altro", "Indirizzo": "VIA DE GASPERI 47 84018", "Nome impianto": "MISA CARBURANTI SRL", "Comune": "SCAFATI", "idImpianto": 43176, "points": [{"type": "Feature", "properties": {}, "geometry": {"type": "Point", "coordinates": [14.52959227423969, 40.75511612456466]}}], "price": 2.024, "ultima_rilevazione": "22/06/2022 07:29:25"}, {"Gestore": "AFIERO MICHELE", "Bandiera": "Loro", "Tipo impianto": "Altro", "Indirizzo": "VIA MARTIRI D'UNGHERIA 101 84018", "Nome impianto": "AFIERO MICHELE", "Comune": "SCAFATI", "idImpianto": 40883, "points": [{"type": "Feature", "properties": {}, "geometry": {"type": "Point", "coordinates": [14.52107514283989, 40.75196803180263]}}], "price": 2.079, "ultima_rilevazione": "22/06/2022 09:31:06"}, {"Gestore": "ORGANIZZAZIONE SERVIZI AUTO - O.S.A. - S.P.A.", "Bandiera": "Esso", "Tipo impianto": "Altro", "Indirizzo": "VIA PASSANTI 267 84018", "Nome impianto": "ESSO SCAFATI", "Comune": "SCAFATI", "idImpianto": 50249, "points": [{"type": "Feature", "properties": {}, "geometry": {"type": "Point", "coordinates": [14.517707887191804, 40.76596745019975]}}], "price": 2.029, "ultima_rilevazione": "22/06/2022 15:51:45"}, {"Gestore": "DI PALMA GIUSEPPE VINCENZO", "Bandiera": "Tamoil", "Tipo impianto": "Altro", "Indirizzo": "VIA PASSANTI FLOCCO 262 80041", "Nome impianto": "TAMOIL DI DI PALMA GIUSEPPE VINCENZO", "Comune": "BOSCOREALE", "idImpianto": 14102, "points": [{"type": "Feature", "properties": {}, "geometry": {"type": "Point", "coordinates": [14.510054738928602, 40.783947231763015]}}], "price": 2.079, "ultima_rilevazione": "22/06/2022 20:56:20"}, {"Gestore": "SALVO PETROLI S.A.S. DI PANARIELLO TERESA & C.", "Bandiera": "Pompe Bianche", "Tipo impianto": "Altro", "Indirizzo": "VIA PASSANTI FLOCCO snc  80040", "Nome impianto": "AR PETROLI pv2", "Comune": "POGGIOMARINO", "idImpianto": 46538, "points": [{"type": "Feature", "properties": {}, "geometry": {"type": "Point", "coordinates": [14.527478, 40.79289]}}], "price": 2.086, "ultima_rilevazione": "23/06/2022 11:41:04"}, {"Gestore": "PADOVANO LUIGI", "Bandiera": "Esso", "Tipo impianto": "Altro", "Indirizzo": "VIA DEI GOTI 87 84012", "Nome impianto": "PADOVANO LUIGI", "Comune": "ANGRI", "idImpianto": 45211, "points": [{"type": "Feature", "properties": {}, "geometry": {"type": "Point", "coordinates": [14.569725000123, 40.734039000123]}}], "price": 2.049, "ultima_rilevazione": "23/06/2022 17:06:49"}, {"Gestore": "CAVALLARO S.N.C. DI CAVALLARO FRANCESCO E CAVALLARO MASSIMO", "Bandiera": "Pompe Bianche", "Tipo impianto": "Altro", "Indirizzo": "via sant'antonio abate 86 84018", "Nome impianto": "distributore cavallaro", "Comune": "SCAFATI", "idImpianto": 42182, "points": [{"type": "Feature", "properties": {}, "geometry": {"type": "Point", "coordinates": [14.530619451555252, 40.74301494983108]}}], "price": 2.089, "ultima_rilevazione": "24/06/2022 06:44:03"}, {"Gestore": "MERIDIONAL G.P.L. - S.R.L.", "Bandiera": "Pompe Bianche", "Tipo impianto": "Altro", "Indirizzo": "VIA SPINELLI 22 80045", "Nome impianto": "Meridional Gpl srl", "Comune": "POMPEI", "idImpianto": 9615, "points": [{"type": "Feature", "properties": {}, "geometry": {"type": "Point", "coordinates": [14.504981338977814, 40.76913387129056]}}], "price": 2.019, "ultima_rilevazione": "24/06/2022 08:30:10"}, {"Gestore": "PA.SA S.N.C. DI PAGANO V. E SALVATI F.", "Bandiera": "Api-Ip", "Tipo impianto": "Altro", "Indirizzo": "VIA PETRARCA 45 84014", "Nome impianto": "STAZIONE DI RIFORNIMENTO IP PA.SA.", "Comune": "NOCERA INFERIORE", "idImpianto": 28525, "points": [{"type": "Feature", "properties": {}, "geometry": {"type": "Point", "coordinates": [14.65238481760025, 40.76252714468493]}}], "price": 2.069, "ultima_rilevazione": "24/06/2022 09:05:30"}, {"Gestore": "BRUNO BATTIPAGLIA GIUSEPPE", "Bandiera": "Pompe Bianche", "Tipo impianto": "Altro", "Indirizzo": "VIA VECCHIA LAVORATE 108 84087", "Nome impianto": "ACP", "Comune": "SARNO", "idImpianto": 21102, "points": [{"type": "Feature", "properties": {}, "geometry": {"type": "Point", "coordinates": [14.648472145199776, 40.79057266511274]}}], "price": 2.089, "ultima_rilevazione": "24/06/2022 09:37:17"}, {"Gestore": "CARBURANTE DI CASCONE NICOLA", "Bandiera": "Esso", "Tipo impianto": "Altro", "Indirizzo": "VIA DANTE ALIGHIERI 27 84018", "Nome impianto": "CARBURANTE DI CASCONE NICOLA", "Comune": "SCAFATI", "idImpianto": 45066, "points": [{"type": "Feature", "properties": {}, "geometry": {"type": "Point", "coordinates": [14.534445000123, 40.749389000123]}}], "price": 2.059, "ultima_rilevazione": "24/06/2022 11:30:39"}, {"Gestore": "PETROLCHIMICA SUD - S.R.L.", "Bandiera": "Pompe Bianche", "Tipo impianto": "Altro", "Indirizzo": "VIA CAMPIA SNC 84013", "Nome impianto": "ANGRI", "Comune": "ANGRI", "idImpianto": 35638, "points": [{"type": "Feature", "properties": {}, "geometry": {"type": "Point", "coordinates": [14.561990350484848, 40.73931612267616]}}], "price": 2.039, "ultima_rilevazione": "24/06/2022 16:20:28"}, {"Gestore": "PETROLCHIMICA SUD - S.R.L.", "Bandiera": "Pompe Bianche", "Tipo impianto": "Altro", "Indirizzo": "VIA PROVINCIALE G. AMENDOLA SNC 84087", "Nome impianto": "SARNO", "Comune": "SARNO", "idImpianto": 20297, "points": [{"type": "Feature", "properties": {}, "geometry": {"type": "Point", "coordinates": [14.617112054027416, 40.806991418981085]}}], "price": 2.029, "ultima_rilevazione": "24/06/2022 16:21:00"}, {"Gestore": "2 G PETROLI S.R.L. SEMPLIFICATA", "Bandiera": "Pompe Bianche", "Tipo impianto": "Altro", "Indirizzo": "VIA G.B. CASCIELLO SNC 84018", "Nome impianto": "Eurogas", "Comune": "SCAFATI", "idImpianto": 46282, "points": [{"type": "Feature", "properties": {}, "geometry": {"type": "Point", "coordinates": [14.519029453570738, 40.76145869786863]}}], "price": 2.045, "ultima_rilevazione": "24/06/2022 18:16:48"}, {"Gestore": "DELTA PETROLI S.R.L.", "Bandiera": "Api-Ip", "Tipo impianto": "Altro", "Indirizzo": "Via Tre Ponti snc 80045", "Nome impianto": "Delta Petroli S.r.l. (Pompei)", "Comune": "POMPEI", "idImpianto": 32071, "points": [{"type": "Feature", "properties": {}, "geometry": {"type": "Point", "coordinates": [14.506644308567047, 40.76120620819259]}}], "price": 2.023, "ultima_rilevazione": "25/06/2022 10:07:17"}, {"Gestore": "SERVIZI & GESTIONI ITALIA srl", "Bandiera": "Q8", "Tipo impianto": "Altro", "Indirizzo": "VIA S.P.UNGARO SNC 84018", "Nome impianto": "SCAFATI VIA S.P.UNGARO", "Comune": "SCAFATI", "idImpianto": 6738, "points": [{"type": "Feature", "properties": {}, "geometry": {"type": "Point", "coordinates": [14.522836018420094, 40.7591448349824]}}], "price": 2.029, "ultima_rilevazione": "27/06/2022 00:36:53"}, {"Gestore": "SERVIZI & GESTIONI ITALIA srl", "Bandiera": "Q8", "Tipo impianto": "Altro", "Indirizzo": "SS. 18 KM. 36+450 LOC.S.CHIARA SNC PAGANI, SA 84016  ", "Nome impianto": "PAGANI SS. 18 KM. 36+450 LOC.S.CHIARA", "Comune": "PAGANI", "idImpianto": 6737, "points": [{"type": "Feature", "properties": {}, "geometry": {"type": "Point", "coordinates": [14.627369150530283, 40.743004191407564]}}], "price": 2.029, "ultima_rilevazione": "27/06/2022 01:03:31"}, {"Gestore": "VASTOLA F. S.A.S. DI ATTIANESE EMANUELA", "Bandiera": "Pompe Bianche", "Tipo impianto": "Altro", "Indirizzo": "VIA POGGIOMARINO 170 80040", "Nome impianto": "VASTOLA F. S.A.S.", "Comune": "STRIANO", "idImpianto": 16117, "points": [{"type": "Feature", "properties": {}, "geometry": {"type": "Point", "coordinates": [14.556227624416351, 40.809959839525874]}}], "price": 2.047, "ultima_rilevazione": "27/06/2022 09:24:48"}, {"Gestore": "POMPEANGAS - S.A.S. DI ALLEGRO CATELLO & C.", "Bandiera": "Pompe Bianche", "Tipo impianto": "Altro", "Indirizzo": "VIA SALICE 157 84012", "Nome impianto": "BREAK ZONE  - POMPEANGAS", "Comune": "ANGRI", "idImpianto": 16158, "points": [{"type": "Feature", "properties": {}, "geometry": {"type": "Point", "coordinates": [14.56152766942978, 40.74097687632511]}}], "price": 2.04, "ultima_rilevazione": "27/06/2022 09:26:53"}, {"Gestore": "DE.N. S.A.S. DI PINTO CLAUDIA", "Bandiera": "Repsol", "Tipo impianto": "Altro", "Indirizzo": "VIA S.ANNA 96 84014", "Nome impianto": "Repsol", "Comune": "NOCERA INFERIORE", "idImpianto": 44579, "points": [{"type": "Feature", "properties": {}, "geometry": {"type": "Point", "coordinates": [14.639450542602615, 40.75367832539927]}}], "price": 2.059, "ultima_rilevazione": "27/06/2022 10:01:37"}, {"Gestore": "ALMA S.R.L.", "Bandiera": "Tamoil", "Tipo impianto": "Autostradale", "Indirizzo": "Autostrada A30 CASERTA-SALERNO, Km. 33+400, dir. Sud 80040", "Nome impianto": "ANGIOINA OVEST", "Comune": "STRIANO", "idImpianto": 3680, "points": [{"type": "Feature", "properties": {}, "geometry": {"type": "Point", "coordinates": [14.568405070114068, 40.82695607098962]}}], "price": 2.059, "ultima_rilevazione": "27/06/2022 10:23:44"}, {"Gestore": "LE SPOSE DI BIANCA DI ANNARUMMA BIANCA", "Bandiera": "Pompe Bianche", "Tipo impianto": "Altro", "Indirizzo": "VIA PALUDICELLA 30A 84012", "Nome impianto": "VISCARDI CARBURANTI METANO GPL", "Comune": "ANGRI", "idImpianto": 42811, "points": [{"type": "Feature", "properties": {}, "geometry": {"type": "Point", "coordinates": [14.548700884665209, 40.72987052231823]}}], "price": 2.072, "ultima_rilevazione": "27/06/2022 11:16:43"}, {"Gestore": "CORPORATION FUELS S.R.L.", "Bandiera": "Q8", "Tipo impianto": "Altro", "Indirizzo": "via olivella  6 84016", "Nome impianto": "Q8 ", "Comune": "PAGANI", "idImpianto": 18901, "points": [{"type": "Feature", "properties": {}, "geometry": {"type": "Point", "coordinates": [14.62159879929493, 40.74704017765911]}}], "price": 2.099, "ultima_rilevazione": "27/06/2022 12:00:22"}, {"Gestore": "FACOMGAS S.R.L.", "Bandiera": "Pompe Bianche", "Tipo impianto": "Altro", "Indirizzo": "VIA PETRARCA  84014", "Nome impianto": "FACOMGAS S.r.l. (Nocera Inf.)", "Comune": "NOCERA INFERIORE", "idImpianto": 24952, "points": [{"type": "Feature", "properties": {}, "geometry": {"type": "Point", "coordinates": [14.653138518333437, 40.7638074245025]}}], "price": 2.049, "ultima_rilevazione": "27/06/2022 16:01:28"}, {"Gestore": "SANTONICOLA ALFONSO", "Bandiera": "Repsol", "Tipo impianto": "Altro", "Indirizzo": "VIA FIANO 102 84014", "Nome impianto": "stazione di servizio Alfonso Santonicola", "Comune": "NOCERA INFERIORE", "idImpianto": 21864, "points": [{"type": "Feature", "properties": {}, "geometry": {"type": "Point", "coordinates": [14.646015912294388, 40.77310100446204]}}], "price": 1.999, "ultima_rilevazione": "28/06/2022 06:32:34"}, {"Gestore": "COCCURULLO COSIMO", "Bandiera": "Pompe Bianche", "Tipo impianto": "Altro", "Indirizzo": "VIA E.CHIUNZI 2 84010", "Nome impianto": "Coccurullo Cosimo", "Comune": "CORBARA", "idImpianto": 50799, "points": [{"type": "Feature", "properties": {}, "geometry": {"type": "Point", "coordinates": [14.597206204893496, 40.72227233103176]}}], "price": 2.089, "ultima_rilevazione": "28/06/2022 07:55:47"}, {"Gestore": "LONGAS  S.R.L.", "Bandiera": "Pompe Bianche", "Tipo impianto": "Altro", "Indirizzo": "VIA PALMA 1 80040", "Nome impianto": "Longas", "Comune": "POGGIOMARINO", "idImpianto": 41864, "points": [{"type": "Feature", "properties": {}, "geometry": {"type": "Point", "coordinates": [14.55616056919098, 40.81263791225227]}}], "price": 1.995, "ultima_rilevazione": "28/06/2022 08:18:09"}, {"Gestore": "ALIBERTI VITTORIO", "Bandiera": "Tamoil", "Tipo impianto": "Altro", "Indirizzo": "VIA LEPANTO 287 80045", "Nome impianto": "TAMOIL DI ALIBERTI VITTORIO", "Comune": "POMPEI", "idImpianto": 29276, "points": [{"type": "Feature", "properties": {}, "geometry": {"type": "Point", "coordinates": [14.511073976755142, 40.74999486560387]}}], "price": 2.038, "ultima_rilevazione": "29/06/2022 07:54:07"}, {"Gestore": "UP S.R.L.S.", "Bandiera": "UP", "Tipo impianto": "Altro", "Indirizzo": "Via N.B.Grimaldi  76 84014", "Nome impianto": "UP - NOCERA INF. VIA N.B.GRIMALDI ", "Comune": "NOCERA INFERIORE", "idImpianto": 46429, "points": [{"type": "Feature", "properties": {}, "geometry": {"type": "Point", "coordinates": [14.62999885690699, 40.74495935271893]}}], "price": 1.989, "ultima_rilevazione": "28/06/2022 14:52:04"}, {"Gestore": "UP S.R.L.S.", "Bandiera": "UP", "Tipo impianto": "Altro", "Indirizzo": "VIA PIANO DEL PRINCIPE SNC 84040", "Nome impianto": "UP - POGGIOMARINO", "Comune": "POGGIOMARINO", "idImpianto": 46677, "points": [{"type": "Feature", "properties": {}, "geometry": {"type": "Point", "coordinates": [14.52587693044461, 40.80285799456114]}}], "price": 1.969, "ultima_rilevazione": "28/06/2022 14:53:42"}, {"Gestore": "F.A.S. PETROLI S.A.S. DI SALVATORE FRANCO", "Bandiera": "Tamoil", "Tipo impianto": "Altro", "Indirizzo": "Via papa giovanni23 18 84012", "Nome impianto": "Distributore tamoil", "Comune": "ANGRI", "idImpianto": 42932, "points": [{"type": "Feature", "properties": {}, "geometry": {"type": "Point", "coordinates": [14.566300069940551, 40.73623133987071]}}], "price": 2.019, "ultima_rilevazione": "29/06/2022 06:28:03"}, {"Gestore": "GRIMALDI GERARDO", "Bandiera": "Api-Ip", "Tipo impianto": "Altro", "Indirizzo": "VIALE DEGLI ARANCI 50 84010", "Nome impianto": "TOTALERG", "Comune": "SANT'EGIDIO DEL MONTE ALBINO", "idImpianto": 43142, "points": [{"type": "Feature", "properties": {}, "geometry": {"type": "Point", "coordinates": [14.586150813491829, 40.73649125888497]}}], "price": 2.059, "ultima_rilevazione": "28/06/2022 16:36:16"}, {"Gestore": "TOP GOMME DI ALFANO FRANCESCO", "Bandiera": "Pompe Bianche", "Tipo impianto": "Altro", "Indirizzo": "via murelle 57 84012", "Nome impianto": "staroil", "Comune": "ANGRI", "idImpianto": 32268, "points": [{"type": "Feature", "properties": {}, "geometry": {"type": "Point", "coordinates": [14.572852095530491, 40.736616335057086]}}], "price": 2.029, "ultima_rilevazione": "28/06/2022 19:02:59"}, {"Gestore": "DE SANTIS ANTONIO", "Bandiera": "Api-Ip", "Tipo impianto": "Altro", "Indirizzo": "VIA D'ANNA 16 80040", "Nome impianto": "I P", "Comune": "STRIANO", "idImpianto": 12833, "points": [{"type": "Feature", "properties": {}, "geometry": {"type": "Point", "coordinates": [14.5727459530641, 40.81404560002596]}}], "price": 1.999, "ultima_rilevazione": "28/06/2022 21:28:23"}, {"Gestore": "DV OIL SRL", "Bandiera": "DV OIL", "Tipo impianto": "Altro", "Indirizzo": "VIA ATZORI 271 84014", "Nome impianto": "DV OIL SRL", "Comune": "NOCERA INFERIORE", "idImpianto": 34416, "points": [{"type": "Feature", "properties": {}, "geometry": {"type": "Point", "coordinates": [14.635324149668122, 40.74057521976917]}}], "price": 2.019, "ultima_rilevazione": "29/06/2022 00:43:35"}, {"Gestore": "LA SUPREMA  - S.R.L.", "Bandiera": "Pompe Bianche", "Tipo impianto": "Altro", "Indirizzo": "VIA DEI GOTI 298 84012", "Nome impianto": "la suprema srl", "Comune": "ANGRI", "idImpianto": 42745, "points": [{"type": "Feature", "properties": {}, "geometry": {"type": "Point", "coordinates": [14.55362076686481, 40.72930309774013]}}], "price": 2.02, "ultima_rilevazione": "29/06/2022 06:31:52"}, {"Gestore": "S.A.R.A. S.A.S. DI SALVATORE MANZO & C.", "Bandiera": "Esso", "Tipo impianto": "Altro", "Indirizzo": "VIA NAZIONALE 27 84016", "Nome impianto": "s.a.r.a. esso", "Comune": "PAGANI", "idImpianto": 50444, "points": [{"type": "Feature", "properties": {}, "geometry": {"type": "Point", "coordinates": [14.625697267327084, 40.74334472636938]}}], "price": 2.029, "ultima_rilevazione": "29/06/2022 07:38:46"}]}, "Metano": {"1": [], "3": [{"Gestore": "MULTICARBURANTE DI MARESCA ANNA & C. S.N.C.", "Bandiera": "Agip Eni", "Tipo impianto": "Altro", "Indirizzo": "Via Taurano 128 84016", "Nome impianto": "Multicarburante di Maresca Anna & C. s.n.c.", "Comune": "PAGANI", "idImpianto": 5643, "points": [{"type": "Feature", "properties": {}, "geometry": {"type": "Point", "coordinates": [14.592188000679016, 40.75515215542613]}}], "price": 1.644, "ultima_rilevazione": "27/06/2022 08:09:40"}, {"Gestore": "LE SPOSE DI BIANCA DI ANNARUMMA BIANCA", "Bandiera": "Pompe Bianche", "Tipo impianto": "Altro", "Indirizzo": "VIA ORTALONGA 87 84018", "Nome impianto": "ANNARUMMA BIANCA", "Comune": "SCAFATI", "idImpianto": 34239, "points": [{"type": "Feature", "properties": {}, "geometry": {"type": "Point", "coordinates": [14.549692429938432, 40.762234569257394]}}], "price": 1.657, "ultima_rilevazione": "27/06/2022 11:16:33"}], "5": [{"Gestore": "SALVO PETROLI S.A.S. DI PANARIELLO TERESA & C.", "Bandiera": "Pompe Bianche", "Tipo impianto": "Altro", "Indirizzo": "VIA PASSANTI FLOCCO snc  80040", "Nome impianto": "AR PETROLI pv2", "Comune": "POGGIOMARINO", "idImpianto": 46538, "points": [{"type": "Feature", "properties": {}, "geometry": {"type": "Point", "coordinates": [14.527478, 40.79289]}}], "price": 1.39, "ultima_rilevazione": "23/06/2022 11:41:04"}, {"Gestore": "2 G PETROLI S.R.L. SEMPLIFICATA", "Bandiera": "Pompe Bianche", "Tipo impianto": "Altro", "Indirizzo": "VIA G.B. CASCIELLO SNC 84018", "Nome impianto": "Eurogas", "Comune": "SCAFATI", "idImpianto": 46282, "points": [{"type": "Feature", "properties": {}, "geometry": {"type": "Point", "coordinates": [14.519029453570738, 40.76145869786863]}}], "price": 1.649, "ultima_rilevazione": "24/06/2022 18:16:48"}, {"Gestore": "LE SPOSE DI BIANCA DI ANNARUMMA BIANCA", "Bandiera": "Pompe Bianche", "Tipo impianto": "Altro", "Indirizzo": "VIA PALUDICELLA 30A 84012", "Nome impianto": "VISCARDI CARBURANTI METANO GPL", "Comune": "ANGRI", "idImpianto": 42811, "points": [{"type": "Feature", "properties": {}, "geometry": {"type": "Point", "coordinates": [14.548700884665209, 40.72987052231823]}}], "price": 1.657, "ultima_rilevazione": "27/06/2022 11:16:43"}, {"Gestore": "FACOMGAS S.R.L.", "Bandiera": "Pompe Bianche", "Tipo impianto": "Altro", "Indirizzo": "VIA PETRARCA  84014", "Nome impianto": "FACOMGAS S.r.l. (Nocera Inf.)", "Comune": "NOCERA INFERIORE", "idImpianto": 24952, "points": [{"type": "Feature", "properties": {}, "geometry": {"type": "Point", "coordinates": [14.653138518333437, 40.7638074245025]}}], "price": 1.395, "ultima_rilevazione": "27/06/2022 16:01:28"}]}}