{"area_comune": "[{\"type\": \"Feature\", \"properties\": {}, \"geometry\": {\"type\": \"Polygon\", \"coordinates\": [[[18.17258736195215, 40.330534385037325], [18.17411404229061, 40.3244445683695], [18.17479025759201, 40.32060082558177], [18.17413485350793, 40.31734911593829], [18.172937509966392, 40.31287978631037], [18.172284845380116, 40.307795967514664], [18.174926316721024, 40.30413221639628], [18.175868843708123, 40.30092801621153], [18.175980346293745, 40.29946483421655], [18.173868124894227, 40.29551600730351], [18.170307845171912, 40.290352276741345], [18.169321471894122, 40.290631175227354], [18.166310500456714, 40.29067852467127], [18.16253859535106, 40.28794098110433], [18.160182710296677, 40.285879182223624], [18.15851209117025, 40.28464597056522], [18.157033600317707, 40.28363790141059], [18.156062811034662, 40.28336250097899], [18.152004334694013, 40.28474728603985], [18.148878066194843, 40.28634079757502], [18.147727002773895, 40.28717883744675], [18.146195903838343, 40.28882712823121], [18.146319029630668, 40.28947364544695], [18.14674137208115, 40.29001089135769], [18.147627898651194, 40.290594285218084], [18.150011967579577, 40.295000729715255], [18.149876652042764, 40.29668158125597], [18.148436127601308, 40.29957916539409], [18.146022459787236, 40.30188451183773], [18.146075990612157, 40.30249387285939], [18.149766982219532, 40.30797841427753], [18.15509641433188, 40.310720191126784], [18.157507501080747, 40.3150771073724], [18.158662816037285, 40.32040862234147], [18.161399854488902, 40.324566342189684], [18.162659716331415, 40.325578318740725], [18.162459115948142, 40.3272082150375], [18.1730479271621, 40.33304646289878], [18.17258736195215, 40.330534385037325]]]}}]", "comune": "san-cesario-di-lecce", "buffer_1": "[{\"type\": \"Feature\", \"properties\": {}, \"geometry\": {\"type\": \"Polygon\", \"coordinates\": [[[18.16312220188883, 40.3357781552439], [18.163832332675042, 40.3364568069743], [18.16462524221781, 40.33707947319492], [18.165493435088607, 40.33764026652732], [18.16642870342297, 40.33813388455602], [18.167422204554622, 40.33855566000779], [18.168464544679374, 40.33890160492076], [18.169545867754827, 40.33916844838394], [18.17065594879173, 40.339353667488886], [18.171784290650198, 40.339455511199425], [18.17292022342051, 40.33947301691323], [18.174053005442964, 40.339406019558076], [18.17517192500596, 40.33925515313724], [18.17626640175466, 40.339021844709514], [18.17732608684584, 40.33870830086226], [18.17834096089676, 40.33831748680646], [18.179301428797363, 40.33785309829319], [18.180198410485644, 40.3373195266193], [18.18102342682527, 40.33672181705507], [18.18176867977171, 40.33606562108927], [18.18242712606864, 40.33535714294571], [18.182992543778347, 40.33460308087892], [18.183459591019197, 40.33381056380623], [18.18382385635759, 40.33298708387723], [18.18408190038209, 40.33214042561965], [18.184231288071363, 40.33127859233284], [18.187618765120735, 40.300209278839894], [18.187658628349322, 40.299373732942094], [18.187596394685798, 40.29853898871668], [18.18743261195431, 40.297712343537704], [18.18716871554985, 40.29690102371932], [18.1868070157674, 40.29611212136699], [18.18635067749495, 40.29535253240993], [18.185803692451668, 40.294628896355086], [18.18517084421714, 40.2939475382879], [18.184457666359982, 40.293314413625374], [18.16454047115164, 40.277213589636794], [18.16373259241298, 40.27662003051717], [18.162854219948084, 40.27608845425933], [18.161913427833827, 40.27562374664529], [18.16091886331323, 40.27523017885792], [18.159879667376046, 40.27491136825841], [18.1588053908229, 40.27467024516664], [18.157705906580833, 40.27450902594845], [18.156591319071875, 40.27442919265616], [18.155471871462805, 40.27443147940907], [18.154357851643425, 40.27451586563866], [18.15325949779216, 40.274681576260974], [18.152186904391733, 40.27492708877523], [18.15114992955368, 40.27525014722423], [18.150158104498967, 40.27564778288981], [18.149220546022725, 40.276116341534525], [18.139353929739798, 40.2815803191793], [18.138497714573564, 40.282102910804376], [18.13770915989826, 40.282684619215], [18.136995198958765, 40.28332033161731], [18.13636210989745, 40.28400446032954], [18.13581546051885, 40.28473099185894], [18.135360059275715, 40.285493539727426], [18.1349999129098, 40.28628540058288], [18.13473819112257, 40.28709961310427], [18.134577198590133, 40.287929019183714], [18.1345183545725, 40.28876632684829], [18.134396048499262, 40.302433317947994], [18.13445257909388, 40.303375345489286], [18.13463836801285, 40.304307577176154], [18.134951354319192, 40.30521964561724], [18.13538806206383, 40.30610140727505], [18.135943638742624, 40.30694305532838], [18.136611909095993, 40.30773522880326], [18.16312220188883, 40.3357781552439]]]}}]", "buffer_3": "[{\"type\": \"Feature\", \"properties\": {}, \"geometry\": {\"type\": \"Polygon\", \"coordinates\": [[[18.1441872107911, 40.34626382402571], [18.146317529431684, 40.34830014268527], [18.14869636339603, 40.35016849415801], [18.151301222450797, 40.35185120298783], [18.15410747244056, 40.35333234950963], [18.15708856858732, 40.35459792085671], [18.16021630711451, 40.355635943886064], [18.16346109279021, 40.35643659874756], [18.166792219824853, 40.356992312008316], [18.170178163424705, 40.357297828440714], [18.173586879195756, 40.35735026078756], [18.17698610751407, 40.35714911703078], [18.18034367992995, 40.35669630490662], [18.18362782465366, 40.35599611362971], [18.186807468181602, 40.35505517300808], [18.189852530162362, 40.353882390348396], [18.19273420867198, 40.35248886576416], [18.195425253166313, 40.35088778670602], [18.19790022250388, 40.34909430273207], [18.200135725583618, 40.347125381723544], [18.202110642317283, 40.344999648927214], [18.203806322852877, 40.34273721036747], [18.205206763181604, 40.340359462317586], [18.206298755494647, 40.3378888886488], [18.20707201190315, 40.33534884798864], [18.207519260395014, 40.33276335271151], [18.210895721670926, 40.30169451768822], [18.211014428592613, 40.299187950815046], [18.210826871612202, 40.29668385143447], [18.210334724062974, 40.29420410700704], [18.209542320005777, 40.2917703897974], [18.208456615245165, 40.289403967661926], [18.207087125540795, 40.287125518441954], [18.20544584258811, 40.28495494957322], [18.20354712853163, 40.28291122447535], [18.201407589955362, 40.28101219722382], [18.181491078480185, 40.26491439079211], [18.179067607169358, 40.2631340537392], [18.176432821438222, 40.26153963766448], [18.173610931336015, 40.26014578845575], [18.170627860749043, 40.25896530963743], [18.167511009797234, 40.25800904506958], [18.16428900386428, 40.25728577958963], [18.160991431534143, 40.25680215849772], [18.157648573802568, 40.256562626616834], [18.15429112700777, 40.25656938748239], [18.150949921979052, 40.25682238303458], [18.147655641935643, 40.25731929400178], [18.144438541679893, 40.258055560977255], [18.141328170619577, 40.25902442600418], [18.138353102122597, 40.260216994299086], [18.135540671654827, 40.26162231556076], [18.125674638026986, 40.26708499460085], [18.123106067380238, 40.268652419648525], [18.120740312277892, 40.27039720443522], [18.118598175625817, 40.272304022513715], [18.1166985007281, 40.274356122027896], [18.115058005271763, 40.27653547255154], [18.113691133786844, 40.27882292321254], [18.11260992989856, 40.281198370726585], [18.11182392952086, 40.28364093587457], [18.111340075962573, 40.28612914688163], [18.11116265772935, 40.28864112809224], [18.1110355657585, 40.30230861043887], [18.111204186630168, 40.30513483414111], [18.11176065194571, 40.307931744235006], [18.11269881890271, 40.31066822902162], [18.114008294818014, 40.31331384550225], [18.115674550935662, 40.315839158513725], [18.117679082545724, 40.31821606877286], [18.1441872107911, 40.34626382402571]]]}}]", "buffer_5": "[{\"type\": \"Feature\", \"properties\": {}, \"geometry\": {\"type\": \"Polygon\", \"coordinates\": [[[18.12524598995469, 40.35674699428093], [18.12879639700145, 40.36014146461912], [18.132761294926045, 40.36325597202184], [18.137103193503602, 40.36606103516328], [18.1417810182546, 40.36853010053153], [18.14675049993486, 40.37063979489347], [18.151964594961406, 40.37237014753737], [18.157373932725797, 40.373704780142724], [18.162927285467184, 40.37463106244056], [18.168572056142413, 40.37514023216068], [18.174254779543258, 40.37522747811027], [18.17992163177425, 40.37489198558899], [18.185518943119227, 40.37413694371327], [18.190993709292933, 40.37296951459485], [18.196294096095258, 40.37140076469056], [18.201369932559714, 40.36944555900843], [18.206173187813604, 40.36712241921515], [18.21065842704317, 40.364453347038975], [18.2147832421797, 40.36146361469515], [18.21850865318995, 40.35818152437568], [18.221799476162236, 40.35463813913907], [18.224624654723485, 40.35086698780338], [18.226957551699524, 40.346903746688824], [18.22877619833444, 40.342785901268314], [18.230063498811326, 40.33855239096626], [18.230807388260796, 40.33424324049611], [18.234172832186072, 40.3031748890281], [18.23436920575198, 40.2989973962961], [18.23405518446407, 40.29482412016488], [18.23323360695329, 40.290691531925184], [18.23191174306232, 40.28663574085149], [18.230101227257517, 40.28269217924094], [18.22781795420764, 40.27889529356396], [18.225081937535816, 40.275278244394364], [18.22191713305854, 40.27187261770413], [18.21835122811856, 40.26870815000497], [18.198435405212926, 40.25261335987462], [18.19439656199114, 40.24964669832973], [18.19000580566527, 40.24698985897813], [18.185303465977924, 40.24466723257479], [18.18033271966162, 40.242700141662326], [18.17513919552508, 40.24110664567711], [18.169770557564245, 40.239901375849364], [18.16427606983515, 40.23909540138159], [18.158706146976442, 40.23869612811028], [18.153111894388232, 40.23870723056747], [18.14754464216079, 40.23912861806118], [18.1420554769003, 40.2399564350918], [18.1366947756197, 40.24118309611609], [18.13151174584997, 40.242797354363766], [18.12655397608096, 40.244784404107826], [18.12186700056106, 40.24712601548942], [18.11200155069052, 40.25258739673848], [18.107720725022777, 40.25519918910119], [18.10377764899919, 40.258106596570215], [18.100206999341033, 40.26128409492949], [18.09704019625958, 40.264703783048674], [18.094305126255723, 40.2683356269623], [18.092025895397615, 40.27214772282371], [18.090222615298753, 40.27610657646019], [18.088911223750387, 40.28017739710425], [18.08810334167372, 40.28432440274533], [18.087806167751616, 40.28851113443536], [18.087674289615432, 40.30217910576714], [18.08795370589418, 40.30688971296689], [18.088879644937037, 40.31155158747558], [18.09044193549489, 40.31611286063981], [18.09262331514525, 40.32052277352648], [18.095399617355785, 40.32473224305804], [18.09874003620251, 40.32869440983591], [18.12524598995469, 40.35674699428093]]]}}]", "centroid": "[{\"type\": \"Feature\", \"properties\": {}, \"geometry\": {\"type\": \"Point\", \"coordinates\": [18.162561103177964, 40.30615229818177]}}]", "Diesel High Quality": {"1": [{"Gestore": "CALABRESE S.R.L.", "Bandiera": "Q8", "Tipo impianto": "Altro", "Indirizzo": "VIA LEUCA KM.3 73020", "Nome impianto": "Stazione di Servizio Q8 CALABRESE S.R.L.", "Comune": "CAVALLINO", "idImpianto": 47751, "points": [{"type": "Feature", "properties": {}, "geometry": {"type": "Point", "coordinates": [18.18324282765388, 40.32379399135902]}}], "price": 2.299, "ultima_rilevazione": "18/06/2022 18:42:50"}], "3": [{"Gestore": "EST SERVICE - SOCIETA' A RESPONSABILITA' LIMITATA", "Bandiera": "Q8", "Tipo impianto": "Altro", "Indirizzo": "Tangenziale est dir.Lecce Maglie Km 12,9  73100", "Nome impianto": " Est service srl", "Comune": "LECCE", "idImpianto": 15192, "points": [{"type": "Feature", "properties": {}, "geometry": {"type": "Point", "coordinates": [18.19317162036896, 40.32880404070503]}}], "price": 2.109, "ultima_rilevazione": "15/06/2022 20:29:48"}, {"Gestore": "IP SERVICES S.R.L.", "Bandiera": "Api-Ip", "Tipo impianto": "Altro", "Indirizzo": "SS694 Tangenziale Ovest direzione Gallipoli snc 73100", "Nome impianto": "Lecce Tangenziale Ovest Dir Gallipoli", "Comune": "LECCE", "idImpianto": 39755, "points": [{"type": "Feature", "properties": {}, "geometry": {"type": "Point", "coordinates": [18.13706919550896, 40.33114280064503]}}], "price": 1.99, "ultima_rilevazione": "18/06/2022 12:04:01"}, {"Gestore": "IP SERVICES S.R.L.", "Bandiera": "Api-Ip", "Tipo impianto": "Altro", "Indirizzo": "Lecce Tangenziale Est   73100", "Nome impianto": "Lecce Tangenziale Est ", "Comune": "LECCE", "idImpianto": 36442, "points": [{"type": "Feature", "properties": {}, "geometry": {"type": "Point", "coordinates": [18.19351226091385, 40.328252770225255]}}], "price": 2.009, "ultima_rilevazione": "18/06/2022 12:04:24"}], "5": [{"Gestore": "VEGA CARBURANTI S.P.A.", "Bandiera": "Enercoop", "Tipo impianto": "Altro", "Indirizzo": " S.S.16 KM.964+740 DIREZ. NORD SNC 73020", "Nome impianto": "Enercoop Lecce Cavallino", "Comune": "CAVALLINO", "idImpianto": 48705, "points": [{"type": "Feature", "properties": {}, "geometry": {"type": "Point", "coordinates": [18.202272504299145, 40.28053443914162]}}], "price": 2.069, "ultima_rilevazione": "16/06/2022 08:18:49"}, {"Gestore": "A.R. SERVICE SNC DI ROBERTO LANDOLFO E ANTONIO MARIANO", "Bandiera": "Esso", "Tipo impianto": "Strada Statale", "Indirizzo": "613 Brindisi-Lecce, Km. 1+900, Brindisi 73100", "Nome impianto": "ESSO", "Comune": "LECCE", "idImpianto": 49968, "points": [{"type": "Feature", "properties": {}, "geometry": {"type": "Point", "coordinates": [18.163535631591404, 40.36586078961672]}}], "price": 2.189, "ultima_rilevazione": "17/06/2022 14:56:19"}, {"Gestore": "EASY SERVICE S.R.L.", "Bandiera": "Energas", "Tipo impianto": "Altro", "Indirizzo": "via Taranto S.N.C. 73100", "Nome impianto": "Easy Service, Lecce, Via Taranto", "Comune": "LECCE", "idImpianto": 43079, "points": [{"type": "Feature", "properties": {}, "geometry": {"type": "Point", "coordinates": [18.16288948059082, 40.3585794493788]}}], "price": 2.309, "ultima_rilevazione": "17/06/2022 18:56:45"}, {"Gestore": "AGAPE SERVICE S.R.L.", "Bandiera": "Api-Ip", "Tipo impianto": "Altro", "Indirizzo": "Viale della Cavalleria  73100", "Nome impianto": "Agape Service Srl", "Comune": "LECCE", "idImpianto": 17678, "points": [{"type": "Feature", "properties": {}, "geometry": {"type": "Point", "coordinates": [18.20438159911837, 40.351786166913065]}}], "price": 2.114, "ultima_rilevazione": "18/06/2022 08:32:48"}, {"Gestore": "AGAPE SERVICE S.R.L.", "Bandiera": "Api-Ip", "Tipo impianto": "Altro", "Indirizzo": "Viale della Cavalleria  73100", "Nome impianto": "Agape Service Srl", "Comune": "LECCE", "idImpianto": 17678, "points": [{"type": "Feature", "properties": {}, "geometry": {"type": "Point", "coordinates": [18.20438159911837, 40.351786166913065]}}], "price": 2.099, "ultima_rilevazione": "18/06/2022 08:32:48"}, {"Gestore": "MINGIANO MAURIZIO", "Bandiera": "Q8", "Tipo impianto": "Altro", "Indirizzo": "VIA MARTANO 149 73023", "Nome impianto": "STAZIONE DI SERVIZIO Q8 DI MINGIANO MAURIZIO", "Comune": "LIZZANELLO", "idImpianto": 40467, "points": [{"type": "Feature", "properties": {}, "geometry": {"type": "Point", "coordinates": [18.215694257211226, 40.30685595147308]}}], "price": 2.039, "ultima_rilevazione": "18/06/2022 11:18:50"}]}, "Blue Diesel": {"1": [{"Gestore": "ARSENI SERGIO", "Bandiera": "Agip Eni", "Tipo impianto": "Strada Statale", "Indirizzo": "Statale 16 Adriatica, Km. 958,450, dir. MAGLIE 73020", "Nome impianto": "EniCaf\u00e8 Arseni Sergio", "Comune": "CAVALLINO", "idImpianto": 17435, "points": [{"type": "Feature", "properties": {}, "geometry": {"type": "Point", "coordinates": [18.181904458847043, 40.32838949125756]}}], "price": 2.104, "ultima_rilevazione": "16/06/2022 05:27:24"}], "3": [{"Gestore": "DE VITIS DAVIDE", "Bandiera": "Agip Eni", "Tipo impianto": "Altro", "Indirizzo": "Viale G. Rossini snc 73100", "Nome impianto": "De Vitis Davide", "Comune": "LECCE", "idImpianto": 22255, "points": [{"type": "Feature", "properties": {}, "geometry": {"type": "Point", "coordinates": [18.185680881142616, 40.34918704906743]}}], "price": 1.919, "ultima_rilevazione": "16/06/2022 09:51:36"}, {"Gestore": "DE VITIS DAVIDE", "Bandiera": "Agip Eni", "Tipo impianto": "Altro", "Indirizzo": "Viale G. Rossini snc 73100", "Nome impianto": "De Vitis Davide", "Comune": "LECCE", "idImpianto": 22255, "points": [{"type": "Feature", "properties": {}, "geometry": {"type": "Point", "coordinates": [18.185680881142616, 40.34918704906743]}}], "price": 1.859, "ultima_rilevazione": "16/06/2022 09:51:36"}, {"Gestore": "INGROSSO S. S.N.C. DI INGROSSO SARA E LICCARDI ROBERTO", "Bandiera": "Agip Eni", "Tipo impianto": "Altro", "Indirizzo": "VIALE JAPIGIA", "Nome impianto": "ENI", "Comune": "LECCE", "idImpianto": 23415, "points": [{"type": "Feature", "properties": {}, "geometry": {"type": "Point", "coordinates": [18.186120092868805, 40.35291444600647]}}], "price": 2.109, "ultima_rilevazione": "16/06/2022 05:40:23"}], "5": [{"Gestore": "INGROSSO S. S.N.C. DI INGROSSO SARA E LICCARDI ROBERTO", "Bandiera": "Agip Eni", "Tipo impianto": "Altro", "Indirizzo": "viale dello stadio  73100", "Nome impianto": "stazione eni", "Comune": "LECCE", "idImpianto": 43405, "points": [{"type": "Feature", "properties": {}, "geometry": {"type": "Point", "coordinates": [18.18668636441805, 40.36039113141885]}}], "price": 2.109, "ultima_rilevazione": "16/06/2022 05:41:38"}, {"Gestore": "MANNI ANTONIO", "Bandiera": "Agip Eni", "Tipo impianto": "Altro", "Indirizzo": "VIA LUPIAE  73100", "Nome impianto": "ENI ", "Comune": "LECCE", "idImpianto": 42187, "points": [{"type": "Feature", "properties": {}, "geometry": {"type": "Point", "coordinates": [18.1926029920578, 40.35837874201901]}}], "price": 2.029, "ultima_rilevazione": "16/06/2022 06:37:10"}, {"Gestore": "SPINETTA RAFFAELE", "Bandiera": "Agip Eni", "Tipo impianto": "Altro", "Indirizzo": "Viale della Repubblica 86, 73100", "Nome impianto": "Stazione di Servizio Eni", "Comune": "LECCE", "idImpianto": 13174, "points": [{"type": "Feature", "properties": {}, "geometry": {"type": "Point", "coordinates": [18.15308064222336, 40.3559436346232]}}], "price": 2.109, "ultima_rilevazione": "16/06/2022 11:46:49"}, {"Gestore": "MELLO CARBURANTI S.A.S. DI MELLO GINO & C.", "Bandiera": "Agip Eni", "Tipo impianto": "Altro", "Indirizzo": "via alcide de gasperi snc 73047", "Nome impianto": "MELLO CARBURANTI SAS", "Comune": "MONTERONI DI LECCE", "idImpianto": 41453, "points": [{"type": "Feature", "properties": {}, "geometry": {"type": "Point", "coordinates": [18.101253658533096, 40.32781109626308]}}], "price": 2.109, "ultima_rilevazione": "18/06/2022 06:54:23"}]}, "Gasolio High Quality": {"1": [{"Gestore": "PALUMBO S.A.S. DI PASCALI LUANA & C.", "Bandiera": "Esso", "Tipo impianto": "Altro", "Indirizzo": "strada statale 476 km 1,306 snc 73100", "Nome impianto": "STAZIONE ESSO ", "Comune": "LECCE", "idImpianto": 41919, "points": [{"type": "Feature", "properties": {}, "geometry": {"type": "Point", "coordinates": [18.166960403323174, 40.33502372007758]}}], "price": 2.179, "ultima_rilevazione": "17/06/2022 07:48:27"}], "3": [], "5": []}, "Benzina": {"1": [{"Gestore": "PASCALI PIETRO DONATO", "Bandiera": "Q8", "Tipo impianto": "Altro", "Indirizzo": "via Giovanni Paolo II 6 73016", "Nome impianto": "STAZIONE DI SERVIZIO Q8", "Comune": "SAN CESARIO DI LECCE", "idImpianto": 49052, "points": [{"type": "Feature", "properties": {}, "geometry": {"type": "Point", "coordinates": [18.1559577459989, 40.30421229282588]}}], "price": 1.999, "ultima_rilevazione": "13/06/2022 12:30:17"}, {"Gestore": "ROMALU CARBURANTI DI ROMANO MARIA LUISA", "Bandiera": "Lukoil", "Tipo impianto": "Altro", "Indirizzo": "S.P.362 KM 3,5  73016", "Nome impianto": "LUKOIL", "Comune": "SAN CESARIO DI LECCE", "idImpianto": 51238, "points": [{"type": "Feature", "properties": {}, "geometry": {"type": "Point", "coordinates": [18.16340446472168, 40.31919501323715]}}], "price": 2.059, "ultima_rilevazione": "14/06/2022 19:44:06"}, {"Gestore": "APULIA PETROLI S.R.L.", "Bandiera": "Pompe Bianche", "Tipo impianto": "Altro", "Indirizzo": "sp 362 km 6,2  73010", "Nome impianto": "APULIA PETROLI", "Comune": "SAN DONATO DI LECCE", "idImpianto": 4781, "points": [{"type": "Feature", "properties": {}, "geometry": {"type": "Point", "coordinates": [18.16277864084782, 40.27626452535166]}}], "price": 2.058, "ultima_rilevazione": "15/06/2022 14:08:02"}, {"Gestore": "ARSENI SERGIO", "Bandiera": "Agip Eni", "Tipo impianto": "Strada Statale", "Indirizzo": "Statale 16 Adriatica, Km. 958,450, dir. MAGLIE 73020", "Nome impianto": "EniCaf\u00e8 Arseni Sergio", "Comune": "CAVALLINO", "idImpianto": 17435, "points": [{"type": "Feature", "properties": {}, "geometry": {"type": "Point", "coordinates": [18.181904458847043, 40.32838949125756]}}], "price": 2.044, "ultima_rilevazione": "16/06/2022 05:27:24"}, {"Gestore": "DECAR  S.R.L.", "Bandiera": "Agip Eni", "Tipo impianto": "Altro", "Indirizzo": "ss 476 zona aria sana sn 73016", "Nome impianto": "Eni 56420", "Comune": "SAN CESARIO DI LECCE", "idImpianto": 40838, "points": [{"type": "Feature", "properties": {}, "geometry": {"type": "Point", "coordinates": [18.165064752101895, 40.32842125990419]}}], "price": 2.089, "ultima_rilevazione": "16/06/2022 09:52:34"}, {"Gestore": "AVIO LAMP DI GIANNELLI EMANUELE & C. S.A.S.", "Bandiera": "Api-Ip", "Tipo impianto": "Altro", "Indirizzo": "via Lecce  73010", "Nome impianto": "AVIOLAMP srl LEQUILE", "Comune": "LEQUILE", "idImpianto": 39599, "points": [{"type": "Feature", "properties": {}, "geometry": {"type": "Point", "coordinates": [18.142947927117348, 40.31258077832022]}}], "price": 2.139, "ultima_rilevazione": "16/06/2022 09:52:56"}, {"Gestore": "SERVIZI & GESTIONI ITALIA S.R.L.", "Bandiera": "Q8", "Tipo impianto": "Altro", "Indirizzo": "VIA CIRCONVALLAZIONE 37 73016", "Nome impianto": "SAN CESARIO DI LECCE VIA CIRCONVALLAZIONE 37", "Comune": "SAN CESARIO DI LECCE", "idImpianto": 25208, "points": [{"type": "Feature", "properties": {}, "geometry": {"type": "Point", "coordinates": [18.16118326382366, 40.3086902]}}], "price": 2.069, "ultima_rilevazione": "17/06/2022 01:44:52"}, {"Gestore": "PALUMBO S.A.S. DI PASCALI LUANA & C.", "Bandiera": "Esso", "Tipo impianto": "Altro", "Indirizzo": "strada statale 476 km 1,306 snc 73100", "Nome impianto": "STAZIONE ESSO ", "Comune": "LECCE", "idImpianto": 41919, "points": [{"type": "Feature", "properties": {}, "geometry": {"type": "Point", "coordinates": [18.166960403323174, 40.33502372007758]}}], "price": 2.019, "ultima_rilevazione": "17/06/2022 07:48:27"}, {"Gestore": "GA.SO.PETROLI S.R.L.", "Bandiera": "Api-Ip", "Tipo impianto": "Altro", "Indirizzo": "VIA S.CESARIO ANG.VIALE GRASSI 67 73100", "Nome impianto": "IP VIA S.CESARIO", "Comune": "LECCE", "idImpianto": 48678, "points": [{"type": "Feature", "properties": {}, "geometry": {"type": "Point", "coordinates": [18.1677904343586, 40.33756946602985]}}], "price": 2.119, "ultima_rilevazione": "18/06/2022 08:41:21"}, {"Gestore": "CALABRESE S.R.L.", "Bandiera": "Q8", "Tipo impianto": "Altro", "Indirizzo": "VIA LEUCA KM.3 73020", "Nome impianto": "Stazione di Servizio Q8 CALABRESE S.R.L.", "Comune": "CAVALLINO", "idImpianto": 47751, "points": [{"type": "Feature", "properties": {}, "geometry": {"type": "Point", "coordinates": [18.18324282765388, 40.32379399135902]}}], "price": 2.049, "ultima_rilevazione": "18/06/2022 18:42:50"}], "3": [{"Gestore": "DE VITIS DAVIDE", "Bandiera": "Agip Eni", "Tipo impianto": "Altro", "Indirizzo": "Viale G. Rossini snc 73100", "Nome impianto": "De Vitis Davide", "Comune": "LECCE", "idImpianto": 22255, "points": [{"type": "Feature", "properties": {}, "geometry": {"type": "Point", "coordinates": [18.185680881142616, 40.34918704906743]}}], "price": 1.769, "ultima_rilevazione": "16/06/2022 09:51:36"}, {"Gestore": "EASY SERVICE S.R.L.", "Bandiera": "Esso", "Tipo impianto": "Altro", "Indirizzo": "localit\u00e0 la pochiera   73100", "Nome impianto": "Easy Lecce Cavallino ", "Comune": "LECCE", "idImpianto": 46639, "points": [{"type": "Feature", "properties": {}, "geometry": {"type": "Point", "coordinates": [18.187006979794205, 40.3265310720229]}}], "price": 1.999, "ultima_rilevazione": "11/06/2022 09:28:50"}, {"Gestore": "GIANNONE ROBERTO", "Bandiera": "Api-Ip", "Tipo impianto": "Altro", "Indirizzo": "VIA MERINE SNC 73100", "Nome impianto": "IP VIA MERINE", "Comune": "LECCE", "idImpianto": 42256, "points": [{"type": "Feature", "properties": {}, "geometry": {"type": "Point", "coordinates": [18.189877197146416, 40.346150402123385]}}], "price": 2.019, "ultima_rilevazione": "13/06/2022 08:19:59"}, {"Gestore": "COLUCCIA ELGA", "Bandiera": "Api-Ip", "Tipo impianto": "Altro", "Indirizzo": "VIALE ROSSINI 118 73100", "Nome impianto": "IP VIALE ROSSINI", "Comune": "LECCE", "idImpianto": 37047, "points": [{"type": "Feature", "properties": {}, "geometry": {"type": "Point", "coordinates": [18.185909662600352, 40.34990392025552]}}], "price": 2.039, "ultima_rilevazione": "14/06/2022 08:31:14"}, {"Gestore": "COLUCCIA ELGA", "Bandiera": "Api-Ip", "Tipo impianto": "Altro", "Indirizzo": "VIA LECCE ANG. VIA CALAMANDREI SNC 73010", "Nome impianto": "IP SAN PIETRO IN LAMA", "Comune": "SAN PIETRO IN LAMA", "idImpianto": 50022, "points": [{"type": "Feature", "properties": {}, "geometry": {"type": "Point", "coordinates": [18.13318145109973, 40.31284998629418]}}], "price": 2.099, "ultima_rilevazione": "14/06/2022 08:31:48"}, {"Gestore": "STAZIONE DI SERVIZIO DI BRUNO DAVID", "Bandiera": "Pompe Bianche", "Tipo impianto": "Altro", "Indirizzo": "VIA PER SAN CESARIO 24 73010", "Nome impianto": "DISTRIBUTORE CARBURANTI EDB", "Comune": "SAN DONATO DI LECCE", "idImpianto": 40752, "points": [{"type": "Feature", "properties": {}, "geometry": {"type": "Point", "coordinates": [18.179036245578917, 40.27073383106772]}}], "price": 2.119, "ultima_rilevazione": "14/06/2022 12:03:14"}, {"Gestore": "EST SERVICE - SOCIETA' A RESPONSABILITA' LIMITATA", "Bandiera": "Q8", "Tipo impianto": "Altro", "Indirizzo": "Tangenziale est dir.Lecce Maglie Km 12,9  73100", "Nome impianto": " Est service srl", "Comune": "LECCE", "idImpianto": 15192, "points": [{"type": "Feature", "properties": {}, "geometry": {"type": "Point", "coordinates": [18.19317162036896, 40.32880404070503]}}], "price": 2.049, "ultima_rilevazione": "15/06/2022 20:29:48"}, {"Gestore": "INGROSSO S. S.N.C. DI INGROSSO SARA E LICCARDI ROBERTO", "Bandiera": "Agip Eni", "Tipo impianto": "Altro", "Indirizzo": "VIALE JAPIGIA", "Nome impianto": "ENI", "Comune": "LECCE", "idImpianto": 23415, "points": [{"type": "Feature", "properties": {}, "geometry": {"type": "Point", "coordinates": [18.186120092868805, 40.35291444600647]}}], "price": 2.049, "ultima_rilevazione": "16/06/2022 05:40:23"}, {"Gestore": "GESTIONE CARBURANTI DI PALOMBA FRANCESCO S.A.S.", "Bandiera": "Q8", "Tipo impianto": "Altro", "Indirizzo": "PIAZZA ARGENTO .1 73100", "Nome impianto": "Gestione Carburanti", "Comune": "LECCE", "idImpianto": 43091, "points": [{"type": "Feature", "properties": {}, "geometry": {"type": "Point", "coordinates": [18.17043589325408, 40.34609493456397]}}], "price": 2.104, "ultima_rilevazione": "16/06/2022 06:14:22"}, {"Gestore": "AVIO LAMP DI GIANNELLI EMANUELE & C. S.A.S.", "Bandiera": "Api-Ip", "Tipo impianto": "Strada Statale", "Indirizzo": "101 Salentina di Gallipoli, Km. km 1, gallipoli 73100", "Nome impianto": "IP AVIOLAMP strada statale 101(via Lequile)", "Comune": "LECCE", "idImpianto": 46259, "points": [{"type": "Feature", "properties": {}, "geometry": {"type": "Point", "coordinates": [18.155344234389418, 40.33648076406952]}}], "price": 2.149, "ultima_rilevazione": "16/06/2022 09:15:32"}, {"Gestore": "SERVIZI & GESTIONI ITALIA srl", "Bandiera": "Q8", "Tipo impianto": "Altro", "Indirizzo": "VIA MONTERONI SNC 73100", "Nome impianto": "LECCE VIA MONTERONI", "Comune": "LECCE", "idImpianto": 6772, "points": [{"type": "Feature", "properties": {}, "geometry": {"type": "Point", "coordinates": [18.15200182883609, 40.3467330667193]}}], "price": 2.029, "ultima_rilevazione": "17/06/2022 01:45:18"}, {"Gestore": "BALLARINO & MAIORANO SRL", "Bandiera": "Q8", "Tipo impianto": "Strada Statale", "Indirizzo": "101 Salentina di Gallipoli, Km. 7.600, GALLIPOLI 73010", "Nome impianto": "Q8 di Ballarino & Maiorano srl (Lequile)", "Comune": "LEQUILE", "idImpianto": 41413, "points": [{"type": "Feature", "properties": {}, "geometry": {"type": "Point", "coordinates": [18.13157469034195, 40.28748513478287]}}], "price": 2.039, "ultima_rilevazione": "17/06/2022 09:49:42"}, {"Gestore": "DE.MI. S.R.L.", "Bandiera": "Q8", "Tipo impianto": "Altro", "Indirizzo": "VIA SALVATORE FITTO  11 73010", "Nome impianto": "Q8", "Comune": "LEQUILE", "idImpianto": 38386, "points": [{"type": "Feature", "properties": {}, "geometry": {"type": "Point", "coordinates": [18.133106231689453, 40.305244050523605]}}], "price": 2.089, "ultima_rilevazione": "17/06/2022 20:51:25"}, {"Gestore": "SERVIZI & GESTIONI ITALIA S.R.L.", "Bandiera": "Q8", "Tipo impianto": "Altro", "Indirizzo": "CENTRO COMMERCIALE LECLERC  73020", "Nome impianto": "CAVALLINO CENTRO COMMERCIALE LECLERC", "Comune": "CAVALLINO", "idImpianto": 10140, "points": [{"type": "Feature", "properties": {}, "geometry": {"type": "Point", "coordinates": [18.199177086353306, 40.2918119082552]}}], "price": 2.079, "ultima_rilevazione": "18/06/2022 01:33:54"}, {"Gestore": "RC CARBURANTI DI LORENZO CARMELO NOBILE E ROBERTO NOBILE S.N.C.", "Bandiera": "Esso", "Tipo impianto": "Strada Statale", "Indirizzo": "Statale 16 Adriatica, Km. 961+120, dir. Maglie 73020", "Nome impianto": "RC CARBURANTI SNC", "Comune": "CAVALLINO", "idImpianto": 36113, "points": [{"type": "Feature", "properties": {}, "geometry": {"type": "Point", "coordinates": [18.189244866371155, 40.31185041383559]}}], "price": 2.009, "ultima_rilevazione": "18/06/2022 07:42:45"}, {"Gestore": "GA.SO.PETROLI S.R.L.", "Bandiera": "Api-Ip", "Tipo impianto": "Altro", "Indirizzo": "VIA VERNOLE 39 73100", "Nome impianto": "IP VIA VERNOLE", "Comune": "LECCE", "idImpianto": 38266, "points": [{"type": "Feature", "properties": {}, "geometry": {"type": "Point", "coordinates": [18.19859504699707, 40.34507553330974]}}], "price": 2.079, "ultima_rilevazione": "18/06/2022 08:41:07"}, {"Gestore": "APRON S.R.L.", "Bandiera": "Pompe Bianche", "Tipo impianto": "Strada Statale", "Indirizzo": "16 Adriatica, Km. IX/961+58MT, LECCE 73020", "Nome impianto": "APRON ", "Comune": "CAVALLINO", "idImpianto": 45657, "points": [{"type": "Feature", "properties": {}, "geometry": {"type": "Point", "coordinates": [18.189189000123, 40.311863000123]}}], "price": 2.009, "ultima_rilevazione": "18/06/2022 10:19:08"}, {"Gestore": "T.D.M. S.R.L.", "Bandiera": "Tamoil", "Tipo impianto": "Altro", "Indirizzo": "SP. PER CAPRARICA  73020", "Nome impianto": "2415", "Comune": "CAVALLINO", "idImpianto": 38835, "points": [{"type": "Feature", "properties": {}, "geometry": {"type": "Point", "coordinates": [18.20580817759037, 40.30480568292115]}}], "price": 2.049, "ultima_rilevazione": "18/06/2022 11:24:03"}, {"Gestore": "IP SERVICES S.R.L.", "Bandiera": "Api-Ip", "Tipo impianto": "Altro", "Indirizzo": "VIALE GIUSEPPE GRASSI  73100", "Nome impianto": "LECCE - GIUSEPPE GRASSI", "Comune": "LECCE", "idImpianto": 35358, "points": [{"type": "Feature", "properties": {}, "geometry": {"type": "Point", "coordinates": [18.16608390674594, 40.33919284442996]}}], "price": 2.049, "ultima_rilevazione": "18/06/2022 12:00:26"}, {"Gestore": "IP SERVICES S.R.L.", "Bandiera": "Api-Ip", "Tipo impianto": "Altro", "Indirizzo": "SS694 Tangenziale Ovest direzione Gallipoli snc 73100", "Nome impianto": "Lecce Tangenziale Ovest Dir Gallipoli", "Comune": "LECCE", "idImpianto": 39755, "points": [{"type": "Feature", "properties": {}, "geometry": {"type": "Point", "coordinates": [18.13706919550896, 40.33114280064503]}}], "price": 2.049, "ultima_rilevazione": "18/06/2022 12:04:01"}, {"Gestore": "IP SERVICES S.R.L.", "Bandiera": "Api-Ip", "Tipo impianto": "Altro", "Indirizzo": "VIA ORSINI DUCAS  73100", "Nome impianto": "LECCE - ORSINI DUCAS", "Comune": "LECCE", "idImpianto": 24962, "points": [{"type": "Feature", "properties": {}, "geometry": {"type": "Point", "coordinates": [18.16045364418028, 40.347283646374]}}], "price": 2.029, "ultima_rilevazione": "18/06/2022 12:04:06"}, {"Gestore": "IP SERVICES S.R.L.", "Bandiera": "Api-Ip", "Tipo impianto": "Altro", "Indirizzo": "Lecce Tangenziale Est   73100", "Nome impianto": "Lecce Tangenziale Est ", "Comune": "LECCE", "idImpianto": 36442, "points": [{"type": "Feature", "properties": {}, "geometry": {"type": "Point", "coordinates": [18.19351226091385, 40.328252770225255]}}], "price": 2.049, "ultima_rilevazione": "18/06/2022 12:04:24"}, {"Gestore": "DIMA S.R.L.", "Bandiera": "Api-Ip", "Tipo impianto": "Altro", "Indirizzo": "Via Monteroni 34 73100", "Nome impianto": "IP", "Comune": "LECCE", "idImpianto": 50085, "points": [{"type": "Feature", "properties": {}, "geometry": {"type": "Point", "coordinates": [18.14837229037364, 40.3455589247551]}}], "price": 1.995, "ultima_rilevazione": "19/06/2022 00:16:13"}], "5": [{"Gestore": "GRAVILI GIULIANO", "Bandiera": "Menga petroli", "Tipo impianto": "Altro", "Indirizzo": "lupiae 2 c, 73100", "Nome impianto": "gravili giuliano", "Comune": "LECCE", "idImpianto": 20652, "points": [{"type": "Feature", "properties": {}, "geometry": {"type": "Point", "coordinates": [18.18780949924724, 40.35686875277273]}}], "price": 2.259, "ultima_rilevazione": "16/06/2022 20:31:13"}, {"Gestore": "EASY SERVICE S.R.L.", "Bandiera": "Energas", "Tipo impianto": "Altro", "Indirizzo": "via Taranto S.N.C. 73100", "Nome impianto": "Easy Service, Lecce, Via Taranto", "Comune": "LECCE", "idImpianto": 43079, "points": [{"type": "Feature", "properties": {}, "geometry": {"type": "Point", "coordinates": [18.16288948059082, 40.3585794493788]}}], "price": 1.849, "ultima_rilevazione": "17/06/2022 18:56:45"}, {"Gestore": "ATTANASI ETTORE", "Bandiera": "Api-Ip", "Tipo impianto": "Altro", "Indirizzo": "VIA TITO SCHIPA FRAZIONE MERINE   SNC 73023", "Nome impianto": "IP", "Comune": "LIZZANELLO", "idImpianto": 40430, "points": [{"type": "Feature", "properties": {}, "geometry": {"type": "Point", "coordinates": [18.222060352563854, 40.33811504671511]}}], "price": 2.019, "ultima_rilevazione": "14/06/2022 12:33:18"}, {"Gestore": "VEGA CARBURANTI S.P.A.", "Bandiera": "Enercoop", "Tipo impianto": "Altro", "Indirizzo": " S.S.16 KM.964+740 DIREZ. NORD SNC 73020", "Nome impianto": "Enercoop Lecce Cavallino", "Comune": "CAVALLINO", "idImpianto": 48705, "points": [{"type": "Feature", "properties": {}, "geometry": {"type": "Point", "coordinates": [18.202272504299145, 40.28053443914162]}}], "price": 2.009, "ultima_rilevazione": "16/06/2022 08:18:49"}, {"Gestore": "GAROIL DI ANDREA GARGIULO", "Bandiera": "Api-Ip", "Tipo impianto": "Altro", "Indirizzo": "Viale della Repubblica  snc 73100", "Nome impianto": "IP", "Comune": "LECCE", "idImpianto": 27954, "points": [{"type": "Feature", "properties": {}, "geometry": {"type": "Point", "coordinates": [18.15637479558336, 40.35930829238813]}}], "price": 2.099, "ultima_rilevazione": "15/06/2022 16:50:33"}, {"Gestore": "INGROSSO S. S.N.C. DI INGROSSO SARA E LICCARDI ROBERTO", "Bandiera": "Agip Eni", "Tipo impianto": "Altro", "Indirizzo": "viale dello stadio  73100", "Nome impianto": "stazione eni", "Comune": "LECCE", "idImpianto": 43405, "points": [{"type": "Feature", "properties": {}, "geometry": {"type": "Point", "coordinates": [18.18668636441805, 40.36039113141885]}}], "price": 2.049, "ultima_rilevazione": "16/06/2022 05:41:38"}, {"Gestore": "MANNI ANTONIO", "Bandiera": "Agip Eni", "Tipo impianto": "Altro", "Indirizzo": "VIA LUPIAE  73100", "Nome impianto": "ENI ", "Comune": "LECCE", "idImpianto": 42187, "points": [{"type": "Feature", "properties": {}, "geometry": {"type": "Point", "coordinates": [18.1926029920578, 40.35837874201901]}}], "price": 2.099, "ultima_rilevazione": "16/06/2022 06:37:10"}, {"Gestore": "AVIO LAMP DI GIANNELLI EMANUELE & C. S.A.S.", "Bandiera": "Api-Ip", "Tipo impianto": "Altro", "Indirizzo": "via Foscolo  73100", "Nome impianto": "AVIOLAMP LECCE - via foscolo", "Comune": "LECCE", "idImpianto": 39600, "points": [{"type": "Feature", "properties": {}, "geometry": {"type": "Point", "coordinates": [18.171351179480556, 40.36158467577352]}}], "price": 2.129, "ultima_rilevazione": "16/06/2022 09:14:52"}, {"Gestore": "SPINETTA RAFFAELE", "Bandiera": "Agip Eni", "Tipo impianto": "Altro", "Indirizzo": "Viale della Repubblica 86, 73100", "Nome impianto": "Stazione di Servizio Eni", "Comune": "LECCE", "idImpianto": 13174, "points": [{"type": "Feature", "properties": {}, "geometry": {"type": "Point", "coordinates": [18.15308064222336, 40.3559436346232]}}], "price": 2.049, "ultima_rilevazione": "16/06/2022 11:46:49"}, {"Gestore": "MANNI PETROLI S.R.L.", "Bandiera": "Q8", "Tipo impianto": "Altro", "Indirizzo": "VIALE DELLA REPUBBLICA  73100", "Nome impianto": "Q8", "Comune": "LECCE", "idImpianto": 43124, "points": [{"type": "Feature", "properties": {}, "geometry": {"type": "Point", "coordinates": [18.15594486594728, 40.35943664246448]}}], "price": 2.049, "ultima_rilevazione": "16/06/2022 12:34:37"}, {"Gestore": "SERVIZI & GESTIONI ITALIA S.R.L.", "Bandiera": "Q8", "Tipo impianto": "Altro", "Indirizzo": "VIA ROMA  73100", "Nome impianto": "LECCE - VIA ROMA", "Comune": "LECCE", "idImpianto": 31875, "points": [{"type": "Feature", "properties": {}, "geometry": {"type": "Point", "coordinates": [18.204743073680103, 40.36186413726136]}}], "price": 2.089, "ultima_rilevazione": "17/06/2022 01:45:17"}, {"Gestore": "BI ESSE GESTIONI S.R.L.", "Bandiera": "Pompe Bianche", "Tipo impianto": "Altro", "Indirizzo": "VIALE DELLA LIBERTA' 227 73100", "Nome impianto": "BI ESSE GESTIONI SRL", "Comune": "LECCE", "idImpianto": 21172, "points": [{"type": "Feature", "properties": {}, "geometry": {"type": "Point", "coordinates": [18.209236870544373, 40.36369876640208]}}], "price": 1.999, "ultima_rilevazione": "17/06/2022 06:31:34"}, {"Gestore": "DELTA OIL COMPANY S.R.L.", "Bandiera": "Q8", "Tipo impianto": "Altro", "Indirizzo": "VIA VERNOLE KM. 1,5 SN 73100", "Nome impianto": "DELTA OIL COMPANY SRL", "Comune": "LECCE", "idImpianto": 11077, "points": [{"type": "Feature", "properties": {}, "geometry": {"type": "Point", "coordinates": [18.2028865814209, 40.3446347871546]}}], "price": 2.069, "ultima_rilevazione": "17/06/2022 13:34:45"}, {"Gestore": "A.R. SERVICE SNC DI ROBERTO LANDOLFO E ANTONIO MARIANO", "Bandiera": "Esso", "Tipo impianto": "Strada Statale", "Indirizzo": "613 Brindisi-Lecce, Km. 1+900, Brindisi 73100", "Nome impianto": "ESSO", "Comune": "LECCE", "idImpianto": 49968, "points": [{"type": "Feature", "properties": {}, "geometry": {"type": "Point", "coordinates": [18.163535631591404, 40.36586078961672]}}], "price": 2.019, "ultima_rilevazione": "17/06/2022 14:56:19"}, {"Gestore": "MELLO CARBURANTI S.A.S. DI MELLO GINO & C.", "Bandiera": "Agip Eni", "Tipo impianto": "Altro", "Indirizzo": "via alcide de gasperi snc 73047", "Nome impianto": "MELLO CARBURANTI SAS", "Comune": "MONTERONI DI LECCE", "idImpianto": 41453, "points": [{"type": "Feature", "properties": {}, "geometry": {"type": "Point", "coordinates": [18.101253658533096, 40.32781109626308]}}], "price": 2.089, "ultima_rilevazione": "18/06/2022 06:54:23"}, {"Gestore": "SERVIZI & GESTIONI ITALIA srl", "Bandiera": "Q8", "Tipo impianto": "Altro", "Indirizzo": "VIA GIAMMATTEO SNC 73100", "Nome impianto": "LECCE VIA GIAMMATTEO", "Comune": "LECCE", "idImpianto": 6761, "points": [{"type": "Feature", "properties": {}, "geometry": {"type": "Point", "coordinates": [18.17769404418027, 40.369906511222325]}}], "price": 1.589, "ultima_rilevazione": "18/06/2022 07:39:44"}, {"Gestore": "AGAPE SERVICE S.R.L.", "Bandiera": "Api-Ip", "Tipo impianto": "Altro", "Indirizzo": "Viale della Cavalleria  73100", "Nome impianto": "Agape Service Srl", "Comune": "LECCE", "idImpianto": 17678, "points": [{"type": "Feature", "properties": {}, "geometry": {"type": "Point", "coordinates": [18.20438159911837, 40.351786166913065]}}], "price": 2.049, "ultima_rilevazione": "18/06/2022 08:32:48"}, {"Gestore": "MINGIANO MAURIZIO", "Bandiera": "Q8", "Tipo impianto": "Altro", "Indirizzo": "VIA MARTANO 149 73023", "Nome impianto": "STAZIONE DI SERVIZIO Q8 DI MINGIANO MAURIZIO", "Comune": "LIZZANELLO", "idImpianto": 40467, "points": [{"type": "Feature", "properties": {}, "geometry": {"type": "Point", "coordinates": [18.215694257211226, 40.30685595147308]}}], "price": 2.049, "ultima_rilevazione": "18/06/2022 11:18:50"}, {"Gestore": "IP SERVICES S.R.L.", "Bandiera": "Api-Ip", "Tipo impianto": "Altro", "Indirizzo": "VIALE RISORGIMENTO  73100", "Nome impianto": "LECCE - RISORGIMENTO", "Comune": "LECCE", "idImpianto": 25343, "points": [{"type": "Feature", "properties": {}, "geometry": {"type": "Point", "coordinates": [18.15792145767216, 40.362832699722574]}}], "price": 2.049, "ultima_rilevazione": "18/06/2022 12:00:27"}, {"Gestore": "I.C.O.N. S.R.L.", "Bandiera": "Q8", "Tipo impianto": "Altro", "Indirizzo": "via Giammatteo angolo via Tanagro snc 73100", "Nome impianto": "LECCE 8622", "Comune": "LECCE", "idImpianto": 43682, "points": [{"type": "Feature", "properties": {}, "geometry": {"type": "Point", "coordinates": [18.177606761455536, 40.36993622887168]}}], "price": 2.079, "ultima_rilevazione": "18/06/2022 12:29:46"}, {"Gestore": "DE VITIS PIETRO LUIGI", "Bandiera": "Tamoil", "Tipo impianto": "Altro", "Indirizzo": "VIA ADRIATICA 114 73100", "Nome impianto": "TAMOIL", "Comune": "LECCE", "idImpianto": 21316, "points": [{"type": "Feature", "properties": {}, "geometry": {"type": "Point", "coordinates": [18.16861204841007, 40.3676164897029]}}], "price": 2.079, "ultima_rilevazione": "18/06/2022 15:08:07"}]}, "null": {}, "GPL": {"1": [{"Gestore": "ROMALU CARBURANTI DI ROMANO MARIA LUISA", "Bandiera": "Lukoil", "Tipo impianto": "Altro", "Indirizzo": "S.P.362 KM 3,5  73016", "Nome impianto": "LUKOIL", "Comune": "SAN CESARIO DI LECCE", "idImpianto": 51238, "points": [{"type": "Feature", "properties": {}, "geometry": {"type": "Point", "coordinates": [18.16340446472168, 40.31919501323715]}}], "price": 0.709, "ultima_rilevazione": "14/06/2022 19:44:06"}, {"Gestore": "CALABRESE S.R.L.", "Bandiera": "Q8", "Tipo impianto": "Altro", "Indirizzo": "VIA LEUCA KM.3 73020", "Nome impianto": "Stazione di Servizio Q8 CALABRESE S.R.L.", "Comune": "CAVALLINO", "idImpianto": 47751, "points": [{"type": "Feature", "properties": {}, "geometry": {"type": "Point", "coordinates": [18.18324282765388, 40.32379399135902]}}], "price": 0.719, "ultima_rilevazione": "18/06/2022 18:42:50"}], "3": [{"Gestore": "EASY SERVICE S.R.L.", "Bandiera": "Esso", "Tipo impianto": "Altro", "Indirizzo": "localit\u00e0 la pochiera   73100", "Nome impianto": "Easy Lecce Cavallino ", "Comune": "LECCE", "idImpianto": 46639, "points": [{"type": "Feature", "properties": {}, "geometry": {"type": "Point", "coordinates": [18.187006979794205, 40.3265310720229]}}], "price": 0.725, "ultima_rilevazione": "11/06/2022 09:28:50"}, {"Gestore": "EST SERVICE - SOCIETA' A RESPONSABILITA' LIMITATA", "Bandiera": "Q8", "Tipo impianto": "Altro", "Indirizzo": "Tangenziale est dir.Lecce Maglie Km 12,9  73100", "Nome impianto": " Est service srl", "Comune": "LECCE", "idImpianto": 15192, "points": [{"type": "Feature", "properties": {}, "geometry": {"type": "Point", "coordinates": [18.19317162036896, 40.32880404070503]}}], "price": 0.725, "ultima_rilevazione": "15/06/2022 20:29:48"}, {"Gestore": "BALLARINO & MAIORANO SRL", "Bandiera": "Q8", "Tipo impianto": "Strada Statale", "Indirizzo": "101 Salentina di Gallipoli, Km. 7.600, GALLIPOLI 73010", "Nome impianto": "Q8 di Ballarino & Maiorano srl (Lequile)", "Comune": "LEQUILE", "idImpianto": 41413, "points": [{"type": "Feature", "properties": {}, "geometry": {"type": "Point", "coordinates": [18.13157469034195, 40.28748513478287]}}], "price": 0.799, "ultima_rilevazione": "17/06/2022 09:49:42"}, {"Gestore": "DE.MI. S.R.L.", "Bandiera": "Q8", "Tipo impianto": "Altro", "Indirizzo": "VIA SALVATORE FITTO  11 73010", "Nome impianto": "Q8", "Comune": "LEQUILE", "idImpianto": 42701, "points": [{"type": "Feature", "properties": {}, "geometry": {"type": "Point", "coordinates": [18.133106231689453, 40.305244050523605]}}], "price": 0.829, "ultima_rilevazione": "17/06/2022 20:51:34"}, {"Gestore": "RC CARBURANTI DI LORENZO CARMELO NOBILE E ROBERTO NOBILE S.N.C.", "Bandiera": "Esso", "Tipo impianto": "Strada Statale", "Indirizzo": "Statale 16 Adriatica, Km. 961+120, dir. Maglie 73020", "Nome impianto": "RC CARBURANTI SNC", "Comune": "CAVALLINO", "idImpianto": 36113, "points": [{"type": "Feature", "properties": {}, "geometry": {"type": "Point", "coordinates": [18.189244866371155, 40.31185041383559]}}], "price": 0.719, "ultima_rilevazione": "18/06/2022 07:42:45"}, {"Gestore": "GA.SO.PETROLI S.R.L.", "Bandiera": "Api-Ip", "Tipo impianto": "Altro", "Indirizzo": "VIA VERNOLE 39 73100", "Nome impianto": "IP VIA VERNOLE", "Comune": "LECCE", "idImpianto": 38266, "points": [{"type": "Feature", "properties": {}, "geometry": {"type": "Point", "coordinates": [18.19859504699707, 40.34507553330974]}}], "price": 0.855, "ultima_rilevazione": "18/06/2022 08:41:07"}, {"Gestore": "APRON S.R.L.", "Bandiera": "Pompe Bianche", "Tipo impianto": "Strada Statale", "Indirizzo": "16 Adriatica, Km. IX/961+58MT, LECCE 73020", "Nome impianto": "APRON ", "Comune": "CAVALLINO", "idImpianto": 45657, "points": [{"type": "Feature", "properties": {}, "geometry": {"type": "Point", "coordinates": [18.189189000123, 40.311863000123]}}], "price": 0.73, "ultima_rilevazione": "18/06/2022 10:19:08"}], "5": [{"Gestore": "VEGA CARBURANTI S.P.A.", "Bandiera": "Enercoop", "Tipo impianto": "Altro", "Indirizzo": " S.S.16 KM.964+740 DIREZ. NORD SNC 73020", "Nome impianto": "Enercoop Lecce Cavallino", "Comune": "CAVALLINO", "idImpianto": 48705, "points": [{"type": "Feature", "properties": {}, "geometry": {"type": "Point", "coordinates": [18.202272504299145, 40.28053443914162]}}], "price": 0.759, "ultima_rilevazione": "16/06/2022 08:18:49"}, {"Gestore": "EMMEPIGAS LA LECCESE GAS S.R.L.", "Bandiera": "GasAuto", "Tipo impianto": "Altro", "Indirizzo": "VIA SURBO STRADA ESTERNA 1 73100", "Nome impianto": "Emmepigas srl", "Comune": "LECCE", "idImpianto": 41975, "points": [{"type": "Feature", "properties": {}, "geometry": {"type": "Point", "coordinates": [18.14548596739769, 40.36504264597017]}}], "price": 0.799, "ultima_rilevazione": "13/06/2022 11:07:05"}, {"Gestore": "DELTA OIL COMPANY S.R.L.", "Bandiera": "Q8", "Tipo impianto": "Altro", "Indirizzo": "VIA VERNOLE KM. 1,5 SN 73100", "Nome impianto": "DELTA OIL COMPANY SRL", "Comune": "LECCE", "idImpianto": 11077, "points": [{"type": "Feature", "properties": {}, "geometry": {"type": "Point", "coordinates": [18.2028865814209, 40.3446347871546]}}], "price": 0.839, "ultima_rilevazione": "17/06/2022 13:34:45"}]}, "Gasolio": {"1": [{"Gestore": "PASCALI PIETRO DONATO", "Bandiera": "Q8", "Tipo impianto": "Altro", "Indirizzo": "via Giovanni Paolo II 6 73016", "Nome impianto": "STAZIONE DI SERVIZIO Q8", "Comune": "SAN CESARIO DI LECCE", "idImpianto": 49052, "points": [{"type": "Feature", "properties": {}, "geometry": {"type": "Point", "coordinates": [18.1559577459989, 40.30421229282588]}}], "price": 1.899, "ultima_rilevazione": "13/06/2022 12:30:17"}, {"Gestore": "ROMALU CARBURANTI DI ROMANO MARIA LUISA", "Bandiera": "Lukoil", "Tipo impianto": "Altro", "Indirizzo": "S.P.362 KM 3,5  73016", "Nome impianto": "LUKOIL", "Comune": "SAN CESARIO DI LECCE", "idImpianto": 51238, "points": [{"type": "Feature", "properties": {}, "geometry": {"type": "Point", "coordinates": [18.16340446472168, 40.31919501323715]}}], "price": 1.959, "ultima_rilevazione": "14/06/2022 19:44:06"}, {"Gestore": "APULIA PETROLI S.R.L.", "Bandiera": "Pompe Bianche", "Tipo impianto": "Altro", "Indirizzo": "sp 362 km 6,2  73010", "Nome impianto": "APULIA PETROLI", "Comune": "SAN DONATO DI LECCE", "idImpianto": 4781, "points": [{"type": "Feature", "properties": {}, "geometry": {"type": "Point", "coordinates": [18.16277864084782, 40.27626452535166]}}], "price": 1.998, "ultima_rilevazione": "15/06/2022 14:08:02"}, {"Gestore": "ARSENI SERGIO", "Bandiera": "Agip Eni", "Tipo impianto": "Strada Statale", "Indirizzo": "Statale 16 Adriatica, Km. 958,450, dir. MAGLIE 73020", "Nome impianto": "EniCaf\u00e8 Arseni Sergio", "Comune": "CAVALLINO", "idImpianto": 17435, "points": [{"type": "Feature", "properties": {}, "geometry": {"type": "Point", "coordinates": [18.181904458847043, 40.32838949125756]}}], "price": 2.004, "ultima_rilevazione": "16/06/2022 05:27:24"}, {"Gestore": "DECAR  S.R.L.", "Bandiera": "Agip Eni", "Tipo impianto": "Altro", "Indirizzo": "ss 476 zona aria sana sn 73016", "Nome impianto": "Eni 56420", "Comune": "SAN CESARIO DI LECCE", "idImpianto": 40838, "points": [{"type": "Feature", "properties": {}, "geometry": {"type": "Point", "coordinates": [18.165064752101895, 40.32842125990419]}}], "price": 2.009, "ultima_rilevazione": "16/06/2022 09:52:34"}, {"Gestore": "AVIO LAMP DI GIANNELLI EMANUELE & C. S.A.S.", "Bandiera": "Api-Ip", "Tipo impianto": "Altro", "Indirizzo": "via Lecce  73010", "Nome impianto": "AVIOLAMP srl LEQUILE", "Comune": "LEQUILE", "idImpianto": 39599, "points": [{"type": "Feature", "properties": {}, "geometry": {"type": "Point", "coordinates": [18.142947927117348, 40.31258077832022]}}], "price": 2.039, "ultima_rilevazione": "16/06/2022 09:52:56"}, {"Gestore": "SERVIZI & GESTIONI ITALIA S.R.L.", "Bandiera": "Q8", "Tipo impianto": "Altro", "Indirizzo": "VIA CIRCONVALLAZIONE 37 73016", "Nome impianto": "SAN CESARIO DI LECCE VIA CIRCONVALLAZIONE 37", "Comune": "SAN CESARIO DI LECCE", "idImpianto": 25208, "points": [{"type": "Feature", "properties": {}, "geometry": {"type": "Point", "coordinates": [18.16118326382366, 40.3086902]}}], "price": 1.989, "ultima_rilevazione": "17/06/2022 01:44:52"}, {"Gestore": "PALUMBO S.A.S. DI PASCALI LUANA & C.", "Bandiera": "Esso", "Tipo impianto": "Altro", "Indirizzo": "strada statale 476 km 1,306 snc 73100", "Nome impianto": "STAZIONE ESSO ", "Comune": "LECCE", "idImpianto": 41919, "points": [{"type": "Feature", "properties": {}, "geometry": {"type": "Point", "coordinates": [18.166960403323174, 40.33502372007758]}}], "price": 2.029, "ultima_rilevazione": "17/06/2022 07:48:27"}, {"Gestore": "GA.SO.PETROLI S.R.L.", "Bandiera": "Api-Ip", "Tipo impianto": "Altro", "Indirizzo": "VIA S.CESARIO ANG.VIALE GRASSI 67 73100", "Nome impianto": "IP VIA S.CESARIO", "Comune": "LECCE", "idImpianto": 48678, "points": [{"type": "Feature", "properties": {}, "geometry": {"type": "Point", "coordinates": [18.1677904343586, 40.33756946602985]}}], "price": 2.029, "ultima_rilevazione": "18/06/2022 08:41:21"}, {"Gestore": "CALABRESE S.R.L.", "Bandiera": "Q8", "Tipo impianto": "Altro", "Indirizzo": "VIA LEUCA KM.3 73020", "Nome impianto": "Stazione di Servizio Q8 CALABRESE S.R.L.", "Comune": "CAVALLINO", "idImpianto": 47751, "points": [{"type": "Feature", "properties": {}, "geometry": {"type": "Point", "coordinates": [18.18324282765388, 40.32379399135902]}}], "price": 1.999, "ultima_rilevazione": "18/06/2022 18:42:50"}], "3": [{"Gestore": "DE VITIS DAVIDE", "Bandiera": "Agip Eni", "Tipo impianto": "Altro", "Indirizzo": "Viale G. Rossini snc 73100", "Nome impianto": "De Vitis Davide", "Comune": "LECCE", "idImpianto": 22255, "points": [{"type": "Feature", "properties": {}, "geometry": {"type": "Point", "coordinates": [18.185680881142616, 40.34918704906743]}}], "price": 1.759, "ultima_rilevazione": "16/06/2022 09:51:36"}, {"Gestore": "EASY SERVICE S.R.L.", "Bandiera": "Esso", "Tipo impianto": "Altro", "Indirizzo": "localit\u00e0 la pochiera   73100", "Nome impianto": "Easy Lecce Cavallino ", "Comune": "LECCE", "idImpianto": 46639, "points": [{"type": "Feature", "properties": {}, "geometry": {"type": "Point", "coordinates": [18.187006979794205, 40.3265310720229]}}], "price": 1.949, "ultima_rilevazione": "11/06/2022 09:28:50"}, {"Gestore": "GIANNONE ROBERTO", "Bandiera": "Api-Ip", "Tipo impianto": "Altro", "Indirizzo": "VIA MERINE SNC 73100", "Nome impianto": "IP VIA MERINE", "Comune": "LECCE", "idImpianto": 42256, "points": [{"type": "Feature", "properties": {}, "geometry": {"type": "Point", "coordinates": [18.189877197146416, 40.346150402123385]}}], "price": 1.949, "ultima_rilevazione": "13/06/2022 08:19:59"}, {"Gestore": "COLUCCIA ELGA", "Bandiera": "Api-Ip", "Tipo impianto": "Altro", "Indirizzo": "VIALE ROSSINI 118 73100", "Nome impianto": "IP VIALE ROSSINI", "Comune": "LECCE", "idImpianto": 37047, "points": [{"type": "Feature", "properties": {}, "geometry": {"type": "Point", "coordinates": [18.185909662600352, 40.34990392025552]}}], "price": 1.969, "ultima_rilevazione": "14/06/2022 08:31:14"}, {"Gestore": "COLUCCIA ELGA", "Bandiera": "Api-Ip", "Tipo impianto": "Altro", "Indirizzo": "VIA LECCE ANG. VIA CALAMANDREI SNC 73010", "Nome impianto": "IP SAN PIETRO IN LAMA", "Comune": "SAN PIETRO IN LAMA", "idImpianto": 50022, "points": [{"type": "Feature", "properties": {}, "geometry": {"type": "Point", "coordinates": [18.13318145109973, 40.31284998629418]}}], "price": 1.989, "ultima_rilevazione": "14/06/2022 08:31:48"}, {"Gestore": "STAZIONE DI SERVIZIO DI BRUNO DAVID", "Bandiera": "Pompe Bianche", "Tipo impianto": "Altro", "Indirizzo": "VIA PER SAN CESARIO 24 73010", "Nome impianto": "DISTRIBUTORE CARBURANTI EDB", "Comune": "SAN DONATO DI LECCE", "idImpianto": 40752, "points": [{"type": "Feature", "properties": {}, "geometry": {"type": "Point", "coordinates": [18.179036245578917, 40.27073383106772]}}], "price": 2.079, "ultima_rilevazione": "14/06/2022 12:03:14"}, {"Gestore": "EST SERVICE - SOCIETA' A RESPONSABILITA' LIMITATA", "Bandiera": "Q8", "Tipo impianto": "Altro", "Indirizzo": "Tangenziale est dir.Lecce Maglie Km 12,9  73100", "Nome impianto": " Est service srl", "Comune": "LECCE", "idImpianto": 15192, "points": [{"type": "Feature", "properties": {}, "geometry": {"type": "Point", "coordinates": [18.19317162036896, 40.32880404070503]}}], "price": 2.009, "ultima_rilevazione": "15/06/2022 20:29:48"}, {"Gestore": "INGROSSO S. S.N.C. DI INGROSSO SARA E LICCARDI ROBERTO", "Bandiera": "Agip Eni", "Tipo impianto": "Altro", "Indirizzo": "VIALE JAPIGIA", "Nome impianto": "ENI", "Comune": "LECCE", "idImpianto": 23415, "points": [{"type": "Feature", "properties": {}, "geometry": {"type": "Point", "coordinates": [18.186120092868805, 40.35291444600647]}}], "price": 2.009, "ultima_rilevazione": "16/06/2022 05:40:23"}, {"Gestore": "GESTIONE CARBURANTI DI PALOMBA FRANCESCO S.A.S.", "Bandiera": "Q8", "Tipo impianto": "Altro", "Indirizzo": "PIAZZA ARGENTO .1 73100", "Nome impianto": "Gestione Carburanti", "Comune": "LECCE", "idImpianto": 43091, "points": [{"type": "Feature", "properties": {}, "geometry": {"type": "Point", "coordinates": [18.17043589325408, 40.34609493456397]}}], "price": 2.017, "ultima_rilevazione": "16/06/2022 06:14:22"}, {"Gestore": "AVIO LAMP DI GIANNELLI EMANUELE & C. S.A.S.", "Bandiera": "Api-Ip", "Tipo impianto": "Strada Statale", "Indirizzo": "101 Salentina di Gallipoli, Km. km 1, gallipoli 73100", "Nome impianto": "IP AVIOLAMP strada statale 101(via Lequile)", "Comune": "LECCE", "idImpianto": 46259, "points": [{"type": "Feature", "properties": {}, "geometry": {"type": "Point", "coordinates": [18.155344234389418, 40.33648076406952]}}], "price": 2.039, "ultima_rilevazione": "16/06/2022 09:15:32"}, {"Gestore": "SERVIZI & GESTIONI ITALIA srl", "Bandiera": "Q8", "Tipo impianto": "Altro", "Indirizzo": "VIA MONTERONI SNC 73100", "Nome impianto": "LECCE VIA MONTERONI", "Comune": "LECCE", "idImpianto": 6772, "points": [{"type": "Feature", "properties": {}, "geometry": {"type": "Point", "coordinates": [18.15200182883609, 40.3467330667193]}}], "price": 2.019, "ultima_rilevazione": "17/06/2022 01:45:18"}, {"Gestore": "BALLARINO & MAIORANO SRL", "Bandiera": "Q8", "Tipo impianto": "Strada Statale", "Indirizzo": "101 Salentina di Gallipoli, Km. 7.600, GALLIPOLI 73010", "Nome impianto": "Q8 di Ballarino & Maiorano srl (Lequile)", "Comune": "LEQUILE", "idImpianto": 41413, "points": [{"type": "Feature", "properties": {}, "geometry": {"type": "Point", "coordinates": [18.13157469034195, 40.28748513478287]}}], "price": 2.019, "ultima_rilevazione": "17/06/2022 09:49:42"}, {"Gestore": "DE.MI. S.R.L.", "Bandiera": "Q8", "Tipo impianto": "Altro", "Indirizzo": "VIA SALVATORE FITTO  11 73010", "Nome impianto": "Q8", "Comune": "LEQUILE", "idImpianto": 38386, "points": [{"type": "Feature", "properties": {}, "geometry": {"type": "Point", "coordinates": [18.133106231689453, 40.305244050523605]}}], "price": 2.039, "ultima_rilevazione": "17/06/2022 20:51:25"}, {"Gestore": "SERVIZI & GESTIONI ITALIA S.R.L.", "Bandiera": "Q8", "Tipo impianto": "Altro", "Indirizzo": "CENTRO COMMERCIALE LECLERC  73020", "Nome impianto": "CAVALLINO CENTRO COMMERCIALE LECLERC", "Comune": "CAVALLINO", "idImpianto": 10140, "points": [{"type": "Feature", "properties": {}, "geometry": {"type": "Point", "coordinates": [18.199177086353306, 40.2918119082552]}}], "price": 1.999, "ultima_rilevazione": "18/06/2022 01:33:54"}, {"Gestore": "RC CARBURANTI DI LORENZO CARMELO NOBILE E ROBERTO NOBILE S.N.C.", "Bandiera": "Esso", "Tipo impianto": "Strada Statale", "Indirizzo": "Statale 16 Adriatica, Km. 961+120, dir. Maglie 73020", "Nome impianto": "RC CARBURANTI SNC", "Comune": "CAVALLINO", "idImpianto": 36113, "points": [{"type": "Feature", "properties": {}, "geometry": {"type": "Point", "coordinates": [18.189244866371155, 40.31185041383559]}}], "price": 1.999, "ultima_rilevazione": "18/06/2022 07:42:45"}, {"Gestore": "GA.SO.PETROLI S.R.L.", "Bandiera": "Api-Ip", "Tipo impianto": "Altro", "Indirizzo": "VIA VERNOLE 39 73100", "Nome impianto": "IP VIA VERNOLE", "Comune": "LECCE", "idImpianto": 38266, "points": [{"type": "Feature", "properties": {}, "geometry": {"type": "Point", "coordinates": [18.19859504699707, 40.34507553330974]}}], "price": 2.019, "ultima_rilevazione": "18/06/2022 08:41:07"}, {"Gestore": "APRON S.R.L.", "Bandiera": "Pompe Bianche", "Tipo impianto": "Strada Statale", "Indirizzo": "16 Adriatica, Km. IX/961+58MT, LECCE 73020", "Nome impianto": "APRON ", "Comune": "CAVALLINO", "idImpianto": 45657, "points": [{"type": "Feature", "properties": {}, "geometry": {"type": "Point", "coordinates": [18.189189000123, 40.311863000123]}}], "price": 1.999, "ultima_rilevazione": "18/06/2022 10:19:08"}, {"Gestore": "T.D.M. S.R.L.", "Bandiera": "Tamoil", "Tipo impianto": "Altro", "Indirizzo": "SP. PER CAPRARICA  73020", "Nome impianto": "2415", "Comune": "CAVALLINO", "idImpianto": 38835, "points": [{"type": "Feature", "properties": {}, "geometry": {"type": "Point", "coordinates": [18.20580817759037, 40.30480568292115]}}], "price": 2.039, "ultima_rilevazione": "18/06/2022 11:24:03"}, {"Gestore": "IP SERVICES S.R.L.", "Bandiera": "Api-Ip", "Tipo impianto": "Altro", "Indirizzo": "VIALE GIUSEPPE GRASSI  73100", "Nome impianto": "LECCE - GIUSEPPE GRASSI", "Comune": "LECCE", "idImpianto": 35358, "points": [{"type": "Feature", "properties": {}, "geometry": {"type": "Point", "coordinates": [18.16608390674594, 40.33919284442996]}}], "price": 2.009, "ultima_rilevazione": "18/06/2022 12:00:26"}, {"Gestore": "IP SERVICES S.R.L.", "Bandiera": "Api-Ip", "Tipo impianto": "Altro", "Indirizzo": "SS694 Tangenziale Ovest direzione Gallipoli snc 73100", "Nome impianto": "Lecce Tangenziale Ovest Dir Gallipoli", "Comune": "LECCE", "idImpianto": 39755, "points": [{"type": "Feature", "properties": {}, "geometry": {"type": "Point", "coordinates": [18.13706919550896, 40.33114280064503]}}], "price": 2.009, "ultima_rilevazione": "18/06/2022 12:04:01"}, {"Gestore": "IP SERVICES S.R.L.", "Bandiera": "Api-Ip", "Tipo impianto": "Altro", "Indirizzo": "VIA ORSINI DUCAS  73100", "Nome impianto": "LECCE - ORSINI DUCAS", "Comune": "LECCE", "idImpianto": 24962, "points": [{"type": "Feature", "properties": {}, "geometry": {"type": "Point", "coordinates": [18.16045364418028, 40.347283646374]}}], "price": 2.009, "ultima_rilevazione": "18/06/2022 12:04:06"}, {"Gestore": "IP SERVICES S.R.L.", "Bandiera": "Api-Ip", "Tipo impianto": "Altro", "Indirizzo": "Lecce Tangenziale Est   73100", "Nome impianto": "Lecce Tangenziale Est ", "Comune": "LECCE", "idImpianto": 36442, "points": [{"type": "Feature", "properties": {}, "geometry": {"type": "Point", "coordinates": [18.19351226091385, 40.328252770225255]}}], "price": 2.009, "ultima_rilevazione": "18/06/2022 12:04:24"}, {"Gestore": "DIMA S.R.L.", "Bandiera": "Api-Ip", "Tipo impianto": "Altro", "Indirizzo": "Via Monteroni 34 73100", "Nome impianto": "IP", "Comune": "LECCE", "idImpianto": 50085, "points": [{"type": "Feature", "properties": {}, "geometry": {"type": "Point", "coordinates": [18.14837229037364, 40.3455589247551]}}], "price": 1.978, "ultima_rilevazione": "19/06/2022 00:16:13"}], "5": [{"Gestore": "GRAVILI GIULIANO", "Bandiera": "Menga petroli", "Tipo impianto": "Altro", "Indirizzo": "lupiae 2 c, 73100", "Nome impianto": "gravili giuliano", "Comune": "LECCE", "idImpianto": 20652, "points": [{"type": "Feature", "properties": {}, "geometry": {"type": "Point", "coordinates": [18.18780949924724, 40.35686875277273]}}], "price": 2.299, "ultima_rilevazione": "16/06/2022 20:31:13"}, {"Gestore": "EASY SERVICE S.R.L.", "Bandiera": "Energas", "Tipo impianto": "Altro", "Indirizzo": "via Taranto S.N.C. 73100", "Nome impianto": "Easy Service, Lecce, Via Taranto", "Comune": "LECCE", "idImpianto": 43079, "points": [{"type": "Feature", "properties": {}, "geometry": {"type": "Point", "coordinates": [18.16288948059082, 40.3585794493788]}}], "price": 1.789, "ultima_rilevazione": "17/06/2022 18:56:45"}, {"Gestore": "ATTANASI ETTORE", "Bandiera": "Api-Ip", "Tipo impianto": "Altro", "Indirizzo": "VIA TITO SCHIPA FRAZIONE MERINE   SNC 73023", "Nome impianto": "IP", "Comune": "LIZZANELLO", "idImpianto": 40430, "points": [{"type": "Feature", "properties": {}, "geometry": {"type": "Point", "coordinates": [18.222060352563854, 40.33811504671511]}}], "price": 1.949, "ultima_rilevazione": "14/06/2022 12:33:18"}, {"Gestore": "GAROIL DI ANDREA GARGIULO", "Bandiera": "Api-Ip", "Tipo impianto": "Altro", "Indirizzo": "Viale della Repubblica  snc 73100", "Nome impianto": "IP", "Comune": "LECCE", "idImpianto": 27954, "points": [{"type": "Feature", "properties": {}, "geometry": {"type": "Point", "coordinates": [18.15637479558336, 40.35930829238813]}}], "price": 2.019, "ultima_rilevazione": "15/06/2022 16:50:33"}, {"Gestore": "INGROSSO S. S.N.C. DI INGROSSO SARA E LICCARDI ROBERTO", "Bandiera": "Agip Eni", "Tipo impianto": "Altro", "Indirizzo": "viale dello stadio  73100", "Nome impianto": "stazione eni", "Comune": "LECCE", "idImpianto": 43405, "points": [{"type": "Feature", "properties": {}, "geometry": {"type": "Point", "coordinates": [18.18668636441805, 40.36039113141885]}}], "price": 2.009, "ultima_rilevazione": "16/06/2022 05:41:38"}, {"Gestore": "MANNI ANTONIO", "Bandiera": "Agip Eni", "Tipo impianto": "Altro", "Indirizzo": "VIA LUPIAE  73100", "Nome impianto": "ENI ", "Comune": "LECCE", "idImpianto": 42187, "points": [{"type": "Feature", "properties": {}, "geometry": {"type": "Point", "coordinates": [18.1926029920578, 40.35837874201901]}}], "price": 2.029, "ultima_rilevazione": "16/06/2022 06:37:10"}, {"Gestore": "VEGA CARBURANTI S.P.A.", "Bandiera": "Enercoop", "Tipo impianto": "Altro", "Indirizzo": " S.S.16 KM.964+740 DIREZ. NORD SNC 73020", "Nome impianto": "Enercoop Lecce Cavallino", "Comune": "CAVALLINO", "idImpianto": 48705, "points": [{"type": "Feature", "properties": {}, "geometry": {"type": "Point", "coordinates": [18.202272504299145, 40.28053443914162]}}], "price": 1.999, "ultima_rilevazione": "16/06/2022 08:18:49"}, {"Gestore": "AVIO LAMP DI GIANNELLI EMANUELE & C. S.A.S.", "Bandiera": "Api-Ip", "Tipo impianto": "Altro", "Indirizzo": "via Foscolo  73100", "Nome impianto": "AVIOLAMP LECCE - via foscolo", "Comune": "LECCE", "idImpianto": 39600, "points": [{"type": "Feature", "properties": {}, "geometry": {"type": "Point", "coordinates": [18.171351179480556, 40.36158467577352]}}], "price": 2.029, "ultima_rilevazione": "16/06/2022 09:14:52"}, {"Gestore": "SPINETTA RAFFAELE", "Bandiera": "Agip Eni", "Tipo impianto": "Altro", "Indirizzo": "Viale della Repubblica 86, 73100", "Nome impianto": "Stazione di Servizio Eni", "Comune": "LECCE", "idImpianto": 13174, "points": [{"type": "Feature", "properties": {}, "geometry": {"type": "Point", "coordinates": [18.15308064222336, 40.3559436346232]}}], "price": 2.009, "ultima_rilevazione": "16/06/2022 11:46:49"}, {"Gestore": "MANNI PETROLI S.R.L.", "Bandiera": "Q8", "Tipo impianto": "Altro", "Indirizzo": "VIALE DELLA REPUBBLICA  73100", "Nome impianto": "Q8", "Comune": "LECCE", "idImpianto": 43124, "points": [{"type": "Feature", "properties": {}, "geometry": {"type": "Point", "coordinates": [18.15594486594728, 40.35943664246448]}}], "price": 2.009, "ultima_rilevazione": "16/06/2022 12:34:37"}, {"Gestore": "SERVIZI & GESTIONI ITALIA S.R.L.", "Bandiera": "Q8", "Tipo impianto": "Altro", "Indirizzo": "VIA ROMA  73100", "Nome impianto": "LECCE - VIA ROMA", "Comune": "LECCE", "idImpianto": 31875, "points": [{"type": "Feature", "properties": {}, "geometry": {"type": "Point", "coordinates": [18.204743073680103, 40.36186413726136]}}], "price": 2.024, "ultima_rilevazione": "17/06/2022 01:45:17"}, {"Gestore": "BI ESSE GESTIONI S.R.L.", "Bandiera": "Pompe Bianche", "Tipo impianto": "Altro", "Indirizzo": "VIALE DELLA LIBERTA' 227 73100", "Nome impianto": "BI ESSE GESTIONI SRL", "Comune": "LECCE", "idImpianto": 21172, "points": [{"type": "Feature", "properties": {}, "geometry": {"type": "Point", "coordinates": [18.209236870544373, 40.36369876640208]}}], "price": 1.999, "ultima_rilevazione": "17/06/2022 06:31:34"}, {"Gestore": "DELTA OIL COMPANY S.R.L.", "Bandiera": "Q8", "Tipo impianto": "Altro", "Indirizzo": "VIA VERNOLE KM. 1,5 SN 73100", "Nome impianto": "DELTA OIL COMPANY SRL", "Comune": "LECCE", "idImpianto": 11077, "points": [{"type": "Feature", "properties": {}, "geometry": {"type": "Point", "coordinates": [18.2028865814209, 40.3446347871546]}}], "price": 2.019, "ultima_rilevazione": "17/06/2022 13:34:45"}, {"Gestore": "A.R. SERVICE SNC DI ROBERTO LANDOLFO E ANTONIO MARIANO", "Bandiera": "Esso", "Tipo impianto": "Strada Statale", "Indirizzo": "613 Brindisi-Lecce, Km. 1+900, Brindisi 73100", "Nome impianto": "ESSO", "Comune": "LECCE", "idImpianto": 49968, "points": [{"type": "Feature", "properties": {}, "geometry": {"type": "Point", "coordinates": [18.163535631591404, 40.36586078961672]}}], "price": 2.039, "ultima_rilevazione": "17/06/2022 14:56:19"}, {"Gestore": "MELLO CARBURANTI S.A.S. DI MELLO GINO & C.", "Bandiera": "Agip Eni", "Tipo impianto": "Altro", "Indirizzo": "via alcide de gasperi snc 73047", "Nome impianto": "MELLO CARBURANTI SAS", "Comune": "MONTERONI DI LECCE", "idImpianto": 41453, "points": [{"type": "Feature", "properties": {}, "geometry": {"type": "Point", "coordinates": [18.101253658533096, 40.32781109626308]}}], "price": 2.009, "ultima_rilevazione": "18/06/2022 06:54:23"}, {"Gestore": "SERVIZI & GESTIONI ITALIA srl", "Bandiera": "Q8", "Tipo impianto": "Altro", "Indirizzo": "VIA GIAMMATTEO SNC 73100", "Nome impianto": "LECCE VIA GIAMMATTEO", "Comune": "LECCE", "idImpianto": 6761, "points": [{"type": "Feature", "properties": {}, "geometry": {"type": "Point", "coordinates": [18.17769404418027, 40.369906511222325]}}], "price": 1.489, "ultima_rilevazione": "18/06/2022 07:39:44"}, {"Gestore": "AGAPE SERVICE S.R.L.", "Bandiera": "Api-Ip", "Tipo impianto": "Altro", "Indirizzo": "Viale della Cavalleria  73100", "Nome impianto": "Agape Service Srl", "Comune": "LECCE", "idImpianto": 17678, "points": [{"type": "Feature", "properties": {}, "geometry": {"type": "Point", "coordinates": [18.20438159911837, 40.351786166913065]}}], "price": 2.009, "ultima_rilevazione": "18/06/2022 08:32:48"}, {"Gestore": "MINGIANO MAURIZIO", "Bandiera": "Q8", "Tipo impianto": "Altro", "Indirizzo": "VIA MARTANO 149 73023", "Nome impianto": "STAZIONE DI SERVIZIO Q8 DI MINGIANO MAURIZIO", "Comune": "LIZZANELLO", "idImpianto": 40467, "points": [{"type": "Feature", "properties": {}, "geometry": {"type": "Point", "coordinates": [18.215694257211226, 40.30685595147308]}}], "price": 2.029, "ultima_rilevazione": "18/06/2022 11:18:50"}, {"Gestore": "IP SERVICES S.R.L.", "Bandiera": "Api-Ip", "Tipo impianto": "Altro", "Indirizzo": "VIALE RISORGIMENTO  73100", "Nome impianto": "LECCE - RISORGIMENTO", "Comune": "LECCE", "idImpianto": 25343, "points": [{"type": "Feature", "properties": {}, "geometry": {"type": "Point", "coordinates": [18.15792145767216, 40.362832699722574]}}], "price": 2.009, "ultima_rilevazione": "18/06/2022 12:00:27"}, {"Gestore": "I.C.O.N. S.R.L.", "Bandiera": "Q8", "Tipo impianto": "Altro", "Indirizzo": "via Giammatteo angolo via Tanagro snc 73100", "Nome impianto": "LECCE 8622", "Comune": "LECCE", "idImpianto": 43682, "points": [{"type": "Feature", "properties": {}, "geometry": {"type": "Point", "coordinates": [18.177606761455536, 40.36993622887168]}}], "price": 2.069, "ultima_rilevazione": "18/06/2022 12:29:46"}, {"Gestore": "DE VITIS PIETRO LUIGI", "Bandiera": "Tamoil", "Tipo impianto": "Altro", "Indirizzo": "VIA ADRIATICA 114 73100", "Nome impianto": "TAMOIL", "Comune": "LECCE", "idImpianto": 21316, "points": [{"type": "Feature", "properties": {}, "geometry": {"type": "Point", "coordinates": [18.16861204841007, 40.3676164897029]}}], "price": 2.049, "ultima_rilevazione": "18/06/2022 15:08:07"}]}, "Metano": {"1": [], "3": [{"Gestore": "BALLARINO & MAIORANO SRL", "Bandiera": "Q8", "Tipo impianto": "Strada Statale", "Indirizzo": "101 Salentina di Gallipoli, Km. 7.600, GALLIPOLI 73010", "Nome impianto": "Q8 di Ballarino & Maiorano srl (Lequile)", "Comune": "LEQUILE", "idImpianto": 41413, "points": [{"type": "Feature", "properties": {}, "geometry": {"type": "Point", "coordinates": [18.13157469034195, 40.28748513478287]}}], "price": 1.45, "ultima_rilevazione": "17/06/2022 09:49:42"}, {"Gestore": "APRON S.R.L.", "Bandiera": "Pompe Bianche", "Tipo impianto": "Strada Statale", "Indirizzo": "16 Adriatica, Km. IX/961+58MT, LECCE 73020", "Nome impianto": "APRON ", "Comune": "CAVALLINO", "idImpianto": 45657, "points": [{"type": "Feature", "properties": {}, "geometry": {"type": "Point", "coordinates": [18.189189000123, 40.311863000123]}}], "price": 2.2, "ultima_rilevazione": "18/06/2022 10:19:08"}], "5": [{"Gestore": "DELTA OIL COMPANY S.R.L.", "Bandiera": "Q8", "Tipo impianto": "Altro", "Indirizzo": "VIA VERNOLE KM. 1,5 SN 73100", "Nome impianto": "DELTA OIL COMPANY SRL", "Comune": "LECCE", "idImpianto": 11077, "points": [{"type": "Feature", "properties": {}, "geometry": {"type": "Point", "coordinates": [18.2028865814209, 40.3446347871546]}}], "price": 1.82, "ultima_rilevazione": "17/06/2022 13:34:45"}]}}