{"area_comune": "[{\"type\": \"Feature\", \"properties\": {}, \"geometry\": {\"type\": \"Polygon\", \"coordinates\": [[[14.34702967998205, 40.84728182388022], [14.356151414450231, 40.83833059073854], [14.354675660226253, 40.83543199657138], [14.352678732868863, 40.83368155071111], [14.350836939960624, 40.83342502291842], [14.349458267775814, 40.83292571313627], [14.350139946375998, 40.83059246405995], [14.351789037554541, 40.83000938231987], [14.350978098794355, 40.8280439575786], [14.349629942433088, 40.827584492052615], [14.334573567527343, 40.825426501915125], [14.331728181007142, 40.825858852756866], [14.330578160257716, 40.825844611820585], [14.32815353963429, 40.82539968843898], [14.323165805238675, 40.82311542226062], [14.317905075887856, 40.82530381021269], [14.316401782910793, 40.82620413410895], [14.315539774052251, 40.827716490058855], [14.31578015913655, 40.827893296760976], [14.316586207110454, 40.82796857634006], [14.319599055580646, 40.82777120608326], [14.325658185051758, 40.82934671102432], [14.330027081786298, 40.836701934469716], [14.341385850222943, 40.84094954343929], [14.339123831991182, 40.84547040762044], [14.342947889401275, 40.84669431873686], [14.34702967998205, 40.84728182388022]]]}}]", "comune": "san-giorgio-a-cremano", "buffer_1": "[{\"type\": \"Feature\", \"properties\": {}, \"geometry\": {\"type\": \"Polygon\", \"coordinates\": [[[14.339084837455578, 40.853941691940534], [14.33997114211777, 40.85449439898307], [14.340923759279253, 40.854979361266054], [14.341933740291276, 40.855392022763944], [14.34299159704709, 40.85572850667134], [14.34408739119242, 40.85598565185864], [14.3452108275876, 40.85616104259733], [14.346351351138857, 40.856253031274115], [14.347498246084111, 40.85626075388005], [14.348640736794861, 40.85618413812792], [14.34976808914139, 40.8560239041223], [14.350869711463163, 40.85578155757554], [14.351935254190112, 40.85545937563498], [14.352954707173675, 40.85506038545501], [14.353918493808582, 40.85458833571728], [14.354817561057246, 40.85404766136793], [14.355643464528203, 40.85344344190567], [14.35638844780742, 40.85278135361428], [14.365509514584367, 40.843829413061044], [14.366200273791192, 40.84307449316281], [14.366785839496325, 40.84226992572043], [14.367260086226805, 40.84142413284904], [14.367618054353557, 40.840545967836064], [14.367856001837714, 40.83964462243304], [14.367971443208074, 40.83872953061975], [14.367963175369518, 40.83781026984888], [14.367831289980822, 40.83689646080554], [14.367577172281273, 40.8359976667313], [14.367203486387352, 40.83512329336535], [14.362028811902514, 40.82483724612686], [14.361580153643569, 40.8240580108849], [14.361036534928845, 40.82331448489764], [14.360402827637701, 40.8226133276147], [14.359684709992951, 40.82196081883872], [14.358888615651441, 40.82136280252217], [14.358021676054133, 40.82082463446968], [14.357091656552596, 40.82035113441281], [14.356106886883714, 40.81994654288428], [14.35507618661386, 40.81961448327631], [14.354008786218207, 40.81935792942141], [14.35291424449893, 40.81917917898432], [14.351802363078171, 40.819079832902496], [14.317230755890066, 40.817239968942715], [14.316060303008177, 40.81722161616097], [14.314893191947741, 40.8172912428546], [14.313740851005539, 40.8174481675284], [14.312614564096918, 40.81769085385145], [14.31152536038546, 40.81801692567257], [14.310483906389802, 40.818423190251174], [14.30950040161888, 40.81890566947803], [14.308584478753017, 40.81945963878204], [14.307745109345174, 40.82007967334429], [14.3069905159635, 40.820759701169585], [14.306328091634962, 40.821493062497815], [14.305764327379388, 40.822272574976346], [14.305304748545657, 40.8230906039572], [14.304953860576639, 40.823939137233], [14.304715104738555, 40.824809863481384], [14.304590824253602, 40.82569425365137], [14.304582241173861, 40.82658364449525], [14.304689444229687, 40.82746932342881], [14.304911387778667, 40.82834261388838], [14.305245901872617, 40.82919496034847], [14.305689713350779, 40.830018012166086], [14.30623847775911, 40.830803705429126], [14.306886821788483, 40.831544342005074], [14.3076283958209, 40.83223266501368], [14.308455936072392, 40.83286192998171], [14.339084837455578, 40.853941691940534]]]}}]", "buffer_3": "[{\"type\": \"Feature\", \"properties\": {}, \"geometry\": {\"type\": \"Polygon\", \"coordinates\": [[[14.323190392593299, 40.86726006078175], [14.325849562284322, 40.86891851615837], [14.328707838408887, 40.87037370693353], [14.331738359111824, 40.87161195362327], [14.334912638417444, 40.872621615968036], [14.338200834673032, 40.87339320267002], [14.341572031933095, 40.87391946086649], [14.344994531599585, 40.87419544448638], [14.348436151530633, 40.87421856083889], [14.351864529755748, 40.87398859499147], [14.35524742988967, 40.87350771170711], [14.358553045320773, 40.87278043492589], [14.36175029926307, 40.87181360499033], [14.364809137803663, 40.870616314027316], [14.36770081314878, 40.86919982010758], [14.370398154371115, 40.867577441005785], [14.372875823087206, 40.86576442857832], [14.375110551645133, 40.863777824959065], [14.384230280476872, 40.854824469483], [14.386302138792026, 40.85255938297876], [14.388058243466713, 40.85014539872107], [14.389480242864812, 40.847607794829166], [14.390553289072635, 40.844973140568285], [14.391266191840742, 40.84226901783346], [14.391611534015446, 40.83952373216533], [14.391585747322551, 40.83676601633514], [14.391189147787395, 40.834024729607954], [14.39042593050107, 40.83132855583264], [14.389304123867893, 40.82870570351231], [14.384126734143386, 40.81842082889755], [14.382780196489547, 40.816083413899705], [14.38114892289196, 40.81385315748793], [14.379247543877945, 40.811750026516506], [14.377093103274843, 40.8097928482117], [14.374704905157094, 40.80799914199719], [14.372104340787924, 40.80638496304536], [14.36931469711021, 40.804964758938], [14.36636094849747, 40.803751240703484], [14.363269533617425, 40.802755269368454], [14.360068119385726, 40.801985759026145], [14.356785354095626, 40.80144959727588], [14.35345061190025, 40.801151583736534], [14.318888415838469, 40.79931163832828], [14.315378010573987, 40.79925653618381], [14.31187760470694, 40.79946530233397], [14.308421446921162, 40.79993589674168], [14.305043355185184, 40.800663717425415], [14.301776386958421, 40.801641645232046], [14.298652516683237, 40.802860113167206], [14.295702323670804, 40.80430719961994], [14.292954693395219, 40.80596874458727], [14.290436535089034, 40.807828487782224], [14.288172518384835, 40.80986822729545], [14.286184831573268, 40.81206799728059], [14.284492963848459, 40.81440626294681], [14.283113513689424, 40.816860130971314], [14.282060025281755, 40.81940557329181], [14.281342854620068, 40.82201766210484], [14.280969066650314, 40.82467081378292], [14.280942364514392, 40.82733903933134], [14.281263051650644, 40.82999619893824], [14.281928027184785, 40.83261625812479], [14.282930814720459, 40.83517354298401], [14.284261624309408, 40.83764299199901], [14.285907447051935, 40.840000401961966], [14.287852181452052, 40.84222266556829], [14.290076790331948, 40.844287998338956], [14.29255948680081, 40.846176152625965], [14.323190392593299, 40.86726006078175]]]}}]", "buffer_5": "[{\"type\": \"Feature\", \"properties\": {}, \"geometry\": {\"type\": \"Polygon\", \"coordinates\": [[[14.307289597305465, 40.880576603966496], [14.311721972363594, 40.88334125372708], [14.316486473424863, 40.88576707868042], [14.321538304233796, 40.887831260629326], [14.32682995205571, 40.88951438269021], [14.332311636437327, 40.89080061280947], [14.337931779847798, 40.89167785338546], [14.343637495662701, 40.89213785555531], [14.349375088772737, 40.892176297047826], [14.355090563967753, 40.89179282285674], [14.360730137166813, 40.890991048349115], [14.36624074453697, 40.88977852478803], [14.371570544568398, 40.888166667613504], [14.376669408250102, 40.886170648184965], [14.38148939261829, 40.88380925004203], [14.385985193126311, 40.88110469108082], [14.390114570508603, 40.87808241336953], [14.393838748078286, 40.874770842634625], [14.402957135545252, 40.865816072103705], [14.406409532449372, 40.86204038328539], [14.4093353847058, 40.85801660653013], [14.411704147696154, 40.85378689165351], [14.413491126646552, 40.849395536413454], [14.41467773102349, 40.84488852166531], [14.415251664408547, 40.840313029264365], [14.415207048062161, 40.83571694779674], [14.41454447709841, 40.83114837133049], [14.413271008906802, 40.8266550964342], [14.411400084165484, 40.82228412271058], [14.406219982425686, 40.81200042175951], [14.403974816182496, 40.80810521496923], [14.401255332460122, 40.804388657033236], [14.398085940177037, 40.80088400688191], [14.39449506087226, 40.797622622932536], [14.390514873084433, 40.794633683522996], [14.38618102374776, 40.79194392690177], [14.381532309201356, 40.789577413055014], [14.376610328656243, 40.787555309455215], [14.371459113187468, 40.785895702605735], [14.366124733515438, 40.78461343702744], [14.360654890010492, 40.78371998309444], [14.355098488496486, 40.78322333487362], [14.320545695215376, 40.78138330739284], [14.314696607319942, 40.78129139745494], [14.308864141698699, 40.781639151269104], [14.303105319266765, 40.78242317617561], [14.297476447113292, 40.78363581386507], [14.292032571031443, 40.78526521454665], [14.286826939950714, 40.787295451897855], [14.281910487376193, 40.78970667771357], [14.277331334795537, 40.79247531479209], [14.273134321826804, 40.79557428622846], [14.269360567649302, 40.79897327893344], [14.266047067986682, 40.80263903886377], [14.263226331597684, 40.80653569513766], [14.260926059877368, 40.81062510992486], [14.259168872782094, 40.81486725074146], [14.257972083867758, 40.81922058155383], [14.257347526775819, 40.823642468901284], [14.257301435018576, 40.82808959908917], [14.257834376408441, 40.832518402383506], [14.258941242949287, 40.83688548005577], [14.260611296466628, 40.841148030086174], [14.262828269702439, 40.845264267332816], [14.265570522045078, 40.84919383401712], [14.268811248511634, 40.85289819645885], [14.272518740054347, 40.856341024120326], [14.276656692731411, 40.85948854718511], [14.307289597305465, 40.880576603966496]]]}}]", "centroid": "[{\"type\": \"Feature\", \"properties\": {}, \"geometry\": {\"type\": \"Point\", \"coordinates\": [14.337619004890334, 40.83402841551777]}}]", "Diesel High Quality": {"1": [{"Gestore": "VITIELLO CIRO", "Bandiera": "Q8", "Tipo impianto": "Altro", "Indirizzo": "VIA DELLE REPUBBLICHE MARINARE 295 80146", "Nome impianto": "STAZIONE DI SERVIZIO Q8 di VITIELLO CIRO", "Comune": "NAPOLI", "idImpianto": 46689, "points": [{"type": "Feature", "properties": {}, "geometry": {"type": "Point", "coordinates": [14.315652205890729, 40.83684850871609]}}], "price": 2.399, "ultima_rilevazione": "20/04/2022 18:48:37"}, {"Gestore": "VITIELLO CIRO", "Bandiera": "Q8", "Tipo impianto": "Altro", "Indirizzo": "VIA DELLE REPUBBLICHE MARINARE 295 80146", "Nome impianto": "STAZIONE DI SERVIZIO Q8 di VITIELLO CIRO", "Comune": "NAPOLI", "idImpianto": 46689, "points": [{"type": "Feature", "properties": {}, "geometry": {"type": "Point", "coordinates": [14.315652205890729, 40.83684850871609]}}], "price": 2.439, "ultima_rilevazione": "20/04/2022 18:48:37"}, {"Gestore": "SERVIZI & GESTIONI ITALIA S.R.L.", "Bandiera": "Q8", "Tipo impianto": "Altro", "Indirizzo": "VIA REPUBBLICHE MARINARE 392 80146", "Nome impianto": "NAPOLI-VIA REPUBBLICHE MARINARE 392", "Comune": "NAPOLI", "idImpianto": 11734, "points": [{"type": "Feature", "properties": {}, "geometry": {"type": "Point", "coordinates": [14.320937550926146, 40.831767528857256]}}], "price": 2.079, "ultima_rilevazione": "25/04/2022 00:34:43"}, {"Gestore": "SERVIZI & GESTIONI ITALIA S.R.L.", "Bandiera": "Q8", "Tipo impianto": "Altro", "Indirizzo": "VIA REPUBBLICHE MARINARE 392 80146", "Nome impianto": "NAPOLI-VIA REPUBBLICHE MARINARE 392", "Comune": "NAPOLI", "idImpianto": 11734, "points": [{"type": "Feature", "properties": {}, "geometry": {"type": "Point", "coordinates": [14.320937550926146, 40.831767528857256]}}], "price": 2.049, "ultima_rilevazione": "25/04/2022 00:34:43"}], "3": [{"Gestore": "SERVIZI & GESTIONI ITALIA srl", "Bandiera": "Q8", "Tipo impianto": "Altro", "Indirizzo": "VIA DEGLI ULIVI SNC 80056", "Nome impianto": "ERCOLANO VIA DEGLI ULIVI", "Comune": "ERCOLANO", "idImpianto": 6702, "points": [{"type": "Feature", "properties": {}, "geometry": {"type": "Point", "coordinates": [14.356227699999977, 40.81446484078589]}}], "price": 1.709, "ultima_rilevazione": "27/04/2022 02:06:42"}, {"Gestore": "FIORENTINO CARBURANTI S.A.S. DI FIORENTINO MARILENA", "Bandiera": "Q8", "Tipo impianto": "Altro", "Indirizzo": "via luigi volpicella 411 80142", "Nome impianto": "DISTRIBUTORE Q8", "Comune": "NAPOLI", "idImpianto": 48414, "points": [{"type": "Feature", "properties": {}, "geometry": {"type": "Point", "coordinates": [14.323330202083584, 40.84838010169506]}}], "price": 2.089, "ultima_rilevazione": "21/04/2022 07:50:50"}, {"Gestore": "ASCHETTINO DOMENICO", "Bandiera": "Esso", "Tipo impianto": "Altro", "Indirizzo": "VIA ARGINE 875 80147", "Nome impianto": "ESSO", "Comune": "NAPOLI", "idImpianto": 33559, "points": [{"type": "Feature", "properties": {}, "geometry": {"type": "Point", "coordinates": [14.33246299624443, 40.860406445681946]}}], "price": 1.879, "ultima_rilevazione": "26/04/2022 13:00:32"}], "5": [{"Gestore": "AMBROSINO GIOVANNI", "Bandiera": "Q8", "Tipo impianto": "Altro", "Indirizzo": "VIA EMANUELE GIANTURCO P.V. Q8  80142", "Nome impianto": "Q8", "Comune": "NAPOLI", "idImpianto": 17301, "points": [{"type": "Feature", "properties": {}, "geometry": {"type": "Point", "coordinates": [14.288224699697594, 40.85536601779113]}}], "price": 2.049, "ultima_rilevazione": "20/04/2022 10:06:41"}, {"Gestore": "ORGANIZZAZIONE SERVIZI AUTO - O.S.A. - S.P.A.", "Bandiera": "Esso", "Tipo impianto": "Altro", "Indirizzo": "VIA GALILEO FERRARIS 44/48 80142", "Nome impianto": "ESSO - G.FERRARIS", "Comune": "NAPOLI", "idImpianto": 48999, "points": [{"type": "Feature", "properties": {}, "geometry": {"type": "Point", "coordinates": [14.27604404038709, 40.85030964996206]}}], "price": 1.979, "ultima_rilevazione": "22/04/2022 11:21:47"}, {"Gestore": "CAR.IO S.R.L.", "Bandiera": "Q8", "Tipo impianto": "Altro", "Indirizzo": "VIA DELLE PUGLIE 176/A 80026", "Nome impianto": "BENZINA - GASOLIO - HIQ CASORIA", "Comune": "CASORIA", "idImpianto": 29071, "points": [{"type": "Feature", "properties": {}, "geometry": {"type": "Point", "coordinates": [14.31901598762738, 40.883618858465454]}}], "price": 1.959, "ultima_rilevazione": "22/04/2022 17:20:05"}, {"Gestore": "CARRARA PIETRO", "Bandiera": "Q8", "Tipo impianto": "Altro", "Indirizzo": "via emanuele gianturco frcv. 79 80142", "Nome impianto": "staz. servizio. q8 ", "Comune": "NAPOLI", "idImpianto": 17155, "points": [{"type": "Feature", "properties": {}, "geometry": {"type": "Point", "coordinates": [14.289340482265288, 40.85030685074771]}}], "price": 2.1, "ultima_rilevazione": "23/04/2022 07:49:42"}, {"Gestore": "CARRARA PIETRO", "Bandiera": "Q8", "Tipo impianto": "Altro", "Indirizzo": "via emanuele gianturco frcv. 79 80142", "Nome impianto": "staz. servizio. q8 ", "Comune": "NAPOLI", "idImpianto": 17155, "points": [{"type": "Feature", "properties": {}, "geometry": {"type": "Point", "coordinates": [14.289340482265288, 40.85030685074771]}}], "price": 2.3, "ultima_rilevazione": "23/04/2022 07:49:42"}, {"Gestore": "PETROLCOR S.R.L.", "Bandiera": "Esso", "Tipo impianto": "Altro", "Indirizzo": "VIA LUFRANO 61 80040", "Nome impianto": "ESSO", "Comune": "VOLLA", "idImpianto": 43903, "points": [{"type": "Feature", "properties": {}, "geometry": {"type": "Point", "coordinates": [14.338231457672125, 40.88577506948254]}}], "price": 1.99, "ultima_rilevazione": "23/04/2022 09:33:06"}, {"Gestore": "LUCARELLA ROSA PETROLI", "Bandiera": "Esso", "Tipo impianto": "Altro", "Indirizzo": "via del commercio snc 80059", "Nome impianto": "stazione di servizio esso lucarella", "Comune": "TORRE DEL GRECO", "idImpianto": 12189, "points": [{"type": "Feature", "properties": {}, "geometry": {"type": "Point", "coordinates": [14.358681589365004, 40.79220939502857]}}], "price": 1.929, "ultima_rilevazione": "25/04/2022 09:25:57"}, {"Gestore": "DEL GATTO LUCA", "Bandiera": "Q8", "Tipo impianto": "Altro", "Indirizzo": "VIA GUGLIELMO MARCONI 61 80059", "Nome impianto": "Del Gatto Luca -Q8", "Comune": "TORRE DEL GRECO", "idImpianto": 35664, "points": [{"type": "Feature", "properties": {}, "geometry": {"type": "Point", "coordinates": [14.373119921634723, 40.79493791968526]}}], "price": 1.989, "ultima_rilevazione": "26/04/2022 11:02:58"}, {"Gestore": "DEL GATTO LUCA", "Bandiera": "Q8", "Tipo impianto": "Altro", "Indirizzo": "VIA GUGLIELMO MARCONI 61 80059", "Nome impianto": "Del Gatto Luca -Q8", "Comune": "TORRE DEL GRECO", "idImpianto": 35664, "points": [{"type": "Feature", "properties": {}, "geometry": {"type": "Point", "coordinates": [14.373119921634723, 40.79493791968526]}}], "price": 2.489, "ultima_rilevazione": "26/04/2022 11:02:58"}]}, "Blue Diesel": {"1": [{"Gestore": "STAZIONE I.P. DI DE LUCA ALFONSO", "Bandiera": "Agip Eni", "Tipo impianto": "Altro", "Indirizzo": "Via gianturco 26 80046", "Nome impianto": "Stazione eni De LUCA ALFONSO", "Comune": "SAN GIORGIO A CREMANO", "idImpianto": 32177, "points": [{"type": "Feature", "properties": {}, "geometry": {"type": "Point", "coordinates": [14.342876389306412, 40.83164723763404]}}], "price": 2.344, "ultima_rilevazione": "23/04/2022 20:39:11"}], "3": [], "5": [{"Gestore": "DE LUCA LUIGI", "Bandiera": "Agip Eni", "Tipo impianto": "Altro", "Indirizzo": "VIA STADERA A POGGIOREALE  80143", "Nome impianto": "DE LUCA LUIGI", "Comune": "NAPOLI", "idImpianto": 35375, "points": [{"type": "Feature", "properties": {}, "geometry": {"type": "Point", "coordinates": [14.306204840540886, 40.874918260187705]}}], "price": 1.539, "ultima_rilevazione": "22/04/2022 07:43:06"}, {"Gestore": "DE LUCA LUIGI", "Bandiera": "Agip Eni", "Tipo impianto": "Altro", "Indirizzo": "VIA STADERA A POGGIOREALE  80143", "Nome impianto": "DE LUCA LUIGI", "Comune": "NAPOLI", "idImpianto": 35375, "points": [{"type": "Feature", "properties": {}, "geometry": {"type": "Point", "coordinates": [14.306204840540886, 40.874918260187705]}}], "price": 2.284, "ultima_rilevazione": "22/04/2022 07:43:06"}, {"Gestore": "PICCOLO GROUP S.R.L.", "Bandiera": "Agip Eni", "Tipo impianto": "Altro", "Indirizzo": "S.S.162 dir Napoli Km 6+513  80040", "Nome impianto": "PICCOLO GROUP", "Comune": "POLLENA TROCCHIA", "idImpianto": 7526, "points": [{"type": "Feature", "properties": {}, "geometry": {"type": "Point", "coordinates": [14.371241382063545, 40.876544472375066]}}], "price": 1.869, "ultima_rilevazione": "20/04/2022 07:20:08"}, {"Gestore": "PICCOLO GROUP S.R.L.", "Bandiera": "Agip Eni", "Tipo impianto": "Altro", "Indirizzo": "S.S.162 dir Napoli Km 6+513  80040", "Nome impianto": "PICCOLO GROUP", "Comune": "POLLENA TROCCHIA", "idImpianto": 7526, "points": [{"type": "Feature", "properties": {}, "geometry": {"type": "Point", "coordinates": [14.371241382063545, 40.876544472375066]}}], "price": 2.0, "ultima_rilevazione": "20/04/2022 07:20:08"}, {"Gestore": "GRIMALDI CONCETTA", "Bandiera": "Agip Eni", "Tipo impianto": "Altro", "Indirizzo": "via stadera  80143", "Nome impianto": "ENI 08063", "Comune": "NAPOLI", "idImpianto": 48194, "points": [{"type": "Feature", "properties": {}, "geometry": {"type": "Point", "coordinates": [14.30035925986909, 40.87103647502646]}}], "price": 1.869, "ultima_rilevazione": "21/04/2022 19:15:22"}, {"Gestore": "GRIMALDI CONCETTA", "Bandiera": "Agip Eni", "Tipo impianto": "Altro", "Indirizzo": "via stadera  80143", "Nome impianto": "ENI 08063", "Comune": "NAPOLI", "idImpianto": 48194, "points": [{"type": "Feature", "properties": {}, "geometry": {"type": "Point", "coordinates": [14.30035925986909, 40.87103647502646]}}], "price": 1.949, "ultima_rilevazione": "21/04/2022 19:15:22"}, {"Gestore": "RICCIARDI GIACINTO", "Bandiera": "Agip Eni", "Tipo impianto": "Altro", "Indirizzo": "VIA LEOPARDI 30 80040", "Nome impianto": "eni", "Comune": "VOLLA", "idImpianto": 20441, "points": [{"type": "Feature", "properties": {}, "geometry": {"type": "Point", "coordinates": [14.339417601852348, 40.88026141875078]}}], "price": 1.869, "ultima_rilevazione": "26/04/2022 18:17:22"}, {"Gestore": "RICCIARDI GIACINTO", "Bandiera": "Agip Eni", "Tipo impianto": "Altro", "Indirizzo": "VIA LEOPARDI 30 80040", "Nome impianto": "eni", "Comune": "VOLLA", "idImpianto": 20441, "points": [{"type": "Feature", "properties": {}, "geometry": {"type": "Point", "coordinates": [14.339417601852348, 40.88026141875078]}}], "price": 1.929, "ultima_rilevazione": "26/04/2022 18:17:22"}, {"Gestore": "MASI VITO", "Bandiera": "Agip Eni", "Tipo impianto": "Altro", "Indirizzo": "VIA E.GIANTURCO 114 80142", "Nome impianto": "masi vito", "Comune": "NAPOLI", "idImpianto": 16846, "points": [{"type": "Feature", "properties": {}, "geometry": {"type": "Point", "coordinates": [14.288344113215317, 40.84787307234628]}}], "price": 1.929, "ultima_rilevazione": "27/04/2022 05:37:40"}, {"Gestore": "MASI VITO", "Bandiera": "Agip Eni", "Tipo impianto": "Altro", "Indirizzo": "VIA E.GIANTURCO 114 80142", "Nome impianto": "masi vito", "Comune": "NAPOLI", "idImpianto": 16846, "points": [{"type": "Feature", "properties": {}, "geometry": {"type": "Point", "coordinates": [14.288344113215317, 40.84787307234628]}}], "price": 1.889, "ultima_rilevazione": "27/04/2022 05:37:40"}, {"Gestore": "ENI FUEL S.P.A.", "Bandiera": "Agip Eni", "Tipo impianto": "Altro", "Indirizzo": "Via Volta 31 80142", "Nome impianto": "28061 \u2013 Napoli Volta", "Comune": "NAPOLI", "idImpianto": 49635, "points": [{"type": "Feature", "properties": {}, "geometry": {"type": "Point", "coordinates": [14.279558878732132, 40.84557216349965]}}], "price": 1.889, "ultima_rilevazione": "27/04/2022 07:14:06"}]}, "Benzina": {"1": [{"Gestore": "STAZIONE I.P. DI DE LUCA ALFONSO", "Bandiera": "Agip Eni", "Tipo impianto": "Altro", "Indirizzo": "Via gianturco 26 80046", "Nome impianto": "Stazione eni De LUCA ALFONSO", "Comune": "SAN GIORGIO A CREMANO", "idImpianto": 32177, "points": [{"type": "Feature", "properties": {}, "geometry": {"type": "Point", "coordinates": [14.342876389306412, 40.83164723763404]}}], "price": 2.214, "ultima_rilevazione": "23/04/2022 20:39:11"}, {"Gestore": "MADONNA GIUSEPPE", "Bandiera": "Energas", "Tipo impianto": "Altro", "Indirizzo": "VIA BENEDETTO COZZOLINO 66 80056", "Nome impianto": "ENERGAS", "Comune": "ERCOLANO", "idImpianto": 44395, "points": [{"type": "Feature", "properties": {}, "geometry": {"type": "Point", "coordinates": [14.356550574302672, 40.82674310725152]}}], "price": 2.229, "ultima_rilevazione": "26/04/2022 08:49:45"}, {"Gestore": "A 5 PETROLI S.R.L.", "Bandiera": "Pompe Bianche", "Tipo impianto": "Altro", "Indirizzo": "VIA SACERDOTE B. COZZOLINO SNC 80056", "Nome impianto": "A5", "Comune": "ERCOLANO", "idImpianto": 14708, "points": [{"type": "Feature", "properties": {}, "geometry": {"type": "Point", "coordinates": [14.360169544816015, 40.83495010160629]}}], "price": 1.769, "ultima_rilevazione": "26/04/2022 15:44:14"}, {"Gestore": "VITIELLO CIRO", "Bandiera": "Q8", "Tipo impianto": "Altro", "Indirizzo": "VIA DELLE REPUBBLICHE MARINARE 295 80146", "Nome impianto": "STAZIONE DI SERVIZIO Q8 di VITIELLO CIRO", "Comune": "NAPOLI", "idImpianto": 46689, "points": [{"type": "Feature", "properties": {}, "geometry": {"type": "Point", "coordinates": [14.315652205890729, 40.83684850871609]}}], "price": 1.779, "ultima_rilevazione": "20/04/2022 18:48:37"}, {"Gestore": "N.D. CARBURANTI S.A.S. DI AGOSTINO NOCERINO", "Bandiera": "Agip Eni", "Tipo impianto": "Altro", "Indirizzo": "VIA ARMANDO DIAZ 45 80055", "Nome impianto": "ENI Station PORTICI", "Comune": "PORTICI", "idImpianto": 33969, "points": [{"type": "Feature", "properties": {}, "geometry": {"type": "Point", "coordinates": [14.335999553987676, 40.81948243070002]}}], "price": 1.964, "ultima_rilevazione": "21/04/2022 09:40:52"}, {"Gestore": "A.G. CARBURANTI S.R.L.S.", "Bandiera": "Pompe Bianche", "Tipo impianto": "Altro", "Indirizzo": "CORSO SAN GIOVANI A TEDUCCIO  904 80146", "Nome impianto": "SAN GIOVANNI", "Comune": "NAPOLI", "idImpianto": 50925, "points": [{"type": "Feature", "properties": {}, "geometry": {"type": "Point", "coordinates": [14.315750078909794, 40.82656931895564]}}], "price": 1.739, "ultima_rilevazione": "21/04/2022 14:16:41"}, {"Gestore": "MARANO E BORRELLI S.R.L.", "Bandiera": "Pompe Bianche", "Tipo impianto": "Altro", "Indirizzo": "VIA BARTOLO LONGO SNC 80147", "Nome impianto": "Ip V. Bartolo Longo", "Comune": "NAPOLI", "idImpianto": 39906, "points": [{"type": "Feature", "properties": {}, "geometry": {"type": "Point", "coordinates": [14.33407299220562, 40.8489176571844]}}], "price": 1.759, "ultima_rilevazione": "21/04/2022 14:43:57"}, {"Gestore": "MARANO E BORRELLI S.R.L.", "Bandiera": "Api-Ip", "Tipo impianto": "Altro", "Indirizzo": "VIA BARTOLO LONGO ANGOLO V. MORMONE 347 80147", "Nome impianto": "IP B.LONGO ANGOLO V. MORMONE", "Comune": "NAPOLI", "idImpianto": 43420, "points": [{"type": "Feature", "properties": {}, "geometry": {"type": "Point", "coordinates": [14.340875682209004, 40.841399970848]}}], "price": 1.759, "ultima_rilevazione": "21/04/2022 16:04:42"}, {"Gestore": "GENNY PETROLI DI SANTANASTASIA GENNARO S.A.S.", "Bandiera": "Total Erg", "Tipo impianto": "Altro", "Indirizzo": "VIA DELLE REPUBBLICHE MARINARE 0 80146", "Nome impianto": "ERG", "Comune": "NAPOLI", "idImpianto": 39068, "points": [{"type": "Feature", "properties": {}, "geometry": {"type": "Point", "coordinates": [14.319584369659424, 40.83308916199512]}}], "price": 1.739, "ultima_rilevazione": "22/04/2022 07:31:30"}, {"Gestore": "PICCOLO FRANCESCO", "Bandiera": "Q8", "Tipo impianto": "Altro", "Indirizzo": "VIA SAC. BENEDETTO COZZOLINO 10 80056", "Nome impianto": "Q8", "Comune": "ERCOLANO", "idImpianto": 43948, "points": [{"type": "Feature", "properties": {}, "geometry": {"type": "Point", "coordinates": [14.357609565641384, 40.83115682467383]}}], "price": 1.777, "ultima_rilevazione": "23/04/2022 09:48:34"}, {"Gestore": "CLAJL DI DI MAIO GAETANO", "Bandiera": "Api-Ip", "Tipo impianto": "Altro", "Indirizzo": "VIA DELLA PACE  80040", "Nome impianto": "CLAJL DI DI MAIO GAETANO", "Comune": "SAN SEBASTIANO AL VESUVIO", "idImpianto": 15976, "points": [{"type": "Feature", "properties": {}, "geometry": {"type": "Point", "coordinates": [14.362389743328094, 40.8439104946054]}}], "price": 1.739, "ultima_rilevazione": "24/04/2022 07:22:19"}, {"Gestore": "SERVIZI & GESTIONI ITALIA S.R.L.", "Bandiera": "Q8", "Tipo impianto": "Altro", "Indirizzo": "VIA MANZONI  80046", "Nome impianto": "SAN GIORGIO A CREMANO VIA MANZONI", "Comune": "SAN GIORGIO A CREMANO", "idImpianto": 24046, "points": [{"type": "Feature", "properties": {}, "geometry": {"type": "Point", "coordinates": [14.342639841733558, 40.83816315925255]}}], "price": 1.735, "ultima_rilevazione": "25/04/2022 00:34:41"}, {"Gestore": "SERVIZI & GESTIONI ITALIA S.R.L.", "Bandiera": "Q8", "Tipo impianto": "Altro", "Indirizzo": "VIA REP. MARINARE  80146", "Nome impianto": "NAPOLI V.REP.MARINARE", "Comune": "NAPOLI", "idImpianto": 25792, "points": [{"type": "Feature", "properties": {}, "geometry": {"type": "Point", "coordinates": [14.31483351600798, 40.83676195375583]}}], "price": 1.729, "ultima_rilevazione": "25/04/2022 00:34:41"}, {"Gestore": "SERVIZI & GESTIONI ITALIA S.R.L.", "Bandiera": "Q8", "Tipo impianto": "Altro", "Indirizzo": "VIA REPUBBLICHE MARINARE 392 80146", "Nome impianto": "NAPOLI-VIA REPUBBLICHE MARINARE 392", "Comune": "NAPOLI", "idImpianto": 11734, "points": [{"type": "Feature", "properties": {}, "geometry": {"type": "Point", "coordinates": [14.320937550926146, 40.831767528857256]}}], "price": 1.749, "ultima_rilevazione": "25/04/2022 00:34:43"}, {"Gestore": "P.PETROLI SRL", "Bandiera": "Pompe Bianche", "Tipo impianto": "Altro", "Indirizzo": "CORSO G. GARIBALDI SNC 80055", "Nome impianto": "P.PETROLI - Portici", "Comune": "PORTICI", "idImpianto": 47612, "points": [{"type": "Feature", "properties": {}, "geometry": {"type": "Point", "coordinates": [14.324789778647755, 40.82189479630672]}}], "price": 1.739, "ultima_rilevazione": "26/04/2022 06:31:43"}, {"Gestore": "SCHERILLO GIOVANNI", "Bandiera": "Pompe Bianche", "Tipo impianto": "Altro", "Indirizzo": "largo arso 41 80046", "Nome impianto": "Unoil ( ex Esso )", "Comune": "SAN GIORGIO A CREMANO", "idImpianto": 36466, "points": [{"type": "Feature", "properties": {}, "geometry": {"type": "Point", "coordinates": [14.330108392620332, 40.82580604967606]}}], "price": 1.899, "ultima_rilevazione": "26/04/2022 10:49:42"}, {"Gestore": "IP SERVICES S.R.L.", "Bandiera": "Api-Ip", "Tipo impianto": "Altro", "Indirizzo": "VIA EUROPA SNC 80040", "Nome impianto": "CERCOLA - EUROPA", "Comune": "CERCOLA", "idImpianto": 24256, "points": [{"type": "Feature", "properties": {}, "geometry": {"type": "Point", "coordinates": [14.356618775463176, 40.85036956684552]}}], "price": 1.739, "ultima_rilevazione": "26/04/2022 12:01:55"}, {"Gestore": "DE FALCO MARIKA", "Bandiera": "Esso", "Tipo impianto": "Altro", "Indirizzo": "VIA DELLE REPUBBLICHE MARINARE 292  80146", "Nome impianto": "STAZIONE DI SERVIZIO ESSO", "Comune": "NAPOLI", "idImpianto": 45228, "points": [{"type": "Feature", "properties": {}, "geometry": {"type": "Point", "coordinates": [14.316577000123, 40.835269000123]}}], "price": 1.709, "ultima_rilevazione": "26/04/2022 12:46:54"}, {"Gestore": "ROMANO LUCIA", "Bandiera": "Tamoil", "Tipo impianto": "Altro", "Indirizzo": "VIA EUROPA 26 80040", "Nome impianto": "TAMOIL di Romano Lucia", "Comune": "CERCOLA", "idImpianto": 34266, "points": [{"type": "Feature", "properties": {}, "geometry": {"type": "Point", "coordinates": [14.35477368832585, 40.85084286591616]}}], "price": 1.768, "ultima_rilevazione": "26/04/2022 13:32:05"}, {"Gestore": "SANNINO PETROLI S.R.L. ", "Bandiera": "Pompe Bianche", "Tipo impianto": "Altro", "Indirizzo": "VIA A.MANZONI 72 80046", "Nome impianto": "SP PETROLI SAN GIORGIO", "Comune": "SAN GIORGIO A CREMANO", "idImpianto": 30477, "points": [{"type": "Feature", "properties": {}, "geometry": {"type": "Point", "coordinates": [14.343853182764065, 40.83596353231729]}}], "price": 1.735, "ultima_rilevazione": "26/04/2022 14:52:45"}], "3": [{"Gestore": "BENE DOMENICO S.R.L.", "Bandiera": "Agip Eni", "Tipo impianto": "Altro", "Indirizzo": "VIA GARIBALDI 85 80040", "Nome impianto": "ENI", "Comune": "POLLENA TROCCHIA", "idImpianto": 41900, "points": [{"type": "Feature", "properties": {}, "geometry": {"type": "Point", "coordinates": [14.372101351618769, 40.86402024469228]}}], "price": 1.694, "ultima_rilevazione": "05/11/2021 11:35:06"}, {"Gestore": "ST OIL S.R.L.", "Bandiera": "Pompe Bianche", "Tipo impianto": "Altro", "Indirizzo": "VIA DON MINZONI 7 80040", "Nome impianto": "ST OIL", "Comune": "CERCOLA", "idImpianto": 37106, "points": [{"type": "Feature", "properties": {}, "geometry": {"type": "Point", "coordinates": [14.356422415977477, 40.86312612982553]}}], "price": 1.769, "ultima_rilevazione": "19/04/2022 21:52:28"}, {"Gestore": "ZEUS PETROL SOCIETA' A RESPONSABILITA' LIMITATA", "Bandiera": "Pompe Bianche", "Tipo impianto": "Altro", "Indirizzo": "VIA LIBERTA' 47 80040", "Nome impianto": "ZEUS PETROL S.R.L", "Comune": "SAN SEBASTIANO AL VESUVIO", "idImpianto": 42447, "points": [{"type": "Feature", "properties": {}, "geometry": {"type": "Point", "coordinates": [14.361203682208952, 40.84813394210836]}}], "price": 1.749, "ultima_rilevazione": "20/04/2022 14:54:58"}, {"Gestore": "FIORENTINO CARBURANTI S.A.S. DI FIORENTINO MARILENA", "Bandiera": "Q8", "Tipo impianto": "Altro", "Indirizzo": "via luigi volpicella 411 80142", "Nome impianto": "DISTRIBUTORE Q8", "Comune": "NAPOLI", "idImpianto": 48414, "points": [{"type": "Feature", "properties": {}, "geometry": {"type": "Point", "coordinates": [14.323330202083584, 40.84838010169506]}}], "price": 1.739, "ultima_rilevazione": "21/04/2022 07:50:50"}, {"Gestore": "BARBERIO CIRO", "Bandiera": "Pompe Bianche", "Tipo impianto": "Altro", "Indirizzo": "VIA PONTE DEI GRANILI 5 80146", "Nome impianto": "BFUELCARBURANTI di BARBERIO CIRO", "Comune": "NAPOLI", "idImpianto": 50375, "points": [{"type": "Feature", "properties": {}, "geometry": {"type": "Point", "coordinates": [14.29263822734356, 40.840508256893045]}}], "price": 1.749, "ultima_rilevazione": "21/04/2022 08:33:27"}, {"Gestore": "NOCERINO RAFFAELE & FIGLI S.A.S. DI NOCERINO GIOVANNI", "Bandiera": "Agip Eni", "Tipo impianto": "Altro", "Indirizzo": "VIA MATTEOTTI 22 80040", "Nome impianto": "ENI NOCERINO ", "Comune": "SAN SEBASTIANO AL VESUVIO", "idImpianto": 15064, "points": [{"type": "Feature", "properties": {}, "geometry": {"type": "Point", "coordinates": [14.36795102209021, 40.84405217673461]}}], "price": 1.799, "ultima_rilevazione": "21/04/2022 09:39:36"}, {"Gestore": "PENTA PETROLI SRL", "Bandiera": "Pompe Bianche", "Tipo impianto": "Altro", "Indirizzo": "VIA BOTEGHELLE SNC 80147", "Nome impianto": "EWA BOTTEGHELLE", "Comune": "NAPOLI", "idImpianto": 32722, "points": [{"type": "Feature", "properties": {}, "geometry": {"type": "Point", "coordinates": [14.329226911067964, 40.86575556895068]}}], "price": 1.758, "ultima_rilevazione": "21/04/2022 10:26:24"}, {"Gestore": "ROMINO MASSIMO", "Bandiera": "Api-Ip", "Tipo impianto": "Altro", "Indirizzo": "VIA PANORAMICA 2 80056", "Nome impianto": "TOTALERG", "Comune": "ERCOLANO", "idImpianto": 38660, "points": [{"type": "Feature", "properties": {}, "geometry": {"type": "Point", "coordinates": [14.35413208808086, 40.80853514880448]}}], "price": 1.789, "ultima_rilevazione": "21/04/2022 17:28:38"}, {"Gestore": "PALOMBA GIUSEPPE", "Bandiera": "Pompe Bianche", "Tipo impianto": "Altro", "Indirizzo": "via san vito 10 80056", "Nome impianto": "easyfuel", "Comune": "ERCOLANO", "idImpianto": 41168, "points": [{"type": "Feature", "properties": {}, "geometry": {"type": "Point", "coordinates": [14.36386029447749, 40.8190151939431]}}], "price": 1.819, "ultima_rilevazione": "21/04/2022 19:23:10"}, {"Gestore": "EASY SERVICE S.R.L.", "Bandiera": "Energas", "Tipo impianto": "Altro", "Indirizzo": "Via Aveta  snc 80056", "Nome impianto": "Easy service Ercolano ", "Comune": "ERCOLANO", "idImpianto": 35680, "points": [{"type": "Feature", "properties": {}, "geometry": {"type": "Point", "coordinates": [14.358646720647812, 40.80844738718757]}}], "price": 1.749, "ultima_rilevazione": "21/04/2022 19:29:41"}, {"Gestore": "GUSMAI NICOLETTA", "Bandiera": "GB Petroli", "Tipo impianto": "Altro", "Indirizzo": "CORSO S. GIOVANNI 223 80146", "Nome impianto": "GB PETROLI", "Comune": "NAPOLI", "idImpianto": 39219, "points": [{"type": "Feature", "properties": {}, "geometry": {"type": "Point", "coordinates": [14.302663040810558, 40.83623565210759]}}], "price": 1.758, "ultima_rilevazione": "22/04/2022 09:06:59"}, {"Gestore": "VESUVIANA PETROLI S.R.L.", "Bandiera": "Pompe Bianche", "Tipo impianto": "Altro", "Indirizzo": "VIA PATACCA  SNC 80056", "Nome impianto": "VESUVIANA PETROLI SRL ", "Comune": "ERCOLANO", "idImpianto": 47406, "points": [{"type": "Feature", "properties": {}, "geometry": {"type": "Point", "coordinates": [14.34814453125, 40.808092514169225]}}], "price": 1.698, "ultima_rilevazione": "22/04/2022 09:41:21"}, {"Gestore": "3L PETROLI S.R.L.", "Bandiera": "Pompe Bianche", "Tipo impianto": "Altro", "Indirizzo": "VIA ANTONIO GRAMSCI 21 80056", "Nome impianto": "3L PETROLI SRL", "Comune": "ERCOLANO", "idImpianto": 50396, "points": [{"type": "Feature", "properties": {}, "geometry": {"type": "Point", "coordinates": [14.358969293479788, 40.81093159812765]}}], "price": 1.749, "ultima_rilevazione": "22/04/2022 13:48:34"}, {"Gestore": "ZACCARO MARIA & C.  S.A.S.", "Bandiera": "Q8", "Tipo impianto": "Altro", "Indirizzo": "VIA DELLE REPUBBLICHE MARINARE  7/11 80147", "Nome impianto": "ZACCARO MARIA & C. SAS", "Comune": "NAPOLI", "idImpianto": 36261, "points": [{"type": "Feature", "properties": {}, "geometry": {"type": "Point", "coordinates": [14.30244217668644, 40.84555651635302]}}], "price": 1.819, "ultima_rilevazione": "22/04/2022 16:13:03"}, {"Gestore": "MG PETROLI SRL", "Bandiera": "Pompe Bianche", "Tipo impianto": "Altro", "Indirizzo": "Via ferrante imparato  251 80100", "Nome impianto": "MG PETROLI SRL", "Comune": "NAPOLI", "idImpianto": 38466, "points": [{"type": "Feature", "properties": {}, "geometry": {"type": "Point", "coordinates": [14.300307557191672, 40.84801174483866]}}], "price": 1.749, "ultima_rilevazione": "23/04/2022 10:20:59"}, {"Gestore": "B.G. PETROLI S.A.S. DI BORRIELLO VINCENZO & C.", "Bandiera": "Esso", "Tipo impianto": "Altro", "Indirizzo": "VIA PANORAMICA 97 80056", "Nome impianto": "B.G.PETROLI SAS", "Comune": "ERCOLANO", "idImpianto": 35860, "points": [{"type": "Feature", "properties": {}, "geometry": {"type": "Point", "coordinates": [14.357177761376988, 40.81022332802966]}}], "price": 1.859, "ultima_rilevazione": "24/04/2022 08:35:31"}, {"Gestore": "AMENDOLA MAURIZIO", "Bandiera": "Pompe Bianche", "Tipo impianto": "Altro", "Indirizzo": "VIA MARIO PALERMO 53 80147", "Nome impianto": "MM Carburanti", "Comune": "NAPOLI", "idImpianto": 36133, "points": [{"type": "Feature", "properties": {}, "geometry": {"type": "Point", "coordinates": [14.321829378604887, 40.857455824856906]}}], "price": 1.749, "ultima_rilevazione": "25/04/2022 11:27:32"}, {"Gestore": "MYLTON  S.R.L.", "Bandiera": "Pompe Bianche", "Tipo impianto": "Altro", "Indirizzo": "VIA ARGINE 336 80147", "Nome impianto": "MYLTON S.R.L.", "Comune": "NAPOLI", "idImpianto": 14328, "points": [{"type": "Feature", "properties": {}, "geometry": {"type": "Point", "coordinates": [14.309363812208176, 40.84985379511883]}}], "price": 1.699, "ultima_rilevazione": "26/04/2022 10:45:27"}, {"Gestore": "STAZIONE DI SERVIZIO M.Y.L.T.O.N. PETROLI DI MOSCA MICHELE", "Bandiera": "Total Erg", "Tipo impianto": "Altro", "Indirizzo": "VIA ABBEVERATOIO 19 80147", "Nome impianto": "STAZIONE DI SERVIZIO M.Y.L.T.O.N. PETROLI DI MOSCA MICHELE]", "Comune": "NAPOLI", "idImpianto": 14323, "points": [{"type": "Feature", "properties": {}, "geometry": {"type": "Point", "coordinates": [14.322363713491768, 40.84832334843441]}}], "price": 1.739, "ultima_rilevazione": "26/04/2022 10:49:09"}, {"Gestore": "IP SERVICES S.R.L.", "Bandiera": "Api-Ip", "Tipo impianto": "Altro", "Indirizzo": "VIA ARGINE 360 80100", "Nome impianto": "NAPOLI - ARGINE 360", "Comune": "NAPOLI", "idImpianto": 33373, "points": [{"type": "Feature", "properties": {}, "geometry": {"type": "Point", "coordinates": [14.311264157295229, 40.8505598461994]}}], "price": 1.749, "ultima_rilevazione": "26/04/2022 12:01:57"}, {"Gestore": "IP SERVICES S.R.L.", "Bandiera": "Api-Ip", "Tipo impianto": "Altro", "Indirizzo": "TRAVERSA VICINALE FOSSITELLI  80147", "Nome impianto": "NAPOLI - VICINALE FOSSITELLI", "Comune": "NAPOLI", "idImpianto": 33545, "points": [{"type": "Feature", "properties": {}, "geometry": {"type": "Point", "coordinates": [14.3144239067459, 40.8510773751301]}}], "price": 1.749, "ultima_rilevazione": "26/04/2022 12:03:12"}, {"Gestore": "IP SERVICES S.R.L.", "Bandiera": "Api-Ip", "Tipo impianto": "Altro", "Indirizzo": "via Volpicella 45 80147", "Nome impianto": "VOLPICELLA", "Comune": "NAPOLI", "idImpianto": 5531, "points": [{"type": "Feature", "properties": {}, "geometry": {"type": "Point", "coordinates": [14.32532441182775, 40.849239502862]}}], "price": 1.739, "ultima_rilevazione": "26/04/2022 12:06:39"}, {"Gestore": "T.D.M. S.R.L.", "Bandiera": "Tamoil", "Tipo impianto": "Altro", "Indirizzo": "VIA ARGINE  8 80147", "Nome impianto": "8336", "Comune": "NAPOLI", "idImpianto": 41142, "points": [{"type": "Feature", "properties": {}, "geometry": {"type": "Point", "coordinates": [14.322723224759102, 40.85602661816269]}}], "price": 1.699, "ultima_rilevazione": "26/04/2022 12:22:02"}, {"Gestore": "ASCHETTINO DOMENICO", "Bandiera": "Esso", "Tipo impianto": "Altro", "Indirizzo": "VIA ARGINE 875 80147", "Nome impianto": "ESSO", "Comune": "NAPOLI", "idImpianto": 33559, "points": [{"type": "Feature", "properties": {}, "geometry": {"type": "Point", "coordinates": [14.33246299624443, 40.860406445681946]}}], "price": 1.709, "ultima_rilevazione": "26/04/2022 13:00:32"}, {"Gestore": "VENUSO SALVATORE", "Bandiera": "Tamoil", "Tipo impianto": "Altro", "Indirizzo": "VIA LUIGI VOLPICELLA 208 80147", "Nome impianto": "Distributore Tamoil Impianto 8332", "Comune": "NAPOLI", "idImpianto": 13092, "points": [{"type": "Feature", "properties": {}, "geometry": {"type": "Point", "coordinates": [14.312672622965238, 40.84594326102288]}}], "price": 1.719, "ultima_rilevazione": "27/04/2022 07:24:10"}, {"Gestore": "SANNINO PETROLI S.R.L. ", "Bandiera": "Madogas Natural Energy", "Tipo impianto": "Altro", "Indirizzo": "VIA MARITTIMA 44 80055", "Nome impianto": "SP PETROLI -PORTICI", "Comune": "PORTICI", "idImpianto": 48824, "points": [{"type": "Feature", "properties": {}, "geometry": {"type": "Point", "coordinates": [14.33923977862085, 40.80719118511784]}}], "price": 1.735, "ultima_rilevazione": "26/04/2022 14:52:39"}, {"Gestore": "LUCARELLA CAFFE'' S.R.L.", "Bandiera": "Esso", "Tipo impianto": "Altro", "Indirizzo": "VIA SAC. B. COZZOLINO 65 80056", "Nome impianto": "LUCARELLA SRL CARBURANTI", "Comune": "ERCOLANO", "idImpianto": 38830, "points": [{"type": "Feature", "properties": {}, "geometry": {"type": "Point", "coordinates": [14.366487488150597, 40.814823003077045]}}], "price": 1.715, "ultima_rilevazione": "26/04/2022 17:39:45"}, {"Gestore": "SERVIZI & GESTIONI ITALIA srl", "Bandiera": "Q8", "Tipo impianto": "Altro", "Indirizzo": "VIA DEGLI ULIVI SNC 80056", "Nome impianto": "ERCOLANO VIA DEGLI ULIVI", "Comune": "ERCOLANO", "idImpianto": 6702, "points": [{"type": "Feature", "properties": {}, "geometry": {"type": "Point", "coordinates": [14.356227699999977, 40.81446484078589]}}], "price": 1.819, "ultima_rilevazione": "27/04/2022 02:06:42"}, {"Gestore": "SERVIZI & GESTIONI ITALIA S.R.L.", "Bandiera": "Q8", "Tipo impianto": "Altro", "Indirizzo": "G. FERRARIS 172 80147", "Nome impianto": "NAPOLI G. FERRARIS 172", "Comune": "NAPOLI", "idImpianto": 26018, "points": [{"type": "Feature", "properties": {}, "geometry": {"type": "Point", "coordinates": [14.298712766270455, 40.84657667223769]}}], "price": 1.759, "ultima_rilevazione": "27/04/2022 02:06:45"}, {"Gestore": "BORRELLI RAFFAELE", "Bandiera": "Esso", "Tipo impianto": "Altro", "Indirizzo": "VIA C. DE MEIS 1 80147", "Nome impianto": "BORRELLI RAFFAELE", "Comune": "NAPOLI", "idImpianto": 12899, "points": [{"type": "Feature", "properties": {}, "geometry": {"type": "Point", "coordinates": [14.32946428656578, 40.85078302173115]}}], "price": 1.719, "ultima_rilevazione": "27/04/2022 07:43:38"}], "5": [{"Gestore": "SAVI SRL", "Bandiera": "Esso", "Tipo impianto": "Altro", "Indirizzo": "CORSO ARNALDO LUCCI SNC 80142", "Nome impianto": "ESSO", "Comune": "NAPOLI", "idImpianto": 45642, "points": [{"type": "Feature", "properties": {}, "geometry": {"type": "Point", "coordinates": [14.27675506497394, 40.84767418029747]}}], "price": 1.689, "ultima_rilevazione": "13/10/2021 12:17:24"}, {"Gestore": "ESPOSITO GIOVANNI", "Bandiera": "Api-Ip", "Tipo impianto": "Altro", "Indirizzo": "VIA G. MARCONI 53/55 80059", "Nome impianto": "DITTA ESPOSITO GIOVANNI", "Comune": "TORRE DEL GRECO", "idImpianto": 28062, "points": [{"type": "Feature", "properties": {}, "geometry": {"type": "Point", "coordinates": [14.372103118641917, 40.79390051824808]}}], "price": 2.119, "ultima_rilevazione": "20/04/2022 15:17:46"}, {"Gestore": "SC. OIL S.R.L.S.", "Bandiera": "Pompe Bianche", "Tipo impianto": "Altro", "Indirizzo": "VIA EMANUELE GIANTURCO  78 80146", "Nome impianto": "SC. OIL ", "Comune": "NAPOLI", "idImpianto": 41371, "points": [{"type": "Feature", "properties": {}, "geometry": {"type": "Point", "coordinates": [14.288355434862751, 40.84786299922204]}}], "price": 2.179, "ultima_rilevazione": "21/04/2022 06:06:16"}, {"Gestore": "DE LUCA LUIGI", "Bandiera": "Agip Eni", "Tipo impianto": "Altro", "Indirizzo": "VIA STADERA A POGGIOREALE  80143", "Nome impianto": "DE LUCA LUIGI", "Comune": "NAPOLI", "idImpianto": 35375, "points": [{"type": "Feature", "properties": {}, "geometry": {"type": "Point", "coordinates": [14.306204840540886, 40.874918260187705]}}], "price": 2.214, "ultima_rilevazione": "22/04/2022 07:43:06"}, {"Gestore": "ZUCCHI S.N.C. DI ZUCCHI RAFFAELE E C.", "Bandiera": "Esso", "Tipo impianto": "Altro", "Indirizzo": "VIA ARCO 190 80048", "Nome impianto": "s.s.esso zucchi s.n.c.", "Comune": "SANT'ANASTASIA", "idImpianto": 22486, "points": [{"type": "Feature", "properties": {}, "geometry": {"type": "Point", "coordinates": [14.384150505065918, 40.86874861757096]}}], "price": 1.829, "ultima_rilevazione": "28/03/2022 11:33:26"}, {"Gestore": "P.C. CARBURANTI SRL", "Bandiera": "Pompe Bianche", "Tipo impianto": "Altro", "Indirizzo": "VIA GRAMSCI 9 80040", "Nome impianto": "Due Palme", "Comune": "VOLLA", "idImpianto": 50391, "points": [{"type": "Feature", "properties": {}, "geometry": {"type": "Point", "coordinates": [14.35425192117691, 40.8826127241879]}}], "price": 1.691, "ultima_rilevazione": "02/04/2022 16:42:27"}, {"Gestore": "CARUFFO VALENTINA", "Bandiera": "Pompe Bianche", "Tipo impianto": "Altro", "Indirizzo": "VIA NUOVA POGGIOREALE SNC, 80143  ", "Nome impianto": "CARUFFO VALENTINA", "Comune": "NAPOLI", "idImpianto": 18241, "points": [{"type": "Feature", "properties": {}, "geometry": {"type": "Point", "coordinates": [14.280980819582396, 40.86192487605891]}}], "price": 1.747, "ultima_rilevazione": "16/04/2022 12:52:00"}, {"Gestore": "PICCOLO GROUP S.R.L.", "Bandiera": "Agip Eni", "Tipo impianto": "Altro", "Indirizzo": "S.S.162 dir Napoli Km 6+513  80040", "Nome impianto": "PICCOLO GROUP", "Comune": "POLLENA TROCCHIA", "idImpianto": 7526, "points": [{"type": "Feature", "properties": {}, "geometry": {"type": "Point", "coordinates": [14.371241382063545, 40.876544472375066]}}], "price": 1.759, "ultima_rilevazione": "20/04/2022 07:20:08"}, {"Gestore": "AMBROSINO GIOVANNI", "Bandiera": "Q8", "Tipo impianto": "Altro", "Indirizzo": "VIA EMANUELE GIANTURCO P.V. Q8  80142", "Nome impianto": "Q8", "Comune": "NAPOLI", "idImpianto": 17301, "points": [{"type": "Feature", "properties": {}, "geometry": {"type": "Point", "coordinates": [14.288224699697594, 40.85536601779113]}}], "price": 1.824, "ultima_rilevazione": "20/04/2022 10:06:41"}, {"Gestore": "BUONICONTI MARIA", "Bandiera": "Esso", "Tipo impianto": "Altro", "Indirizzo": "Via Emanuele Gianturco 123 80143", "Nome impianto": "Impianto ESSO Buoniconti Maria", "Comune": "NAPOLI", "idImpianto": 32813, "points": [{"type": "Feature", "properties": {}, "geometry": {"type": "Point", "coordinates": [14.288100868987158, 40.85626242562899]}}], "price": 1.899, "ultima_rilevazione": "21/04/2022 07:22:06"}, {"Gestore": "GRIMALDI CONCETTA", "Bandiera": "Agip Eni", "Tipo impianto": "Altro", "Indirizzo": "via stadera  80143", "Nome impianto": "ENI 08063", "Comune": "NAPOLI", "idImpianto": 48194, "points": [{"type": "Feature", "properties": {}, "geometry": {"type": "Point", "coordinates": [14.30035925986909, 40.87103647502646]}}], "price": 1.779, "ultima_rilevazione": "21/04/2022 19:15:22"}, {"Gestore": "ORGANIZZAZIONE SERVIZI AUTO - O.S.A. - S.P.A.", "Bandiera": "Esso", "Tipo impianto": "Altro", "Indirizzo": "VIA FERRANTE IMPARATO 451/457 80146", "Nome impianto": "ESSO - V.IMPARATO", "Comune": "NAPOLI", "idImpianto": 49000, "points": [{"type": "Feature", "properties": {}, "geometry": {"type": "Point", "coordinates": [14.298449404692333, 40.85789294565131]}}], "price": 1.749, "ultima_rilevazione": "22/04/2022 07:48:32"}, {"Gestore": "PETROLJ - SOCIETA' A RESPONSABILITA' LIMITATA", "Bandiera": "Esso", "Tipo impianto": "Altro", "Indirizzo": "via Galileo Ferraris 128 80144", "Nome impianto": "Esso 6629", "Comune": "NAPOLI", "idImpianto": 33027, "points": [{"type": "Feature", "properties": {}, "geometry": {"type": "Point", "coordinates": [14.28947512925265, 40.84943369791054]}}], "price": 1.719, "ultima_rilevazione": "22/04/2022 10:49:12"}, {"Gestore": "ORGANIZZAZIONE SERVIZI AUTO - O.S.A. - S.P.A.", "Bandiera": "Esso", "Tipo impianto": "Altro", "Indirizzo": "VIA GALILEO FERRARIS 44/48 80142", "Nome impianto": "ESSO - G.FERRARIS", "Comune": "NAPOLI", "idImpianto": 48999, "points": [{"type": "Feature", "properties": {}, "geometry": {"type": "Point", "coordinates": [14.27604404038709, 40.85030964996206]}}], "price": 1.719, "ultima_rilevazione": "22/04/2022 11:21:47"}, {"Gestore": "CAR.IO S.R.L.", "Bandiera": "Q8", "Tipo impianto": "Altro", "Indirizzo": "VIA DELLE PUGLIE 176/A 80026", "Nome impianto": "BENZINA - GASOLIO - HIQ CASORIA", "Comune": "CASORIA", "idImpianto": 29071, "points": [{"type": "Feature", "properties": {}, "geometry": {"type": "Point", "coordinates": [14.31901598762738, 40.883618858465454]}}], "price": 1.749, "ultima_rilevazione": "22/04/2022 17:20:05"}, {"Gestore": "ACANFORA STEFANIA", "Bandiera": "Total Erg", "Tipo impianto": "Altro", "Indirizzo": "VIA MACELLO  80143", "Nome impianto": "acanfora stefania", "Comune": "NAPOLI", "idImpianto": 12555, "points": [{"type": "Feature", "properties": {}, "geometry": {"type": "Point", "coordinates": [14.293411170835611, 40.862960192370096]}}], "price": 1.769, "ultima_rilevazione": "22/04/2022 20:14:47"}, {"Gestore": "ACANFORA STEFANIA", "Bandiera": "Total Erg", "Tipo impianto": "Altro", "Indirizzo": "VIA MIRAGLIA ANG.P.ZZA ARABIA  80143", "Nome impianto": "acanfora stefania", "Comune": "NAPOLI", "idImpianto": 20622, "points": [{"type": "Feature", "properties": {}, "geometry": {"type": "Point", "coordinates": [14.294732338039807, 40.86439910023402]}}], "price": 1.769, "ultima_rilevazione": "22/04/2022 20:15:06"}, {"Gestore": "A.D. FUEL - SOCIETA' A RESPONSABILITA' LIMITATA SEMPLIFICATA", "Bandiera": "MyOil", "Tipo impianto": "Altro", "Indirizzo": "via gianturco  100 80142", "Nome impianto": "my oil", "Comune": "NAPOLI", "idImpianto": 49044, "points": [{"type": "Feature", "properties": {}, "geometry": {"type": "Point", "coordinates": [14.28933217112653, 40.85128366053975]}}], "price": 1.718, "ultima_rilevazione": "22/04/2022 20:19:14"}, {"Gestore": "CARRARA PIETRO", "Bandiera": "Q8", "Tipo impianto": "Altro", "Indirizzo": "via emanuele gianturco frcv. 79 80142", "Nome impianto": "staz. servizio. q8 ", "Comune": "NAPOLI", "idImpianto": 17155, "points": [{"type": "Feature", "properties": {}, "geometry": {"type": "Point", "coordinates": [14.289340482265288, 40.85030685074771]}}], "price": 1.759, "ultima_rilevazione": "23/04/2022 07:49:42"}, {"Gestore": "PETROLCOR S.R.L.", "Bandiera": "Esso", "Tipo impianto": "Altro", "Indirizzo": "VIA LUFRANO 61 80040", "Nome impianto": "ESSO", "Comune": "VOLLA", "idImpianto": 43903, "points": [{"type": "Feature", "properties": {}, "geometry": {"type": "Point", "coordinates": [14.338231457672125, 40.88577506948254]}}], "price": 1.728, "ultima_rilevazione": "23/04/2022 09:33:06"}, {"Gestore": "DELTA PETROLI S.A.S. DI FELACO ANTONIO & C.", "Bandiera": "Api-Ip", "Tipo impianto": "Altro", "Indirizzo": "VIA FILICHITO TRAV. GARIBALDI SNC, 80040  ", "Nome impianto": "Delta Petroli (VOLLA)", "Comune": "VOLLA", "idImpianto": 20567, "points": [{"type": "Feature", "properties": {}, "geometry": {"type": "Point", "coordinates": [14.353720267025778, 40.88841550110374]}}], "price": 1.728, "ultima_rilevazione": "23/04/2022 10:04:42"}, {"Gestore": "NUOVA CARBURANTI  S.R.L.", "Bandiera": "Api-Ip", "Tipo impianto": "Altro", "Indirizzo": "via Reggia di Portici 87 80143", "Nome impianto": "Nuova Carburanti s.r.l.", "Comune": "NAPOLI", "idImpianto": 35416, "points": [{"type": "Feature", "properties": {}, "geometry": {"type": "Point", "coordinates": [14.286752104134166, 40.842934030131154]}}], "price": 1.769, "ultima_rilevazione": "23/04/2022 11:43:27"}, {"Gestore": "SOCIETA' CARBURANTI S.N.C. DI FLAUTO MARIA ANGELA", "Bandiera": "Esso", "Tipo impianto": "Altro", "Indirizzo": "VIA FILICHITO 133/135 80040", "Nome impianto": "societ\u00e0 carburanti snc di Flauto Maria", "Comune": "VOLLA", "idImpianto": 12910, "points": [{"type": "Feature", "properties": {}, "geometry": {"type": "Point", "coordinates": [14.351210296154022, 40.885577027124654]}}], "price": 1.719, "ultima_rilevazione": "23/04/2022 12:17:45"}, {"Gestore": "VB PETROLI DI VINCENZO BORRIELLO", "Bandiera": "Esso", "Tipo impianto": "Altro", "Indirizzo": "VIA CIRCUMVALLAZIONE 66 80059", "Nome impianto": "vb petroli", "Comune": "TORRE DEL GRECO", "idImpianto": 49084, "points": [{"type": "Feature", "properties": {}, "geometry": {"type": "Point", "coordinates": [14.371714065080177, 40.789573259869634]}}], "price": 1.709, "ultima_rilevazione": "24/04/2022 08:36:58"}, {"Gestore": "SERVIZI & GESTIONI ITALIA srl", "Bandiera": "Q8", "Tipo impianto": "Altro", "Indirizzo": "P.ZA S. ERASMO IMPIANTO Q8 SNC 80142", "Nome impianto": "NAPOLI P.ZA S. ERASMO IMPIANTO Q8", "Comune": "NAPOLI", "idImpianto": 6836, "points": [{"type": "Feature", "properties": {}, "geometry": {"type": "Point", "coordinates": [14.283217930688464, 40.84445816205204]}}], "price": 1.759, "ultima_rilevazione": "25/04/2022 00:34:40"}, {"Gestore": "SERVIZI & GESTIONI ITALIA S.R.L.", "Bandiera": "Q8", "Tipo impianto": "Altro", "Indirizzo": "VIA B. COZZOLINO 101 80056", "Nome impianto": "ERCOLANO VIA B. COZZOLINO, 101", "Comune": "ERCOLANO", "idImpianto": 25008, "points": [{"type": "Feature", "properties": {}, "geometry": {"type": "Point", "coordinates": [14.3705156583012, 40.80445606762352]}}], "price": 1.719, "ultima_rilevazione": "25/04/2022 00:34:42"}, {"Gestore": "MARINO ROSA", "Bandiera": "Pompe Bianche", "Tipo impianto": "Altro", "Indirizzo": "VIA STADERA A POGGIOREALE 76 80143", "Nome impianto": "Staroil", "Comune": "NAPOLI", "idImpianto": 36303, "points": [{"type": "Feature", "properties": {}, "geometry": {"type": "Point", "coordinates": [14.302085129695683, 40.87240924540136]}}], "price": 1.739, "ultima_rilevazione": "25/04/2022 09:16:42"}, {"Gestore": "LUCARELLA ROSA PETROLI", "Bandiera": "Esso", "Tipo impianto": "Altro", "Indirizzo": "via del commercio snc 80059", "Nome impianto": "stazione di servizio esso lucarella", "Comune": "TORRE DEL GRECO", "idImpianto": 12189, "points": [{"type": "Feature", "properties": {}, "geometry": {"type": "Point", "coordinates": [14.358681589365004, 40.79220939502857]}}], "price": 1.739, "ultima_rilevazione": "25/04/2022 09:25:57"}, {"Gestore": "DISTRIBUTORE ERG DI FLORIO ANTONIO", "Bandiera": "Pompe Bianche", "Tipo impianto": "Altro", "Indirizzo": "Via Reggia di Portici  87 80146", "Nome impianto": "Oil Parthenope", "Comune": "NAPOLI", "idImpianto": 15723, "points": [{"type": "Feature", "properties": {}, "geometry": {"type": "Point", "coordinates": [14.287926256656649, 40.84256155168131]}}], "price": 1.769, "ultima_rilevazione": "25/04/2022 21:09:09"}, {"Gestore": " MAXI GARAGE  DI MONTESCURO MASSIMILIANO & C. S.A.S.", "Bandiera": "Api-Ip", "Tipo impianto": "Strada Statale", "Indirizzo": "Statale 162 dir del Centro Direzionale, Km. 162, dir. USCITA NAPOLI 80142", "Nome impianto": "totalerg", "Comune": "NAPOLI", "idImpianto": 32831, "points": [{"type": "Feature", "properties": {}, "geometry": {"type": "Point", "coordinates": [14.287518560886385, 40.86229217758946]}}], "price": 1.769, "ultima_rilevazione": "26/04/2022 06:44:22"}, {"Gestore": " MAXI GARAGE  DI MONTESCURO MASSIMILIANO & C. S.A.S.", "Bandiera": "Api-Ip", "Tipo impianto": "Altro", "Indirizzo": "INGRESSO RAMPA DIR.PAESI VESUVIANI SNC 80100", "Nome impianto": "TOTALERG", "Comune": "NAPOLI", "idImpianto": 40691, "points": [{"type": "Feature", "properties": {}, "geometry": {"type": "Point", "coordinates": [14.287491738796234, 40.862242479019024]}}], "price": 1.769, "ultima_rilevazione": "26/04/2022 06:44:35"}, {"Gestore": "E' - OIL GROUP S.R.L.", "Bandiera": "Pompe Bianche", "Tipo impianto": "Altro", "Indirizzo": "VIA Galileo Ferraris  119 80146", "Nome impianto": "E-OIL (Ferraris)", "Comune": "NAPOLI", "idImpianto": 40652, "points": [{"type": "Feature", "properties": {}, "geometry": {"type": "Point", "coordinates": [14.288941472768784, 40.84985744710176]}}], "price": 1.719, "ultima_rilevazione": "26/04/2022 06:46:43"}, {"Gestore": "SA.FR.A. FUEL TRADING S.R.L.", "Bandiera": "Lukoil", "Tipo impianto": "Altro", "Indirizzo": "VIA GALILEO FERRARIS 1/A 80142", "Nome impianto": "LUDOIL", "Comune": "NAPOLI", "idImpianto": 36512, "points": [{"type": "Feature", "properties": {}, "geometry": {"type": "Point", "coordinates": [14.278401732444763, 40.85017557683085]}}], "price": 1.729, "ultima_rilevazione": "26/04/2022 07:16:45"}, {"Gestore": "DEL GATTO LUCA", "Bandiera": "Q8", "Tipo impianto": "Altro", "Indirizzo": "VIA GUGLIELMO MARCONI 61 80059", "Nome impianto": "Del Gatto Luca -Q8", "Comune": "TORRE DEL GRECO", "idImpianto": 35664, "points": [{"type": "Feature", "properties": {}, "geometry": {"type": "Point", "coordinates": [14.373119921634723, 40.79493791968526]}}], "price": 1.759, "ultima_rilevazione": "26/04/2022 11:02:58"}, {"Gestore": "IP SERVICES S.R.L.", "Bandiera": "Api-Ip", "Tipo impianto": "Altro", "Indirizzo": "VIA FERRANTE IMPARATO 439 80146", "Nome impianto": "NAPOLI - FERRANTE IMPARATO", "Comune": "NAPOLI", "idImpianto": 30323, "points": [{"type": "Feature", "properties": {}, "geometry": {"type": "Point", "coordinates": [14.298689271163994, 40.85680811472159]}}], "price": 1.749, "ultima_rilevazione": "26/04/2022 12:01:55"}, {"Gestore": "IP SERVICES S.R.L.", "Bandiera": "Api-Ip", "Tipo impianto": "Altro", "Indirizzo": "S.S. 268 DEL VESUVIO KM. 1,149  80040", "Nome impianto": "POLLENA TROCCHIA", "Comune": "POLLENA TROCCHIA", "idImpianto": 39007, "points": [{"type": "Feature", "properties": {}, "geometry": {"type": "Point", "coordinates": [14.369633304368564, 40.870788608705766]}}], "price": 1.704, "ultima_rilevazione": "26/04/2022 12:04:05"}, {"Gestore": "EASY SERVICE S.R.L.", "Bandiera": "Energas", "Tipo impianto": "Altro", "Indirizzo": "Via Monteoliveto SNC 80040", "Nome impianto": "Easy Service Volla", "Comune": "VOLLA", "idImpianto": 38715, "points": [{"type": "Feature", "properties": {}, "geometry": {"type": "Point", "coordinates": [14.356540516018867, 40.87540095229716]}}], "price": 1.709, "ultima_rilevazione": "26/04/2022 17:21:45"}, {"Gestore": "RICCIARDI GIACINTO", "Bandiera": "Agip Eni", "Tipo impianto": "Altro", "Indirizzo": "VIA LEOPARDI 30 80040", "Nome impianto": "eni", "Comune": "VOLLA", "idImpianto": 20441, "points": [{"type": "Feature", "properties": {}, "geometry": {"type": "Point", "coordinates": [14.339417601852348, 40.88026141875078]}}], "price": 1.779, "ultima_rilevazione": "26/04/2022 18:17:22"}, {"Gestore": "MASI VITO", "Bandiera": "Agip Eni", "Tipo impianto": "Altro", "Indirizzo": "VIA E.GIANTURCO 114 80142", "Nome impianto": "masi vito", "Comune": "NAPOLI", "idImpianto": 16846, "points": [{"type": "Feature", "properties": {}, "geometry": {"type": "Point", "coordinates": [14.288344113215317, 40.84787307234628]}}], "price": 1.779, "ultima_rilevazione": "27/04/2022 05:37:40"}, {"Gestore": "ENI FUEL S.P.A.", "Bandiera": "Agip Eni", "Tipo impianto": "Altro", "Indirizzo": "Via Volta 31 80142", "Nome impianto": "28061 \u2013 Napoli Volta", "Comune": "NAPOLI", "idImpianto": 49635, "points": [{"type": "Feature", "properties": {}, "geometry": {"type": "Point", "coordinates": [14.279558878732132, 40.84557216349965]}}], "price": 1.779, "ultima_rilevazione": "27/04/2022 07:14:06"}, {"Gestore": "E' - OIL GROUP S.R.L.", "Bandiera": "Pompe Bianche", "Tipo impianto": "Altro", "Indirizzo": "nazionale delle puglie 220 80100", "Nome impianto": "E-OIL (naz.puglie)", "Comune": "NAPOLI", "idImpianto": 40643, "points": [{"type": "Feature", "properties": {}, "geometry": {"type": "Point", "coordinates": [14.310928881168364, 40.87709724243798]}}], "price": 1.719, "ultima_rilevazione": "27/04/2022 07:15:18"}]}, "Gasolio High Quality": {"1": [], "3": [{"Gestore": "B.G. PETROLI S.A.S. DI BORRIELLO VINCENZO & C.", "Bandiera": "Esso", "Tipo impianto": "Altro", "Indirizzo": "VIA PANORAMICA 97 80056", "Nome impianto": "B.G.PETROLI SAS", "Comune": "ERCOLANO", "idImpianto": 35860, "points": [{"type": "Feature", "properties": {}, "geometry": {"type": "Point", "coordinates": [14.357177761376988, 40.81022332802966]}}], "price": 1.999, "ultima_rilevazione": "24/04/2022 08:35:31"}], "5": [{"Gestore": "ZUCCHI S.N.C. DI ZUCCHI RAFFAELE E C.", "Bandiera": "Esso", "Tipo impianto": "Altro", "Indirizzo": "VIA ARCO 190 80048", "Nome impianto": "s.s.esso zucchi s.n.c.", "Comune": "SANT'ANASTASIA", "idImpianto": 22486, "points": [{"type": "Feature", "properties": {}, "geometry": {"type": "Point", "coordinates": [14.384150505065918, 40.86874861757096]}}], "price": 1.959, "ultima_rilevazione": "28/03/2022 11:33:26"}, {"Gestore": "PETROLJ - SOCIETA' A RESPONSABILITA' LIMITATA", "Bandiera": "Esso", "Tipo impianto": "Altro", "Indirizzo": "via Galileo Ferraris 128 80144", "Nome impianto": "Esso 6629", "Comune": "NAPOLI", "idImpianto": 33027, "points": [{"type": "Feature", "properties": {}, "geometry": {"type": "Point", "coordinates": [14.28947512925265, 40.84943369791054]}}], "price": 1.909, "ultima_rilevazione": "22/04/2022 10:49:12"}, {"Gestore": "DELTA PETROLI S.A.S. DI FELACO ANTONIO & C.", "Bandiera": "Api-Ip", "Tipo impianto": "Altro", "Indirizzo": "VIA FILICHITO TRAV. GARIBALDI SNC, 80040  ", "Nome impianto": "Delta Petroli (VOLLA)", "Comune": "VOLLA", "idImpianto": 20567, "points": [{"type": "Feature", "properties": {}, "geometry": {"type": "Point", "coordinates": [14.353720267025778, 40.88841550110374]}}], "price": 1.832, "ultima_rilevazione": "23/04/2022 10:04:42"}, {"Gestore": "SOCIETA' CARBURANTI S.N.C. DI FLAUTO MARIA ANGELA", "Bandiera": "Esso", "Tipo impianto": "Altro", "Indirizzo": "VIA FILICHITO 133/135 80040", "Nome impianto": "societ\u00e0 carburanti snc di Flauto Maria", "Comune": "VOLLA", "idImpianto": 12910, "points": [{"type": "Feature", "properties": {}, "geometry": {"type": "Point", "coordinates": [14.351210296154022, 40.885577027124654]}}], "price": 1.889, "ultima_rilevazione": "23/04/2022 12:17:45"}]}, "null": {}, "GPL": {"1": [{"Gestore": "CLAJL DI DI MAIO GAETANO", "Bandiera": "Pompe Bianche", "Tipo impianto": "Altro", "Indirizzo": "VIA DELLA PACE  80040", "Nome impianto": "CLAJL DI DI MAIO GAETANO", "Comune": "SAN SEBASTIANO AL VESUVIO", "idImpianto": 15980, "points": [{"type": "Feature", "properties": {}, "geometry": {"type": "Point", "coordinates": [14.362389743328094, 40.8439104946054]}}], "price": 0.809, "ultima_rilevazione": "24/04/2022 07:22:34"}], "3": [{"Gestore": "EASY SERVICE S.R.L.", "Bandiera": "Energas", "Tipo impianto": "Altro", "Indirizzo": "Via Aveta  snc 80056", "Nome impianto": "Easy service Ercolano ", "Comune": "ERCOLANO", "idImpianto": 35680, "points": [{"type": "Feature", "properties": {}, "geometry": {"type": "Point", "coordinates": [14.358646720647812, 40.80844738718757]}}], "price": 0.819, "ultima_rilevazione": "21/04/2022 19:29:41"}, {"Gestore": "ECO TRADING AREA S.R.L. - DISTRIBUZIONE CARBURANTI ECOLOGICI", "Bandiera": "Pompe Bianche", "Tipo impianto": "Altro", "Indirizzo": "VIA SAC. B. COZZOLINO  80056", "Nome impianto": "ECO TRADING AREA SRL", "Comune": "ERCOLANO", "idImpianto": 14034, "points": [{"type": "Feature", "properties": {}, "geometry": {"type": "Point", "coordinates": [14.366668537259102, 40.81413078123835]}}], "price": 0.847, "ultima_rilevazione": "22/04/2022 09:18:43"}, {"Gestore": "VESUVIANA PETROLI S.R.L.", "Bandiera": "Pompe Bianche", "Tipo impianto": "Altro", "Indirizzo": "VIA PATACCA  SNC 80056", "Nome impianto": "VESUVIANA PETROLI SRL ", "Comune": "ERCOLANO", "idImpianto": 47406, "points": [{"type": "Feature", "properties": {}, "geometry": {"type": "Point", "coordinates": [14.34814453125, 40.808092514169225]}}], "price": 0.797, "ultima_rilevazione": "22/04/2022 09:41:21"}, {"Gestore": "B.OIL S.R.L.", "Bandiera": "Pompe Bianche", "Tipo impianto": "Altro", "Indirizzo": "VIA ARGINE 461 80147", "Nome impianto": "b.oil srl", "Comune": "NAPOLI", "idImpianto": 20970, "points": [{"type": "Feature", "properties": {}, "geometry": {"type": "Point", "coordinates": [14.314351379871368, 40.85272015344219]}}], "price": 0.815, "ultima_rilevazione": "26/04/2022 06:50:50"}], "5": [{"Gestore": "PICCOLO GROUP S.R.L.", "Bandiera": "Agip Eni", "Tipo impianto": "Altro", "Indirizzo": "S.S.162 dir Napoli Km 6+513  80040", "Nome impianto": "PICCOLO GROUP", "Comune": "POLLENA TROCCHIA", "idImpianto": 7526, "points": [{"type": "Feature", "properties": {}, "geometry": {"type": "Point", "coordinates": [14.371241382063545, 40.876544472375066]}}], "price": 0.839, "ultima_rilevazione": "20/04/2022 07:20:08"}, {"Gestore": "CAR.IO S.R.L.", "Bandiera": "Pompe Bianche", "Tipo impianto": "Altro", "Indirizzo": "VIA DELLE PUGLIE 176/A 80026", "Nome impianto": "METANO / GPL CASORIA", "Comune": "CASORIA", "idImpianto": 5295, "points": [{"type": "Feature", "properties": {}, "geometry": {"type": "Point", "coordinates": [14.31889528822171, 40.883934189888485]}}], "price": 0.849, "ultima_rilevazione": "21/04/2022 18:40:36"}, {"Gestore": "ECO TRADING AREA S.R.L. - DISTRIBUZIONE CARBURANTI ECOLOGICI", "Bandiera": "Pompe Bianche", "Tipo impianto": "Altro", "Indirizzo": "VIA GARIBALDI 11 80040", "Nome impianto": "ECO TRADING AREA SRL", "Comune": "POLLENA TROCCHIA", "idImpianto": 14037, "points": [{"type": "Feature", "properties": {}, "geometry": {"type": "Point", "coordinates": [14.377052038908005, 40.86595719221165]}}], "price": 0.799, "ultima_rilevazione": "22/04/2022 09:20:17"}, {"Gestore": "GR CARBURANTI SRL", "Bandiera": "Pompe Bianche", "Tipo impianto": "Altro", "Indirizzo": "VIA VITTORIO EMANUELE SNC 80040", "Nome impianto": "GR CARBURANTI", "Comune": "VOLLA", "idImpianto": 31739, "points": [{"type": "Feature", "properties": {}, "geometry": {"type": "Point", "coordinates": [14.361075543815105, 40.876524406099456]}}], "price": 0.788, "ultima_rilevazione": "22/04/2022 11:56:33"}, {"Gestore": "PETROLCOR S.R.L.", "Bandiera": "Esso", "Tipo impianto": "Altro", "Indirizzo": "VIA LUFRANO 61 80040", "Nome impianto": "ESSO", "Comune": "VOLLA", "idImpianto": 43903, "points": [{"type": "Feature", "properties": {}, "geometry": {"type": "Point", "coordinates": [14.338231457672125, 40.88577506948254]}}], "price": 0.819, "ultima_rilevazione": "23/04/2022 09:33:06"}, {"Gestore": "DELTA PETROLI S.A.S. DI FELACO ANTONIO & C.", "Bandiera": "Api-Ip", "Tipo impianto": "Altro", "Indirizzo": "VIA FILICHITO TRAV. GARIBALDI SNC, 80040  ", "Nome impianto": "Delta Petroli (VOLLA)", "Comune": "VOLLA", "idImpianto": 20567, "points": [{"type": "Feature", "properties": {}, "geometry": {"type": "Point", "coordinates": [14.353720267025778, 40.88841550110374]}}], "price": 0.819, "ultima_rilevazione": "23/04/2022 10:04:42"}, {"Gestore": "LUCARELLA ROSA PETROLI", "Bandiera": "Esso", "Tipo impianto": "Altro", "Indirizzo": "via del commercio snc 80059", "Nome impianto": "stazione di servizio esso lucarella", "Comune": "TORRE DEL GRECO", "idImpianto": 12189, "points": [{"type": "Feature", "properties": {}, "geometry": {"type": "Point", "coordinates": [14.358681589365004, 40.79220939502857]}}], "price": 0.819, "ultima_rilevazione": "25/04/2022 09:25:57"}, {"Gestore": "EASY SERVICE S.R.L.", "Bandiera": "Energas", "Tipo impianto": "Altro", "Indirizzo": "Via Monteoliveto SNC 80040", "Nome impianto": "Easy Service Volla", "Comune": "VOLLA", "idImpianto": 38715, "points": [{"type": "Feature", "properties": {}, "geometry": {"type": "Point", "coordinates": [14.356540516018867, 40.87540095229716]}}], "price": 0.785, "ultima_rilevazione": "26/04/2022 17:21:45"}, {"Gestore": "RICCIARDI GIACINTO", "Bandiera": "Agip Eni", "Tipo impianto": "Altro", "Indirizzo": "VIA LEOPARDI 30 80040", "Nome impianto": "eni", "Comune": "VOLLA", "idImpianto": 20441, "points": [{"type": "Feature", "properties": {}, "geometry": {"type": "Point", "coordinates": [14.339417601852348, 40.88026141875078]}}], "price": 0.792, "ultima_rilevazione": "26/04/2022 18:17:22"}]}, "Gasolio": {"1": [{"Gestore": "STAZIONE I.P. DI DE LUCA ALFONSO", "Bandiera": "Agip Eni", "Tipo impianto": "Altro", "Indirizzo": "Via gianturco 26 80046", "Nome impianto": "Stazione eni De LUCA ALFONSO", "Comune": "SAN GIORGIO A CREMANO", "idImpianto": 32177, "points": [{"type": "Feature", "properties": {}, "geometry": {"type": "Point", "coordinates": [14.342876389306412, 40.83164723763404]}}], "price": 2.244, "ultima_rilevazione": "23/04/2022 20:39:11"}, {"Gestore": "MADONNA GIUSEPPE", "Bandiera": "Energas", "Tipo impianto": "Altro", "Indirizzo": "VIA BENEDETTO COZZOLINO 66 80056", "Nome impianto": "ENERGAS", "Comune": "ERCOLANO", "idImpianto": 44395, "points": [{"type": "Feature", "properties": {}, "geometry": {"type": "Point", "coordinates": [14.356550574302672, 40.82674310725152]}}], "price": 2.229, "ultima_rilevazione": "26/04/2022 08:49:45"}, {"Gestore": "A 5 PETROLI S.R.L.", "Bandiera": "Pompe Bianche", "Tipo impianto": "Altro", "Indirizzo": "VIA SACERDOTE B. COZZOLINO SNC 80056", "Nome impianto": "A5", "Comune": "ERCOLANO", "idImpianto": 14708, "points": [{"type": "Feature", "properties": {}, "geometry": {"type": "Point", "coordinates": [14.360169544816015, 40.83495010160629]}}], "price": 1.749, "ultima_rilevazione": "26/04/2022 15:44:14"}, {"Gestore": "VITIELLO CIRO", "Bandiera": "Q8", "Tipo impianto": "Altro", "Indirizzo": "VIA DELLE REPUBBLICHE MARINARE 295 80146", "Nome impianto": "STAZIONE DI SERVIZIO Q8 di VITIELLO CIRO", "Comune": "NAPOLI", "idImpianto": 46689, "points": [{"type": "Feature", "properties": {}, "geometry": {"type": "Point", "coordinates": [14.315652205890729, 40.83684850871609]}}], "price": 1.779, "ultima_rilevazione": "20/04/2022 18:48:37"}, {"Gestore": "N.D. CARBURANTI S.A.S. DI AGOSTINO NOCERINO", "Bandiera": "Agip Eni", "Tipo impianto": "Altro", "Indirizzo": "VIA ARMANDO DIAZ 45 80055", "Nome impianto": "ENI Station PORTICI", "Comune": "PORTICI", "idImpianto": 33969, "points": [{"type": "Feature", "properties": {}, "geometry": {"type": "Point", "coordinates": [14.335999553987676, 40.81948243070002]}}], "price": 1.969, "ultima_rilevazione": "21/04/2022 09:40:52"}, {"Gestore": "A.G. CARBURANTI S.R.L.S.", "Bandiera": "Pompe Bianche", "Tipo impianto": "Altro", "Indirizzo": "CORSO SAN GIOVANI A TEDUCCIO  904 80146", "Nome impianto": "SAN GIOVANNI", "Comune": "NAPOLI", "idImpianto": 50925, "points": [{"type": "Feature", "properties": {}, "geometry": {"type": "Point", "coordinates": [14.315750078909794, 40.82656931895564]}}], "price": 1.719, "ultima_rilevazione": "21/04/2022 14:16:41"}, {"Gestore": "MARANO E BORRELLI S.R.L.", "Bandiera": "Pompe Bianche", "Tipo impianto": "Altro", "Indirizzo": "VIA BARTOLO LONGO SNC 80147", "Nome impianto": "Ip V. Bartolo Longo", "Comune": "NAPOLI", "idImpianto": 39906, "points": [{"type": "Feature", "properties": {}, "geometry": {"type": "Point", "coordinates": [14.33407299220562, 40.8489176571844]}}], "price": 1.759, "ultima_rilevazione": "21/04/2022 14:43:57"}, {"Gestore": "MARANO E BORRELLI S.R.L.", "Bandiera": "Api-Ip", "Tipo impianto": "Altro", "Indirizzo": "VIA BARTOLO LONGO ANGOLO V. MORMONE 347 80147", "Nome impianto": "IP B.LONGO ANGOLO V. MORMONE", "Comune": "NAPOLI", "idImpianto": 43420, "points": [{"type": "Feature", "properties": {}, "geometry": {"type": "Point", "coordinates": [14.340875682209004, 40.841399970848]}}], "price": 1.759, "ultima_rilevazione": "21/04/2022 16:04:42"}, {"Gestore": "GENNY PETROLI DI SANTANASTASIA GENNARO S.A.S.", "Bandiera": "Total Erg", "Tipo impianto": "Altro", "Indirizzo": "VIA DELLE REPUBBLICHE MARINARE 0 80146", "Nome impianto": "ERG", "Comune": "NAPOLI", "idImpianto": 39068, "points": [{"type": "Feature", "properties": {}, "geometry": {"type": "Point", "coordinates": [14.319584369659424, 40.83308916199512]}}], "price": 1.749, "ultima_rilevazione": "22/04/2022 07:31:30"}, {"Gestore": "PICCOLO FRANCESCO", "Bandiera": "Q8", "Tipo impianto": "Altro", "Indirizzo": "VIA SAC. BENEDETTO COZZOLINO 10 80056", "Nome impianto": "Q8", "Comune": "ERCOLANO", "idImpianto": 43948, "points": [{"type": "Feature", "properties": {}, "geometry": {"type": "Point", "coordinates": [14.357609565641384, 40.83115682467383]}}], "price": 1.769, "ultima_rilevazione": "23/04/2022 09:48:34"}, {"Gestore": "CLAJL DI DI MAIO GAETANO", "Bandiera": "Api-Ip", "Tipo impianto": "Altro", "Indirizzo": "VIA DELLA PACE  80040", "Nome impianto": "CLAJL DI DI MAIO GAETANO", "Comune": "SAN SEBASTIANO AL VESUVIO", "idImpianto": 15976, "points": [{"type": "Feature", "properties": {}, "geometry": {"type": "Point", "coordinates": [14.362389743328094, 40.8439104946054]}}], "price": 1.739, "ultima_rilevazione": "24/04/2022 07:22:19"}, {"Gestore": "SERVIZI & GESTIONI ITALIA S.R.L.", "Bandiera": "Q8", "Tipo impianto": "Altro", "Indirizzo": "VIA MANZONI  80046", "Nome impianto": "SAN GIORGIO A CREMANO VIA MANZONI", "Comune": "SAN GIORGIO A CREMANO", "idImpianto": 24046, "points": [{"type": "Feature", "properties": {}, "geometry": {"type": "Point", "coordinates": [14.342639841733558, 40.83816315925255]}}], "price": 1.735, "ultima_rilevazione": "25/04/2022 00:34:41"}, {"Gestore": "SERVIZI & GESTIONI ITALIA S.R.L.", "Bandiera": "Q8", "Tipo impianto": "Altro", "Indirizzo": "VIA REP. MARINARE  80146", "Nome impianto": "NAPOLI V.REP.MARINARE", "Comune": "NAPOLI", "idImpianto": 25792, "points": [{"type": "Feature", "properties": {}, "geometry": {"type": "Point", "coordinates": [14.31483351600798, 40.83676195375583]}}], "price": 1.759, "ultima_rilevazione": "25/04/2022 00:34:41"}, {"Gestore": "SERVIZI & GESTIONI ITALIA S.R.L.", "Bandiera": "Q8", "Tipo impianto": "Altro", "Indirizzo": "VIA REPUBBLICHE MARINARE 392 80146", "Nome impianto": "NAPOLI-VIA REPUBBLICHE MARINARE 392", "Comune": "NAPOLI", "idImpianto": 11734, "points": [{"type": "Feature", "properties": {}, "geometry": {"type": "Point", "coordinates": [14.320937550926146, 40.831767528857256]}}], "price": 1.779, "ultima_rilevazione": "25/04/2022 00:34:43"}, {"Gestore": "P.PETROLI SRL", "Bandiera": "Pompe Bianche", "Tipo impianto": "Altro", "Indirizzo": "CORSO G. GARIBALDI SNC 80055", "Nome impianto": "P.PETROLI - Portici", "Comune": "PORTICI", "idImpianto": 47612, "points": [{"type": "Feature", "properties": {}, "geometry": {"type": "Point", "coordinates": [14.324789778647755, 40.82189479630672]}}], "price": 1.739, "ultima_rilevazione": "26/04/2022 06:31:43"}, {"Gestore": "SCHERILLO GIOVANNI", "Bandiera": "Pompe Bianche", "Tipo impianto": "Altro", "Indirizzo": "largo arso 41 80046", "Nome impianto": "Unoil ( ex Esso )", "Comune": "SAN GIORGIO A CREMANO", "idImpianto": 36466, "points": [{"type": "Feature", "properties": {}, "geometry": {"type": "Point", "coordinates": [14.330108392620332, 40.82580604967606]}}], "price": 1.899, "ultima_rilevazione": "26/04/2022 10:49:42"}, {"Gestore": "IP SERVICES S.R.L.", "Bandiera": "Api-Ip", "Tipo impianto": "Altro", "Indirizzo": "VIA EUROPA SNC 80040", "Nome impianto": "CERCOLA - EUROPA", "Comune": "CERCOLA", "idImpianto": 24256, "points": [{"type": "Feature", "properties": {}, "geometry": {"type": "Point", "coordinates": [14.356618775463176, 40.85036956684552]}}], "price": 1.739, "ultima_rilevazione": "26/04/2022 12:01:55"}, {"Gestore": "DE FALCO MARIKA", "Bandiera": "Esso", "Tipo impianto": "Altro", "Indirizzo": "VIA DELLE REPUBBLICHE MARINARE 292  80146", "Nome impianto": "STAZIONE DI SERVIZIO ESSO", "Comune": "NAPOLI", "idImpianto": 45228, "points": [{"type": "Feature", "properties": {}, "geometry": {"type": "Point", "coordinates": [14.316577000123, 40.835269000123]}}], "price": 1.729, "ultima_rilevazione": "26/04/2022 12:46:54"}, {"Gestore": "ROMANO LUCIA", "Bandiera": "Tamoil", "Tipo impianto": "Altro", "Indirizzo": "VIA EUROPA 26 80040", "Nome impianto": "TAMOIL di Romano Lucia", "Comune": "CERCOLA", "idImpianto": 34266, "points": [{"type": "Feature", "properties": {}, "geometry": {"type": "Point", "coordinates": [14.35477368832585, 40.85084286591616]}}], "price": 1.788, "ultima_rilevazione": "26/04/2022 13:32:05"}, {"Gestore": "SANNINO PETROLI S.R.L. ", "Bandiera": "Pompe Bianche", "Tipo impianto": "Altro", "Indirizzo": "VIA A.MANZONI 72 80046", "Nome impianto": "SP PETROLI SAN GIORGIO", "Comune": "SAN GIORGIO A CREMANO", "idImpianto": 30477, "points": [{"type": "Feature", "properties": {}, "geometry": {"type": "Point", "coordinates": [14.343853182764065, 40.83596353231729]}}], "price": 1.725, "ultima_rilevazione": "26/04/2022 14:52:45"}], "3": [{"Gestore": "BENE DOMENICO S.R.L.", "Bandiera": "Agip Eni", "Tipo impianto": "Altro", "Indirizzo": "VIA GARIBALDI 85 80040", "Nome impianto": "ENI", "Comune": "POLLENA TROCCHIA", "idImpianto": 41900, "points": [{"type": "Feature", "properties": {}, "geometry": {"type": "Point", "coordinates": [14.372101351618769, 40.86402024469228]}}], "price": 1.574, "ultima_rilevazione": "05/11/2021 11:35:06"}, {"Gestore": "ST OIL S.R.L.", "Bandiera": "Pompe Bianche", "Tipo impianto": "Altro", "Indirizzo": "VIA DON MINZONI 7 80040", "Nome impianto": "ST OIL", "Comune": "CERCOLA", "idImpianto": 37106, "points": [{"type": "Feature", "properties": {}, "geometry": {"type": "Point", "coordinates": [14.356422415977477, 40.86312612982553]}}], "price": 1.799, "ultima_rilevazione": "19/04/2022 21:52:28"}, {"Gestore": "ZEUS PETROL SOCIETA' A RESPONSABILITA' LIMITATA", "Bandiera": "Pompe Bianche", "Tipo impianto": "Altro", "Indirizzo": "VIA LIBERTA' 47 80040", "Nome impianto": "ZEUS PETROL S.R.L", "Comune": "SAN SEBASTIANO AL VESUVIO", "idImpianto": 42447, "points": [{"type": "Feature", "properties": {}, "geometry": {"type": "Point", "coordinates": [14.361203682208952, 40.84813394210836]}}], "price": 1.749, "ultima_rilevazione": "20/04/2022 14:54:58"}, {"Gestore": "FIORENTINO CARBURANTI S.A.S. DI FIORENTINO MARILENA", "Bandiera": "Q8", "Tipo impianto": "Altro", "Indirizzo": "via luigi volpicella 411 80142", "Nome impianto": "DISTRIBUTORE Q8", "Comune": "NAPOLI", "idImpianto": 48414, "points": [{"type": "Feature", "properties": {}, "geometry": {"type": "Point", "coordinates": [14.323330202083584, 40.84838010169506]}}], "price": 1.739, "ultima_rilevazione": "21/04/2022 07:50:50"}, {"Gestore": "BARBERIO CIRO", "Bandiera": "Pompe Bianche", "Tipo impianto": "Altro", "Indirizzo": "VIA PONTE DEI GRANILI 5 80146", "Nome impianto": "BFUELCARBURANTI di BARBERIO CIRO", "Comune": "NAPOLI", "idImpianto": 50375, "points": [{"type": "Feature", "properties": {}, "geometry": {"type": "Point", "coordinates": [14.29263822734356, 40.840508256893045]}}], "price": 1.749, "ultima_rilevazione": "21/04/2022 08:33:27"}, {"Gestore": "NOCERINO RAFFAELE & FIGLI S.A.S. DI NOCERINO GIOVANNI", "Bandiera": "Agip Eni", "Tipo impianto": "Altro", "Indirizzo": "VIA MATTEOTTI 22 80040", "Nome impianto": "ENI NOCERINO ", "Comune": "SAN SEBASTIANO AL VESUVIO", "idImpianto": 15064, "points": [{"type": "Feature", "properties": {}, "geometry": {"type": "Point", "coordinates": [14.36795102209021, 40.84405217673461]}}], "price": 1.799, "ultima_rilevazione": "21/04/2022 09:39:36"}, {"Gestore": "PENTA PETROLI SRL", "Bandiera": "Pompe Bianche", "Tipo impianto": "Altro", "Indirizzo": "VIA BOTEGHELLE SNC 80147", "Nome impianto": "EWA BOTTEGHELLE", "Comune": "NAPOLI", "idImpianto": 32722, "points": [{"type": "Feature", "properties": {}, "geometry": {"type": "Point", "coordinates": [14.329226911067964, 40.86575556895068]}}], "price": 1.738, "ultima_rilevazione": "21/04/2022 10:26:24"}, {"Gestore": "ROMINO MASSIMO", "Bandiera": "Api-Ip", "Tipo impianto": "Altro", "Indirizzo": "VIA PANORAMICA 2 80056", "Nome impianto": "TOTALERG", "Comune": "ERCOLANO", "idImpianto": 38660, "points": [{"type": "Feature", "properties": {}, "geometry": {"type": "Point", "coordinates": [14.35413208808086, 40.80853514880448]}}], "price": 1.779, "ultima_rilevazione": "21/04/2022 17:28:38"}, {"Gestore": "PALOMBA GIUSEPPE", "Bandiera": "Pompe Bianche", "Tipo impianto": "Altro", "Indirizzo": "via san vito 10 80056", "Nome impianto": "easyfuel", "Comune": "ERCOLANO", "idImpianto": 41168, "points": [{"type": "Feature", "properties": {}, "geometry": {"type": "Point", "coordinates": [14.36386029447749, 40.8190151939431]}}], "price": 1.789, "ultima_rilevazione": "21/04/2022 19:23:10"}, {"Gestore": "EASY SERVICE S.R.L.", "Bandiera": "Energas", "Tipo impianto": "Altro", "Indirizzo": "Via Aveta  snc 80056", "Nome impianto": "Easy service Ercolano ", "Comune": "ERCOLANO", "idImpianto": 35680, "points": [{"type": "Feature", "properties": {}, "geometry": {"type": "Point", "coordinates": [14.358646720647812, 40.80844738718757]}}], "price": 1.759, "ultima_rilevazione": "21/04/2022 19:29:41"}, {"Gestore": "GUSMAI NICOLETTA", "Bandiera": "GB Petroli", "Tipo impianto": "Altro", "Indirizzo": "CORSO S. GIOVANNI 223 80146", "Nome impianto": "GB PETROLI", "Comune": "NAPOLI", "idImpianto": 39219, "points": [{"type": "Feature", "properties": {}, "geometry": {"type": "Point", "coordinates": [14.302663040810558, 40.83623565210759]}}], "price": 1.778, "ultima_rilevazione": "22/04/2022 09:06:59"}, {"Gestore": "VESUVIANA PETROLI S.R.L.", "Bandiera": "Pompe Bianche", "Tipo impianto": "Altro", "Indirizzo": "VIA PATACCA  SNC 80056", "Nome impianto": "VESUVIANA PETROLI SRL ", "Comune": "ERCOLANO", "idImpianto": 47406, "points": [{"type": "Feature", "properties": {}, "geometry": {"type": "Point", "coordinates": [14.34814453125, 40.808092514169225]}}], "price": 1.734, "ultima_rilevazione": "22/04/2022 09:41:21"}, {"Gestore": "3L PETROLI S.R.L.", "Bandiera": "Pompe Bianche", "Tipo impianto": "Altro", "Indirizzo": "VIA ANTONIO GRAMSCI 21 80056", "Nome impianto": "3L PETROLI SRL", "Comune": "ERCOLANO", "idImpianto": 50396, "points": [{"type": "Feature", "properties": {}, "geometry": {"type": "Point", "coordinates": [14.358969293479788, 40.81093159812765]}}], "price": 1.759, "ultima_rilevazione": "22/04/2022 13:48:34"}, {"Gestore": "ZACCARO MARIA & C.  S.A.S.", "Bandiera": "Q8", "Tipo impianto": "Altro", "Indirizzo": "VIA DELLE REPUBBLICHE MARINARE  7/11 80147", "Nome impianto": "ZACCARO MARIA & C. SAS", "Comune": "NAPOLI", "idImpianto": 36261, "points": [{"type": "Feature", "properties": {}, "geometry": {"type": "Point", "coordinates": [14.30244217668644, 40.84555651635302]}}], "price": 1.819, "ultima_rilevazione": "22/04/2022 16:13:03"}, {"Gestore": "MG PETROLI SRL", "Bandiera": "Pompe Bianche", "Tipo impianto": "Altro", "Indirizzo": "Via ferrante imparato  251 80100", "Nome impianto": "MG PETROLI SRL", "Comune": "NAPOLI", "idImpianto": 38466, "points": [{"type": "Feature", "properties": {}, "geometry": {"type": "Point", "coordinates": [14.300307557191672, 40.84801174483866]}}], "price": 1.789, "ultima_rilevazione": "23/04/2022 10:20:59"}, {"Gestore": "B.G. PETROLI S.A.S. DI BORRIELLO VINCENZO & C.", "Bandiera": "Esso", "Tipo impianto": "Altro", "Indirizzo": "VIA PANORAMICA 97 80056", "Nome impianto": "B.G.PETROLI SAS", "Comune": "ERCOLANO", "idImpianto": 35860, "points": [{"type": "Feature", "properties": {}, "geometry": {"type": "Point", "coordinates": [14.357177761376988, 40.81022332802966]}}], "price": 1.829, "ultima_rilevazione": "24/04/2022 08:35:31"}, {"Gestore": "AMENDOLA MAURIZIO", "Bandiera": "Pompe Bianche", "Tipo impianto": "Altro", "Indirizzo": "VIA MARIO PALERMO 53 80147", "Nome impianto": "MM Carburanti", "Comune": "NAPOLI", "idImpianto": 36133, "points": [{"type": "Feature", "properties": {}, "geometry": {"type": "Point", "coordinates": [14.321829378604887, 40.857455824856906]}}], "price": 1.779, "ultima_rilevazione": "25/04/2022 11:27:32"}, {"Gestore": "MYLTON  S.R.L.", "Bandiera": "Pompe Bianche", "Tipo impianto": "Altro", "Indirizzo": "VIA ARGINE 336 80147", "Nome impianto": "MYLTON S.R.L.", "Comune": "NAPOLI", "idImpianto": 14328, "points": [{"type": "Feature", "properties": {}, "geometry": {"type": "Point", "coordinates": [14.309363812208176, 40.84985379511883]}}], "price": 1.719, "ultima_rilevazione": "26/04/2022 10:45:27"}, {"Gestore": "STAZIONE DI SERVIZIO M.Y.L.T.O.N. PETROLI DI MOSCA MICHELE", "Bandiera": "Total Erg", "Tipo impianto": "Altro", "Indirizzo": "VIA ABBEVERATOIO 19 80147", "Nome impianto": "STAZIONE DI SERVIZIO M.Y.L.T.O.N. PETROLI DI MOSCA MICHELE]", "Comune": "NAPOLI", "idImpianto": 14323, "points": [{"type": "Feature", "properties": {}, "geometry": {"type": "Point", "coordinates": [14.322363713491768, 40.84832334843441]}}], "price": 1.769, "ultima_rilevazione": "26/04/2022 10:49:09"}, {"Gestore": "IP SERVICES S.R.L.", "Bandiera": "Api-Ip", "Tipo impianto": "Altro", "Indirizzo": "VIA ARGINE 360 80100", "Nome impianto": "NAPOLI - ARGINE 360", "Comune": "NAPOLI", "idImpianto": 33373, "points": [{"type": "Feature", "properties": {}, "geometry": {"type": "Point", "coordinates": [14.311264157295229, 40.8505598461994]}}], "price": 1.749, "ultima_rilevazione": "26/04/2022 12:01:57"}, {"Gestore": "IP SERVICES S.R.L.", "Bandiera": "Api-Ip", "Tipo impianto": "Altro", "Indirizzo": "TRAVERSA VICINALE FOSSITELLI  80147", "Nome impianto": "NAPOLI - VICINALE FOSSITELLI", "Comune": "NAPOLI", "idImpianto": 33545, "points": [{"type": "Feature", "properties": {}, "geometry": {"type": "Point", "coordinates": [14.3144239067459, 40.8510773751301]}}], "price": 1.749, "ultima_rilevazione": "26/04/2022 12:03:12"}, {"Gestore": "IP SERVICES S.R.L.", "Bandiera": "Api-Ip", "Tipo impianto": "Altro", "Indirizzo": "via Volpicella 45 80147", "Nome impianto": "VOLPICELLA", "Comune": "NAPOLI", "idImpianto": 5531, "points": [{"type": "Feature", "properties": {}, "geometry": {"type": "Point", "coordinates": [14.32532441182775, 40.849239502862]}}], "price": 1.739, "ultima_rilevazione": "26/04/2022 12:06:39"}, {"Gestore": "T.D.M. S.R.L.", "Bandiera": "Tamoil", "Tipo impianto": "Altro", "Indirizzo": "VIA ARGINE  8 80147", "Nome impianto": "8336", "Comune": "NAPOLI", "idImpianto": 41142, "points": [{"type": "Feature", "properties": {}, "geometry": {"type": "Point", "coordinates": [14.322723224759102, 40.85602661816269]}}], "price": 1.709, "ultima_rilevazione": "26/04/2022 12:22:02"}, {"Gestore": "ASCHETTINO DOMENICO", "Bandiera": "Esso", "Tipo impianto": "Altro", "Indirizzo": "VIA ARGINE 875 80147", "Nome impianto": "ESSO", "Comune": "NAPOLI", "idImpianto": 33559, "points": [{"type": "Feature", "properties": {}, "geometry": {"type": "Point", "coordinates": [14.33246299624443, 40.860406445681946]}}], "price": 1.729, "ultima_rilevazione": "26/04/2022 13:00:32"}, {"Gestore": "SANNINO PETROLI S.R.L. ", "Bandiera": "Madogas Natural Energy", "Tipo impianto": "Altro", "Indirizzo": "VIA MARITTIMA 44 80055", "Nome impianto": "SP PETROLI -PORTICI", "Comune": "PORTICI", "idImpianto": 48824, "points": [{"type": "Feature", "properties": {}, "geometry": {"type": "Point", "coordinates": [14.33923977862085, 40.80719118511784]}}], "price": 1.725, "ultima_rilevazione": "26/04/2022 14:52:39"}, {"Gestore": "VENUSO SALVATORE", "Bandiera": "Tamoil", "Tipo impianto": "Altro", "Indirizzo": "VIA LUIGI VOLPICELLA 208 80147", "Nome impianto": "Distributore Tamoil Impianto 8332", "Comune": "NAPOLI", "idImpianto": 13092, "points": [{"type": "Feature", "properties": {}, "geometry": {"type": "Point", "coordinates": [14.312672622965238, 40.84594326102288]}}], "price": 1.719, "ultima_rilevazione": "27/04/2022 07:24:10"}, {"Gestore": "LUCARELLA CAFFE'' S.R.L.", "Bandiera": "Esso", "Tipo impianto": "Altro", "Indirizzo": "VIA SAC. B. COZZOLINO 65 80056", "Nome impianto": "LUCARELLA SRL CARBURANTI", "Comune": "ERCOLANO", "idImpianto": 38830, "points": [{"type": "Feature", "properties": {}, "geometry": {"type": "Point", "coordinates": [14.366487488150597, 40.814823003077045]}}], "price": 1.735, "ultima_rilevazione": "26/04/2022 17:39:45"}, {"Gestore": "SERVIZI & GESTIONI ITALIA srl", "Bandiera": "Q8", "Tipo impianto": "Altro", "Indirizzo": "VIA DEGLI ULIVI SNC 80056", "Nome impianto": "ERCOLANO VIA DEGLI ULIVI", "Comune": "ERCOLANO", "idImpianto": 6702, "points": [{"type": "Feature", "properties": {}, "geometry": {"type": "Point", "coordinates": [14.356227699999977, 40.81446484078589]}}], "price": 1.809, "ultima_rilevazione": "27/04/2022 02:06:42"}, {"Gestore": "SERVIZI & GESTIONI ITALIA S.R.L.", "Bandiera": "Q8", "Tipo impianto": "Altro", "Indirizzo": "G. FERRARIS 172 80147", "Nome impianto": "NAPOLI G. FERRARIS 172", "Comune": "NAPOLI", "idImpianto": 26018, "points": [{"type": "Feature", "properties": {}, "geometry": {"type": "Point", "coordinates": [14.298712766270455, 40.84657667223769]}}], "price": 1.759, "ultima_rilevazione": "27/04/2022 02:06:45"}, {"Gestore": "BORRELLI RAFFAELE", "Bandiera": "Esso", "Tipo impianto": "Altro", "Indirizzo": "VIA C. DE MEIS 1 80147", "Nome impianto": "BORRELLI RAFFAELE", "Comune": "NAPOLI", "idImpianto": 12899, "points": [{"type": "Feature", "properties": {}, "geometry": {"type": "Point", "coordinates": [14.32946428656578, 40.85078302173115]}}], "price": 1.729, "ultima_rilevazione": "27/04/2022 07:43:38"}], "5": [{"Gestore": "SAVI SRL", "Bandiera": "Esso", "Tipo impianto": "Altro", "Indirizzo": "CORSO ARNALDO LUCCI SNC 80142", "Nome impianto": "ESSO", "Comune": "NAPOLI", "idImpianto": 45642, "points": [{"type": "Feature", "properties": {}, "geometry": {"type": "Point", "coordinates": [14.27675506497394, 40.84767418029747]}}], "price": 1.569, "ultima_rilevazione": "13/10/2021 12:17:24"}, {"Gestore": "ESPOSITO GIOVANNI", "Bandiera": "Api-Ip", "Tipo impianto": "Altro", "Indirizzo": "VIA G. MARCONI 53/55 80059", "Nome impianto": "DITTA ESPOSITO GIOVANNI", "Comune": "TORRE DEL GRECO", "idImpianto": 28062, "points": [{"type": "Feature", "properties": {}, "geometry": {"type": "Point", "coordinates": [14.372103118641917, 40.79390051824808]}}], "price": 2.129, "ultima_rilevazione": "20/04/2022 15:17:46"}, {"Gestore": "SC. OIL S.R.L.S.", "Bandiera": "Pompe Bianche", "Tipo impianto": "Altro", "Indirizzo": "VIA EMANUELE GIANTURCO  78 80146", "Nome impianto": "SC. OIL ", "Comune": "NAPOLI", "idImpianto": 41371, "points": [{"type": "Feature", "properties": {}, "geometry": {"type": "Point", "coordinates": [14.288355434862751, 40.84786299922204]}}], "price": 2.269, "ultima_rilevazione": "21/04/2022 06:06:16"}, {"Gestore": "DE LUCA LUIGI", "Bandiera": "Agip Eni", "Tipo impianto": "Altro", "Indirizzo": "VIA STADERA A POGGIOREALE  80143", "Nome impianto": "DE LUCA LUIGI", "Comune": "NAPOLI", "idImpianto": 35375, "points": [{"type": "Feature", "properties": {}, "geometry": {"type": "Point", "coordinates": [14.306204840540886, 40.874918260187705]}}], "price": 2.184, "ultima_rilevazione": "22/04/2022 07:43:06"}, {"Gestore": "ZUCCHI S.N.C. DI ZUCCHI RAFFAELE E C.", "Bandiera": "Esso", "Tipo impianto": "Altro", "Indirizzo": "VIA ARCO 190 80048", "Nome impianto": "s.s.esso zucchi s.n.c.", "Comune": "SANT'ANASTASIA", "idImpianto": 22486, "points": [{"type": "Feature", "properties": {}, "geometry": {"type": "Point", "coordinates": [14.384150505065918, 40.86874861757096]}}], "price": 1.809, "ultima_rilevazione": "28/03/2022 11:33:26"}, {"Gestore": "P.C. CARBURANTI SRL", "Bandiera": "Pompe Bianche", "Tipo impianto": "Altro", "Indirizzo": "VIA GRAMSCI 9 80040", "Nome impianto": "Due Palme", "Comune": "VOLLA", "idImpianto": 50391, "points": [{"type": "Feature", "properties": {}, "geometry": {"type": "Point", "coordinates": [14.35425192117691, 40.8826127241879]}}], "price": 1.71, "ultima_rilevazione": "02/04/2022 16:42:27"}, {"Gestore": "CARUFFO VALENTINA", "Bandiera": "Pompe Bianche", "Tipo impianto": "Altro", "Indirizzo": "VIA NUOVA POGGIOREALE SNC, 80143  ", "Nome impianto": "CARUFFO VALENTINA", "Comune": "NAPOLI", "idImpianto": 18241, "points": [{"type": "Feature", "properties": {}, "geometry": {"type": "Point", "coordinates": [14.280980819582396, 40.86192487605891]}}], "price": 1.745, "ultima_rilevazione": "16/04/2022 12:52:00"}, {"Gestore": "PICCOLO GROUP S.R.L.", "Bandiera": "Agip Eni", "Tipo impianto": "Altro", "Indirizzo": "S.S.162 dir Napoli Km 6+513  80040", "Nome impianto": "PICCOLO GROUP", "Comune": "POLLENA TROCCHIA", "idImpianto": 7526, "points": [{"type": "Feature", "properties": {}, "geometry": {"type": "Point", "coordinates": [14.371241382063545, 40.876544472375066]}}], "price": 1.769, "ultima_rilevazione": "20/04/2022 07:20:08"}, {"Gestore": "AMBROSINO GIOVANNI", "Bandiera": "Q8", "Tipo impianto": "Altro", "Indirizzo": "VIA EMANUELE GIANTURCO P.V. Q8  80142", "Nome impianto": "Q8", "Comune": "NAPOLI", "idImpianto": 17301, "points": [{"type": "Feature", "properties": {}, "geometry": {"type": "Point", "coordinates": [14.288224699697594, 40.85536601779113]}}], "price": 1.799, "ultima_rilevazione": "20/04/2022 10:06:41"}, {"Gestore": "BUONICONTI MARIA", "Bandiera": "Esso", "Tipo impianto": "Altro", "Indirizzo": "Via Emanuele Gianturco 123 80143", "Nome impianto": "Impianto ESSO Buoniconti Maria", "Comune": "NAPOLI", "idImpianto": 32813, "points": [{"type": "Feature", "properties": {}, "geometry": {"type": "Point", "coordinates": [14.288100868987158, 40.85626242562899]}}], "price": 1.949, "ultima_rilevazione": "21/04/2022 07:22:06"}, {"Gestore": "ORGANIZZAZIONE SERVIZI AUTO - O.S.A. - S.P.A.", "Bandiera": "Esso", "Tipo impianto": "Altro", "Indirizzo": "via reggia di portici 46 80142", "Nome impianto": "ESSO REGGIA", "Comune": "NAPOLI", "idImpianto": 49730, "points": [{"type": "Feature", "properties": {}, "geometry": {"type": "Point", "coordinates": [14.286060993723936, 40.84316566135385]}}], "price": 1.779, "ultima_rilevazione": "21/04/2022 13:41:22"}, {"Gestore": "GRIMALDI CONCETTA", "Bandiera": "Agip Eni", "Tipo impianto": "Altro", "Indirizzo": "via stadera  80143", "Nome impianto": "ENI 08063", "Comune": "NAPOLI", "idImpianto": 48194, "points": [{"type": "Feature", "properties": {}, "geometry": {"type": "Point", "coordinates": [14.30035925986909, 40.87103647502646]}}], "price": 1.769, "ultima_rilevazione": "21/04/2022 19:15:22"}, {"Gestore": "ORGANIZZAZIONE SERVIZI AUTO - O.S.A. - S.P.A.", "Bandiera": "Esso", "Tipo impianto": "Altro", "Indirizzo": "VIA FERRANTE IMPARATO 451/457 80146", "Nome impianto": "ESSO - V.IMPARATO", "Comune": "NAPOLI", "idImpianto": 49000, "points": [{"type": "Feature", "properties": {}, "geometry": {"type": "Point", "coordinates": [14.298449404692333, 40.85789294565131]}}], "price": 1.749, "ultima_rilevazione": "22/04/2022 07:48:32"}, {"Gestore": "PETROLJ - SOCIETA' A RESPONSABILITA' LIMITATA", "Bandiera": "Esso", "Tipo impianto": "Altro", "Indirizzo": "via Galileo Ferraris 128 80144", "Nome impianto": "Esso 6629", "Comune": "NAPOLI", "idImpianto": 33027, "points": [{"type": "Feature", "properties": {}, "geometry": {"type": "Point", "coordinates": [14.28947512925265, 40.84943369791054]}}], "price": 1.729, "ultima_rilevazione": "22/04/2022 10:49:12"}, {"Gestore": "ORGANIZZAZIONE SERVIZI AUTO - O.S.A. - S.P.A.", "Bandiera": "Esso", "Tipo impianto": "Altro", "Indirizzo": "VIA GALILEO FERRARIS 44/48 80142", "Nome impianto": "ESSO - G.FERRARIS", "Comune": "NAPOLI", "idImpianto": 48999, "points": [{"type": "Feature", "properties": {}, "geometry": {"type": "Point", "coordinates": [14.27604404038709, 40.85030964996206]}}], "price": 1.729, "ultima_rilevazione": "22/04/2022 11:21:47"}, {"Gestore": "CAR.IO S.R.L.", "Bandiera": "Q8", "Tipo impianto": "Altro", "Indirizzo": "VIA DELLE PUGLIE 176/A 80026", "Nome impianto": "BENZINA - GASOLIO - HIQ CASORIA", "Comune": "CASORIA", "idImpianto": 29071, "points": [{"type": "Feature", "properties": {}, "geometry": {"type": "Point", "coordinates": [14.31901598762738, 40.883618858465454]}}], "price": 1.769, "ultima_rilevazione": "22/04/2022 17:20:05"}, {"Gestore": "ACANFORA STEFANIA", "Bandiera": "Total Erg", "Tipo impianto": "Altro", "Indirizzo": "VIA MACELLO  80143", "Nome impianto": "acanfora stefania", "Comune": "NAPOLI", "idImpianto": 12555, "points": [{"type": "Feature", "properties": {}, "geometry": {"type": "Point", "coordinates": [14.293411170835611, 40.862960192370096]}}], "price": 1.789, "ultima_rilevazione": "22/04/2022 20:14:47"}, {"Gestore": "ACANFORA STEFANIA", "Bandiera": "Total Erg", "Tipo impianto": "Altro", "Indirizzo": "VIA MIRAGLIA ANG.P.ZZA ARABIA  80143", "Nome impianto": "acanfora stefania", "Comune": "NAPOLI", "idImpianto": 20622, "points": [{"type": "Feature", "properties": {}, "geometry": {"type": "Point", "coordinates": [14.294732338039807, 40.86439910023402]}}], "price": 1.789, "ultima_rilevazione": "22/04/2022 20:15:06"}, {"Gestore": "A.D. FUEL - SOCIETA' A RESPONSABILITA' LIMITATA SEMPLIFICATA", "Bandiera": "MyOil", "Tipo impianto": "Altro", "Indirizzo": "via gianturco  100 80142", "Nome impianto": "my oil", "Comune": "NAPOLI", "idImpianto": 49044, "points": [{"type": "Feature", "properties": {}, "geometry": {"type": "Point", "coordinates": [14.28933217112653, 40.85128366053975]}}], "price": 1.718, "ultima_rilevazione": "22/04/2022 20:19:14"}, {"Gestore": "CARRARA PIETRO", "Bandiera": "Q8", "Tipo impianto": "Altro", "Indirizzo": "via emanuele gianturco frcv. 79 80142", "Nome impianto": "staz. servizio. q8 ", "Comune": "NAPOLI", "idImpianto": 17155, "points": [{"type": "Feature", "properties": {}, "geometry": {"type": "Point", "coordinates": [14.289340482265288, 40.85030685074771]}}], "price": 1.759, "ultima_rilevazione": "23/04/2022 07:49:42"}, {"Gestore": "PETROLCOR S.R.L.", "Bandiera": "Esso", "Tipo impianto": "Altro", "Indirizzo": "VIA LUFRANO 61 80040", "Nome impianto": "ESSO", "Comune": "VOLLA", "idImpianto": 43903, "points": [{"type": "Feature", "properties": {}, "geometry": {"type": "Point", "coordinates": [14.338231457672125, 40.88577506948254]}}], "price": 1.763, "ultima_rilevazione": "23/04/2022 09:33:06"}, {"Gestore": "DELTA PETROLI S.A.S. DI FELACO ANTONIO & C.", "Bandiera": "Api-Ip", "Tipo impianto": "Altro", "Indirizzo": "VIA FILICHITO TRAV. GARIBALDI SNC, 80040  ", "Nome impianto": "Delta Petroli (VOLLA)", "Comune": "VOLLA", "idImpianto": 20567, "points": [{"type": "Feature", "properties": {}, "geometry": {"type": "Point", "coordinates": [14.353720267025778, 40.88841550110374]}}], "price": 1.763, "ultima_rilevazione": "23/04/2022 10:04:42"}, {"Gestore": "NUOVA CARBURANTI  S.R.L.", "Bandiera": "Api-Ip", "Tipo impianto": "Altro", "Indirizzo": "via Reggia di Portici 87 80143", "Nome impianto": "Nuova Carburanti s.r.l.", "Comune": "NAPOLI", "idImpianto": 35416, "points": [{"type": "Feature", "properties": {}, "geometry": {"type": "Point", "coordinates": [14.286752104134166, 40.842934030131154]}}], "price": 1.769, "ultima_rilevazione": "23/04/2022 11:43:27"}, {"Gestore": "SOCIETA' CARBURANTI S.N.C. DI FLAUTO MARIA ANGELA", "Bandiera": "Esso", "Tipo impianto": "Altro", "Indirizzo": "VIA FILICHITO 133/135 80040", "Nome impianto": "societ\u00e0 carburanti snc di Flauto Maria", "Comune": "VOLLA", "idImpianto": 12910, "points": [{"type": "Feature", "properties": {}, "geometry": {"type": "Point", "coordinates": [14.351210296154022, 40.885577027124654]}}], "price": 1.749, "ultima_rilevazione": "23/04/2022 12:17:45"}, {"Gestore": "VB PETROLI DI VINCENZO BORRIELLO", "Bandiera": "Esso", "Tipo impianto": "Altro", "Indirizzo": "VIA CIRCUMVALLAZIONE 66 80059", "Nome impianto": "vb petroli", "Comune": "TORRE DEL GRECO", "idImpianto": 49084, "points": [{"type": "Feature", "properties": {}, "geometry": {"type": "Point", "coordinates": [14.371714065080177, 40.789573259869634]}}], "price": 1.699, "ultima_rilevazione": "24/04/2022 08:36:58"}, {"Gestore": "SERVIZI & GESTIONI ITALIA srl", "Bandiera": "Q8", "Tipo impianto": "Altro", "Indirizzo": "P.ZA S. ERASMO IMPIANTO Q8 SNC 80142", "Nome impianto": "NAPOLI P.ZA S. ERASMO IMPIANTO Q8", "Comune": "NAPOLI", "idImpianto": 6836, "points": [{"type": "Feature", "properties": {}, "geometry": {"type": "Point", "coordinates": [14.283217930688464, 40.84445816205204]}}], "price": 1.759, "ultima_rilevazione": "25/04/2022 00:34:40"}, {"Gestore": "SERVIZI & GESTIONI ITALIA S.R.L.", "Bandiera": "Q8", "Tipo impianto": "Altro", "Indirizzo": "VIA B. COZZOLINO 101 80056", "Nome impianto": "ERCOLANO VIA B. COZZOLINO, 101", "Comune": "ERCOLANO", "idImpianto": 25008, "points": [{"type": "Feature", "properties": {},