{"area_comune": "[{\"type\": \"Feature\", \"properties\": {}, \"geometry\": {\"type\": \"Polygon\", \"coordinates\": [[[14.47289354688513, 40.95361828666637], [14.476826095714268, 40.950635710688196], [14.477551277469727, 40.94908875048328], [14.478041869034445, 40.947039828106746], [14.478026274445744, 40.94603678836129], [14.47844904704909, 40.94520192821359], [14.48918298618949, 40.93827111953169], [14.490993248437704, 40.93760850865038], [14.496702888711468, 40.928778873114915], [14.500899893698046, 40.928177313587526], [14.498138932187187, 40.92105814523807], [14.494016002208994, 40.91983288374051], [14.489446376984759, 40.91953353882668], [14.488136271887672, 40.919951682464585], [14.486426612381846, 40.92140165917291], [14.485095639902857, 40.92161369897299], [14.480899485465219, 40.92072003840447], [14.478128085822512, 40.919222689591535], [14.477604621123769, 40.918347389528726], [14.477293059953702, 40.9171198957933], [14.473121306334644, 40.9129118854982], [14.469926672665611, 40.909949060921086], [14.465690220185706, 40.90974993944363], [14.464929273269444, 40.909839506403756], [14.465873753056536, 40.91298737040225], [14.469498680725929, 40.91300908073777], [14.471980786778564, 40.914392924448926], [14.473289845064734, 40.91877732430579], [14.47413578792117, 40.925763467173965], [14.475186172223614, 40.92901810867338], [14.480454301256025, 40.93349316385063], [14.48031349231158, 40.936411039852956], [14.478691076325859, 40.94311283934326], [14.476687101428144, 40.942773589549326], [14.472309021350464, 40.940602484105625], [14.47069290490005, 40.95549141340287], [14.470747749571226, 40.95886921146922], [14.472601091182911, 40.95892110748601], [14.47289354688513, 40.95361828666637]]]}}]", "comune": "san-vitaliano", "buffer_1": "[{\"type\": \"Feature\", \"properties\": {}, \"geometry\": {\"type\": \"Polygon\", \"coordinates\": [[[14.483512193681083, 40.95799530231652], [14.509995915915734, 40.933933485593094], [14.510695878307734, 40.933229728948874], [14.511301519684364, 40.93247733732247], [14.511807012314646, 40.93168355493577], [14.512207493249342, 40.93085602422508], [14.512499111013435, 40.930002712227235], [14.512679062539064, 40.92913183385148], [14.512745619989008, 40.928251772777195], [14.512698147218558, 40.92737100073957], [14.512537105723972, 40.92649799598082], [14.512264050026934, 40.925641161651605], [14.509502029016787, 40.91852233614413], [14.50912548019869, 40.91770081028485], [14.508645987275335, 40.91691075016396], [14.508068046407793, 40.91615955844862], [14.507397075635678, 40.91545427340959], [14.506639364033344, 40.91480150302029], [14.505802012733028, 40.91420736309147], [14.504892868369145, 40.91367742001886], [14.503920449567662, 40.91321663867806], [14.502893867168584, 40.912829335952615], [14.501822738927062, 40.91251914032894], [14.500717099489448, 40.912288957934365], [14.499587306483773, 40.91214094533555], [14.498443943599927, 40.91207648935055], [14.485759133414684, 40.91182785304492], [14.473850965892519, 40.9032388728323], [14.472962897310966, 40.90265888540522], [14.47200364504108, 40.90214831915372], [14.470982599076383, 40.901712171429935], [14.469909753628796, 40.90135471116378], [14.468795609383669, 40.90107943711898], [14.467651070822892, 40.9008890436798], [14.466487339616194, 40.900785394501554], [14.465315805118248, 40.900769504282096], [14.464147933037152, 40.90084152883172], [14.462995153357111, 40.90100076353851], [14.461868748605735, 40.90124565024494], [14.460779743552827, 40.90157379246855], [14.45973879741433, 40.901981978819755], [14.458756099611032, 40.90246621438884], [14.457841270097939, 40.90302175979717], [14.457003265236544, 40.903643177532665], [14.456250290129207, 40.90432438511851], [14.455589718272986, 40.90505871459726], [14.455028019320022, 40.90583897775059], [14.454570695653537, 40.906657536418635], [14.454222228403573, 40.90750637723298], [14.453986033435323, 40.90837719003326], [14.453864427746359, 40.90926144920168], [14.4538586066079, 40.91015049711971], [14.453968631680727, 40.911035628930996], [14.454193430229147, 40.91190817778055], [14.454530805447837, 40.912759599695036], [14.454977457807363, 40.913581557272344], [14.467827698460923, 40.93425329897023], [14.459365291769071, 40.95636554598753], [14.459097549446481, 40.957218384805984], [14.458940709473021, 40.95808694501455], [14.458896269368042, 40.95896295817922], [14.458964656694892, 40.959838084580966], [14.459145224819704, 40.96070399261477], [14.459436258899817, 40.96155243812391], [14.459834992051235, 40.96237534291352], [14.460337631547114, 40.96316487169484], [14.460939394803374, 40.963913506726115], [14.461634554813381, 40.96461411943767], [14.462416494602818, 40.9652600383572], [14.463277770188864, 40.96584511268624], [14.464210181445555, 40.96636377092012], [14.465204850200811, 40.96681107395079], [14.466252304820333, 40.96718276214487], [14.467342570470759, 40.96747529594613], [14.468465264199182, 40.9676858896143], [14.469609693919327, 40.967812537777185], [14.470764960356654, 40.967854034542086], [14.471920060975918, 40.967809984983994], [14.473063994895426, 40.9676808089006], [14.474185867782685, 40.96746773679882], [14.47527499572646, 40.96717279815143], [14.476321007090373, 40.96679880203701], [14.477313941372866, 40.96634931034877], [14.478244344127766, 40.96582860382916], [14.479103357038126, 40.96524164125603], [14.479882802283205, 40.96459401217096], [14.480575260394042, 40.96389188360233], [14.4811741408564, 40.96314194129278], [14.481673744789944, 40.96235132599302], [14.482069319109462, 40.96152756543065], [14.483512193681083, 40.95799530231652]]]}}]", "buffer_3": "[{\"type\": \"Feature\", \"properties\": {}, \"geometry\": {\"type\": \"Polygon\", \"coordinates\": [[[14.504753490034227, 40.966746111621354], [14.52819265055048, 40.945443353673156], [14.530292200433152, 40.943331756479836], [14.532108620038278, 40.94107429112676], [14.53362444559382, 40.93869270144125], [14.534825113349397, 40.93620992404748], [14.53569909868617, 40.933649867167354], [14.536238025767801, 40.93103718016358], [14.536436746726846, 40.92839701605578], [14.536293389679823, 40.925754789302744], [14.535809375168109, 40.92313593118586], [14.53498940092702, 40.92056564514735], [14.532225262337843, 40.913447505998946], [14.531094931149983, 40.91098319382945], [14.52965590401518, 40.90861331999782], [14.527921689886579, 40.90636008104072], [14.525908557486574, 40.9042445792006], [14.523635382232424, 40.90228662519311], [14.521123469002358, 40.90050455310436], [14.51839635241563, 40.89891504913234], [14.515479576500203, 40.89753299575617], [14.512400455804457, 40.89637133277369], [14.509187820172844, 40.895440936490395], [14.505871745549113, 40.894750518175066], [14.502483273293166, 40.894306542719626], [14.499054120598117, 40.894113168254314], [14.49547483007557, 40.894043090909335], [14.490167651025722, 40.89021529137462], [14.487503666206077, 40.888475676152375], [14.48462630932945, 40.8869442953879], [14.481563734743101, 40.88563612873207], [14.47834590307907, 40.884563972189625], [14.475004288878592, 40.88373831330718], [14.471571573635071, 40.883167228873354], [14.468081327213943, 40.88285630611835], [14.464567680714051, 40.88280858817301], [14.461064993913643, 40.883024544315894], [14.457607520493948, 40.88350206529725], [14.454229074254489, 40.88423648378961], [14.450962699526366, 40.88522061977186], [14.447840348952932, 40.88644485041531], [14.444892571741423, 40.88789720380302], [14.44214821539518, 40.889563475584296], [14.439634143814128, 40.89142736744401], [14.437374974502228, 40.89347064605449], [14.435392837445766, 40.89567332097785], [14.433707158026788, 40.89801383980108], [14.432334466112955, 40.900469298616315], [14.431288233220823, 40.90301566580639], [14.430578739385373, 40.90562801696287], [14.430212971087071, 40.90828077865103], [14.430194551291226, 40.91094797864562], [14.430523702345225, 40.91360350019358], [14.431197242160527, 40.91622133781524], [14.432208613780995, 40.918775852136015], [14.433547948110073, 40.92124202124545], [14.442573168431757, 40.935769453929296], [14.436602632472983, 40.95135466229747], [14.435798527267082, 40.95391307115871], [14.435327076636945, 40.95651871299334], [14.435192808483302, 40.95914678398435], [14.435397041500998, 40.961772263790586], [14.435937871087805, 40.96437015378751], [14.436810185967968, 40.96691571521358], [14.438005715429592, 40.96938470494861], [14.439513106780327, 40.971753606669964], [14.441318032332816, 40.973999855171755], [14.443403324943173, 40.976102051695165], [14.445749140845058, 40.97804016820009], [14.448333148252203, 40.979795738612594], [14.451130739945752, 40.98135203520524], [14.454115267823346, 40.98269422840888], [14.457258297166012, 40.983809528512936], [14.460529878180472, 40.98468730788518], [14.463898832199584, 40.985319202529844], [14.467333049775187, 40.98569919200243], [14.470799797776907, 40.98582365690945], [14.474266032519296, 40.9856914134385], [14.477698715878587, 40.985303724587034], [14.48106513133083, 40.984664287984614], [14.484333196844734, 40.98377920043045], [14.48747177159578, 40.98265689949353], [14.490450953532266, 40.9813080827455], [14.493242364918258, 40.9797456054116], [14.495819423101683, 40.97798435743377], [14.498157593906537, 40.976041121137484], [14.500234625224675, 40.97393441087933], [14.502030758582361, 40.97168429622455], [14.503528916678226, 40.96931221035918], [14.504714865128726, 40.96684074558105], [14.504753490034227, 40.966746111621354]]]}}]", "buffer_5": "[{\"type\": \"Feature\", \"properties\": {}, \"geometry\": {\"type\": \"Polygon\", \"coordinates\": [[[14.505378905339564, 40.87647222903622], [14.502038325813729, 40.874291000994376], [14.497243397878039, 40.87173922925364], [14.492140045628718, 40.869559411871094], [14.486778166790025, 40.86777285759481], [14.481210173119077, 40.866397031140345], [14.475490480596049, 40.86544538325437], [14.46967498052712, 40.86492721978917], [14.463820496587758, 40.864847611041], [14.457984232956665, 40.86520734222183], [14.452223218769864, 40.86600290554591], [14.44659375415832, 40.86722653401691], [14.441150863122413, 40.86886627660665], [14.43594775844087, 40.87090611412306], [14.431035323711908, 40.87332611467681], [14.426461617479426, 40.87610262727798], [14.422271404208834, 40.8792085117273], [14.4185057166452, 40.882613402615924], [14.415201453812925, 40.886284004915886], [14.41239101860158, 40.890184418333824], [14.41010199852963, 40.894276487315615], [14.408356892887523, 40.898520173333445], [14.407172889037767, 40.902873945860634], [14.406561690194048, 40.907295188246884], [14.406529396518541, 40.91174061454997], [14.407076440869366, 40.91616669325922], [14.408197580003813, 40.92053007376653], [14.409881941501544, 40.92478801139944], [14.41211312612126, 40.928898786832654], [14.417316878164232, 40.937280120893796], [14.413842984973444, 40.94633904344734], [14.412501346759225, 40.95060287827237], [14.411714045024082, 40.954945549306665], [14.411488685131156, 40.95932571937605], [14.41182752490502, 40.96370168598754], [14.412727448867821, 40.96803177846621], [14.41417999370668, 40.97227475510068], [14.416171424889415, 40.97639019650003], [14.418682863850112, 40.98033889139005], [14.421690464670217, 40.98408321113777], [14.42516563868979, 40.98758746939245], [14.429075325003291, 40.9908182633654], [14.433382304329248, 40.993744793440534], [14.438045553300123, 40.99633915801173], [14.44302063580184, 40.998576620677504], [14.448260127607739, 41.00043584718953], [14.45371407020394, 41.0018991098431], [14.459330449396344, 41.0029524573141], [14.465055694028353, 41.00358584828478], [14.470835189926113, 41.003793247554654], [14.476613804027293, 41.00357268370176], [14.482336413542738, 41.00292626773716], [14.48794843494866, 41.0018601725793], [14.493396347611563, 41.000384573560254], [14.49862820690801, 40.99851355055785], [14.503594141816412, 40.99626495272376], [14.508246832125995, 40.99366022714282], [14.512541960627006, 40.99072421310895], [14.516438635912609, 40.987484904035526], [14.519899781733585, 40.98397317932902], [14.522892489197304, 40.980222508840846], [14.52538832848819, 40.97626863277119], [14.525575314945238, 40.97587869816255], [14.546395640955572, 40.95694991770096], [14.549894327252995, 40.953430043581285], [14.552920850965126, 40.94966711734395], [14.555446138295936, 40.94569739730464], [14.557445958274895, 40.94155912668242], [14.558901152984168, 40.93729216433938], [14.559797818388235, 40.93293760023422], [14.560127434164288, 40.928537359323336], [14.559886941438844, 40.924133797743764], [14.559078767847225, 40.91976929517308], [14.557710799843456, 40.915485847286526], [14.554944545568642, 40.90836839539661], [14.553059520251535, 40.90426165125182], [14.55066022911757, 40.90031237271922], [14.547769221090835, 40.89655753490538], [14.544413634930807, 40.89303228726514], [14.540624943213354, 40.88976962566377], [14.536438656444489, 40.88680008469359], [14.53189399011356, 40.88415145307125], [14.527033497811148, 40.881848514724766], [14.521902673825643, 40.87991281794098], [14.516549528890305, 40.878362474684195], [14.511024142978249, 40.87721199192037], [14.505378905339564, 40.87647222903622]]]}}]", "centroid": "[{\"type\": \"Feature\", \"properties\": {}, \"geometry\": {\"type\": \"Point\", \"coordinates\": [14.478477717386307, 40.932581614570246]}}]", "Diesel High Quality": {"1": [{"Gestore": "LCB CARBURANTI S.R.L.", "Bandiera": "Q8", "Tipo impianto": "Altro", "Indirizzo": "7BIS KM 49+615  80030", "Nome impianto": "LCB CARBURANTI S.R.L.", "Comune": "SAN VITALIANO", "idImpianto": 44405, "points": [{"type": "Feature", "properties": {}, "geometry": {"type": "Point", "coordinates": [14.494180000123, 40.932706000123]}}], "price": 2.019, "ultima_rilevazione": "11/06/2022 15:17:53"}, {"Gestore": "LCB CARBURANTI S.R.L.", "Bandiera": "Q8", "Tipo impianto": "Altro", "Indirizzo": "7BIS KM 49+615  80030", "Nome impianto": "LCB CARBURANTI S.R.L.", "Comune": "SAN VITALIANO", "idImpianto": 44405, "points": [{"type": "Feature", "properties": {}, "geometry": {"type": "Point", "coordinates": [14.494180000123, 40.932706000123]}}], "price": 1.869, "ultima_rilevazione": "11/06/2022 15:17:53"}, {"Gestore": "SERVIZI & GESTIONI ITALIA S.R.L.", "Bandiera": "Q8", "Tipo impianto": "Altro", "Indirizzo": "SS. 7BIS KM.49+615 S/N 80030", "Nome impianto": "SAN VITALIANO-SS. 7BIS KM.49+615", "Comune": "SAN VITALIANO", "idImpianto": 11730, "points": [{"type": "Feature", "properties": {}, "geometry": {"type": "Point", "coordinates": [14.494183906745889, 40.93270678777371]}}], "price": 1.709, "ultima_rilevazione": "02/07/2022 08:07:32"}, {"Gestore": "SERVIZI & GESTIONI ITALIA S.R.L.", "Bandiera": "Q8", "Tipo impianto": "Altro", "Indirizzo": "SS. 7BIS KM.49+615 S/N 80030", "Nome impianto": "SAN VITALIANO-SS. 7BIS KM.49+615", "Comune": "SAN VITALIANO", "idImpianto": 11730, "points": [{"type": "Feature", "properties": {}, "geometry": {"type": "Point", "coordinates": [14.494183906745889, 40.93270678777371]}}], "price": 1.819, "ultima_rilevazione": "02/07/2022 08:07:32"}, {"Gestore": "SARNI S.R.L.", "Bandiera": "Esso", "Tipo impianto": "Autostradale", "Indirizzo": "Autostrada A30 CASERTA-SALERNO, Km. 39, dir. NORD 80030", "Nome impianto": "TRE PONTI EST", "Comune": "MARIGLIANO", "idImpianto": 35470, "points": [{"type": "Feature", "properties": {}, "geometry": {"type": "Point", "coordinates": [14.470447897911072, 40.95311102223114]}}], "price": 2.248, "ultima_rilevazione": "06/07/2022 12:21:15"}, {"Gestore": "IP SERVICES S.R.L.", "Bandiera": "Api-Ip", "Tipo impianto": "Altro", "Indirizzo": "Comprensorio CIS SNC 80035", "Nome impianto": "NOLA", "Comune": "NOLA", "idImpianto": 5956, "points": [{"type": "Feature", "properties": {}, "geometry": {"type": "Point", "coordinates": [14.485746034393287, 40.95376230339099]}}], "price": 1.899, "ultima_rilevazione": "08/07/2022 09:03:30"}], "3": [{"Gestore": "IP SERVICES S.R.L.", "Bandiera": "Api-Ip", "Tipo impianto": "Altro", "Indirizzo": "Corso Italia 75 80039", "Nome impianto": "Saviano", "Comune": "SAVIANO", "idImpianto": 31268, "points": [{"type": "Feature", "properties": {}, "geometry": {"type": "Point", "coordinates": [14.5105548087613, 40.91204175156891]}}], "price": 1.899, "ultima_rilevazione": "08/07/2022 09:04:11"}, {"Gestore": "ADAMIANO SERVICES S.A.S. DI ANTONIO ADAMIANO E C.", "Bandiera": "Q8", "Tipo impianto": "Strada Statale", "Indirizzo": "Strada Statale, Km. 50, avellino 80035", "Nome impianto": "impianto q8", "Comune": "NOLA", "idImpianto": 50096, "points": [{"type": "Feature", "properties": {}, "geometry": {"type": "Point", "coordinates": [14.519601150708803, 40.93229338666075]}}], "price": 2.299, "ultima_rilevazione": "08/07/2022 12:38:54"}], "5": [{"Gestore": "CAPOLONGO S.A.S. DI NUNZIO CAPOLONGO", "Bandiera": "Q8", "Tipo impianto": "Altro", "Indirizzo": "VIA PROVINCIALE NOLA-CICCIANO  80030", "Nome impianto": "CAPOLONGO SAS", "Comune": "CAMPOSANO", "idImpianto": 40439, "points": [{"type": "Feature", "properties": {}, "geometry": {"type": "Point", "coordinates": [14.537922888994215, 40.95467901849279]}}], "price": 2.389, "ultima_rilevazione": "04/07/2022 15:03:11"}, {"Gestore": "SERVIZI & GESTIONI ITALIA S.R.L.", "Bandiera": "Q8", "Tipo impianto": "Altro", "Indirizzo": "SS. 7BIS KM. 44+847  80030", "Nome impianto": "MARIGLIANELLA SS. 7BIS KM. 44+847", "Comune": "MARIGLIANELLA", "idImpianto": 25791, "points": [{"type": "Feature", "properties": {}, "geometry": {"type": "Point", "coordinates": [14.432668723417692, 40.93310259678763]}}], "price": 2.389, "ultima_rilevazione": "03/07/2022 00:34:42"}, {"Gestore": "SERVIZI & GESTIONI ITALIA S.R.L.", "Bandiera": "Q8", "Tipo impianto": "Altro", "Indirizzo": "SS. 7BIS KM. 44+847  80030", "Nome impianto": "MARIGLIANELLA SS. 7BIS KM. 44+847", "Comune": "MARIGLIANELLA", "idImpianto": 25791, "points": [{"type": "Feature", "properties": {}, "geometry": {"type": "Point", "coordinates": [14.432668723417692, 40.93310259678763]}}], "price": 2.389, "ultima_rilevazione": "03/07/2022 00:34:42"}, {"Gestore": "SERVIZI & GESTIONI ITALIA S.R.L.", "Bandiera": "Q8", "Tipo impianto": "Altro", "Indirizzo": "VIA FORNARI  80049", "Nome impianto": "SOMMA VESUVIANA VIA FORNARI", "Comune": "SOMMA VESUVIANA", "idImpianto": 45220, "points": [{"type": "Feature", "properties": {}, "geometry": {"type": "Point", "coordinates": [14.414808165641375, 40.89746076200679]}}], "price": 2.289, "ultima_rilevazione": "08/07/2022 11:43:28"}, {"Gestore": "SERVIZI & GESTIONI ITALIA S.R.L.", "Bandiera": "Q8", "Tipo impianto": "Altro", "Indirizzo": "VIA FORNARI  80049", "Nome impianto": "SOMMA VESUVIANA VIA FORNARI", "Comune": "SOMMA VESUVIANA", "idImpianto": 45220, "points": [{"type": "Feature", "properties": {}, "geometry": {"type": "Point", "coordinates": [14.414808165641375, 40.89746076200679]}}], "price": 2.289, "ultima_rilevazione": "08/07/2022 11:43:28"}]}, "Blue Diesel": {"1": [{"Gestore": "MGT SAS DI TERRACCIANO CIRO", "Bandiera": "Agip Eni", "Tipo impianto": "Altro", "Indirizzo": "CORSO UMBERTO I 583 80034", "Nome impianto": "ENI 08115", "Comune": "MARIGLIANO", "idImpianto": 51426, "points": [{"type": "Feature", "properties": {}, "geometry": {"type": "Point", "coordinates": [14.46394370231971, 40.92411421858801]}}], "price": 2.074, "ultima_rilevazione": "04/07/2022 11:04:48"}, {"Gestore": "MGT SAS DI TERRACCIANO CIRO", "Bandiera": "Agip Eni", "Tipo impianto": "Altro", "Indirizzo": "CORSO UMBERTO I 583 80034", "Nome impianto": "ENI 08115", "Comune": "MARIGLIANO", "idImpianto": 51426, "points": [{"type": "Feature", "properties": {}, "geometry": {"type": "Point", "coordinates": [14.46394370231971, 40.92411421858801]}}], "price": 2.174, "ultima_rilevazione": "04/07/2022 11:04:48"}, {"Gestore": "BML. S.R.L.", "Bandiera": "Agip Eni", "Tipo impianto": "Altro", "Indirizzo": "VIA NAZ.DELLE PUGLIE STAZ.AGIP S.C. 80030", "Nome impianto": "CELLINI -AGIP-", "Comune": "SAN VITALIANO", "idImpianto": 27132, "points": [{"type": "Feature", "properties": {}, "geometry": {"type": "Point", "coordinates": [14.478577673435211, 40.92755698656064]}}], "price": 2.024, "ultima_rilevazione": "07/07/2022 21:46:27"}, {"Gestore": "BML. S.R.L.", "Bandiera": "Agip Eni", "Tipo impianto": "Altro", "Indirizzo": "VIA NAZ.DELLE PUGLIE STAZ.AGIP S.C. 80030", "Nome impianto": "CELLINI -AGIP-", "Comune": "SAN VITALIANO", "idImpianto": 27132, "points": [{"type": "Feature", "properties": {}, "geometry": {"type": "Point", "coordinates": [14.478577673435211, 40.92755698656064]}}], "price": 2.124, "ultima_rilevazione": "07/07/2022 21:46:27"}], "3": [{"Gestore": "TRE PONTI PETROLI S.A.S. DI PAPILIO FRANCESCO E C.", "Bandiera": "Agip Eni", "Tipo impianto": "Strada Statale", "Indirizzo": "7 bis di Terra di Lavoro, Km. 35, Villa Literno-Nola 80034", "Nome impianto": "Area di servizio marigliano", "Comune": "MARIGLIANO", "idImpianto": 42450, "points": [{"type": "Feature", "properties": {}, "geometry": {"type": "Point", "coordinates": [14.450716227293016, 40.93338173629213]}}], "price": 2.279, "ultima_rilevazione": "23/06/2022 08:54:27"}, {"Gestore": "TRE PONTI PETROLI S.A.S. DI PAPILIO FRANCESCO E C.", "Bandiera": "Agip Eni", "Tipo impianto": "Strada Statale", "Indirizzo": "7 bis di Terra di Lavoro, Km. 35, Villa Literno-Nola 80034", "Nome impianto": "Area di servizio marigliano", "Comune": "MARIGLIANO", "idImpianto": 42450, "points": [{"type": "Feature", "properties": {}, "geometry": {"type": "Point", "coordinates": [14.450716227293016, 40.93338173629213]}}], "price": 2.079, "ultima_rilevazione": "23/06/2022 08:54:27"}, {"Gestore": "G.I.BS SAS DI TERRACCIANO SALVATORE", "Bandiera": "Agip Eni", "Tipo impianto": "Altro", "Indirizzo": "VIA XI SETTEMBRE 25 80034", "Nome impianto": "Stazione di Servizio Eni Spa 55607", "Comune": "MARIGLIANO", "idImpianto": 38304, "points": [{"type": "Feature", "properties": {}, "geometry": {"type": "Point", "coordinates": [14.450710192322733, 40.93336937565988]}}], "price": 2.174, "ultima_rilevazione": "04/07/2022 11:08:27"}, {"Gestore": "G.I.BS SAS DI TERRACCIANO SALVATORE", "Bandiera": "Agip Eni", "Tipo impianto": "Altro", "Indirizzo": "VIA XI SETTEMBRE 25 80034", "Nome impianto": "Stazione di Servizio Eni Spa 55607", "Comune": "MARIGLIANO", "idImpianto": 38304, "points": [{"type": "Feature", "properties": {}, "geometry": {"type": "Point", "coordinates": [14.450710192322733, 40.93336937565988]}}], "price": 2.074, "ultima_rilevazione": "04/07/2022 11:08:27"}], "5": [{"Gestore": "AP CARBURANTI S.R.L.", "Bandiera": "Agip Eni", "Tipo impianto": "Altro", "Indirizzo": "VIA POMIGLIANO SNC 80049", "Nome impianto": "STAZIONE DI SERVIZIO ENI", "Comune": "SOMMA VESUVIANA", "idImpianto": 20334, "points": [{"type": "Feature", "properties": {}, "geometry": {"type": "Point", "coordinates": [14.422374665737152, 40.89165649482885]}}], "price": 2.119, "ultima_rilevazione": "02/07/2022 11:21:43"}, {"Gestore": "SODANO GIOVANNI", "Bandiera": "Agip Eni", "Tipo impianto": "Altro", "Indirizzo": "VIA SANTA MARIA DEL POZZO 188 80049", "Nome impianto": "sodano eni", "Comune": "SOMMA VESUVIANA", "idImpianto": 26864, "points": [{"type": "Feature", "properties": {}, "geometry": {"type": "Point", "coordinates": [14.433122534171048, 40.88322096198227]}}], "price": 2.074, "ultima_rilevazione": "04/07/2022 07:43:57"}, {"Gestore": "PELLEGRINO MASSIMO", "Bandiera": "Agip Eni", "Tipo impianto": "Altro", "Indirizzo": "Via seminario s.p. Nola/Casamarciano Snc 80032", "Nome impianto": "Stazione di servizio Eni", "Comune": "CASAMARCIANO", "idImpianto": 49427, "points": [{"type": "Feature", "properties": {}, "geometry": {"type": "Point", "coordinates": [14.54606406390667, 40.9295750579082]}}], "price": 2.074, "ultima_rilevazione": "04/07/2022 10:21:30"}, {"Gestore": "ROMANO CARMELA", "Bandiera": "Agip Eni", "Tipo impianto": "Strada Statale", "Indirizzo": "Statale 268 del Vesuvio, Km. 7+744, dir. NAPOLI", "Nome impianto": "ROMANO CARMELA", "Comune": "SOMMA VESUVIANA", "idImpianto": 8156, "points": [{"type": "Feature", "properties": {}, "geometry": {"type": "Point", "coordinates": [14.436773715066463, 40.887424762457165]}}], "price": 2.089, "ultima_rilevazione": "07/07/2022 06:50:41"}]}, "Gasolio High Quality": {"1": [{"Gestore": "DS CARBURANTI S.A.S. DI D'ONOFRIO SAVERIO", "Bandiera": "Esso", "Tipo impianto": "Autostradale", "Indirizzo": "Autostrada A30 CASERTA-SALERNO, Km. 16,200, dir. sud 80034", "Nome impianto": "TRE PONTI OVEST", "Comune": "MARIGLIANO", "idImpianto": 22319, "points": [{"type": "Feature", "properties": {}, "geometry": {"type": "Point", "coordinates": [14.471424221992493, 40.95146226138661]}}], "price": 2.239, "ultima_rilevazione": "07/07/2022 22:32:45"}], "3": [], "5": []}, "Benzina": {"1": [{"Gestore": "LCB CARBURANTI S.R.L.", "Bandiera": "Q8", "Tipo impianto": "Altro", "Indirizzo": "7BIS KM 49+615  80030", "Nome impianto": "LCB CARBURANTI S.R.L.", "Comune": "SAN VITALIANO", "idImpianto": 44405, "points": [{"type": "Feature", "properties": {}, "geometry": {"type": "Point", "coordinates": [14.494180000123, 40.932706000123]}}], "price": 1.719, "ultima_rilevazione": "11/06/2022 15:17:53"}, {"Gestore": "TRE PONTI PETROLI S.A.S. DI PAPILIO FRANCESCO E C.", "Bandiera": "Pompe Bianche", "Tipo impianto": "Strada Statale", "Indirizzo": "7 bis di Terra di Lavoro, Km. 42+064, Villa Literno 80034", "Nome impianto": "Area di servizio Marigliano Est", "Comune": "MARIGLIANO", "idImpianto": 46408, "points": [{"type": "Feature", "properties": {}, "geometry": {"type": "Point", "coordinates": [14.469875147862354, 40.958485869254815]}}], "price": 2.059, "ultima_rilevazione": "23/06/2022 08:55:16"}, {"Gestore": "SERVIZI & GESTIONI ITALIA S.R.L.", "Bandiera": "Q8", "Tipo impianto": "Altro", "Indirizzo": "SS. 7BIS KM.49+615 S/N 80030", "Nome impianto": "SAN VITALIANO-SS. 7BIS KM.49+615", "Comune": "SAN VITALIANO", "idImpianto": 11730, "points": [{"type": "Feature", "properties": {}, "geometry": {"type": "Point", "coordinates": [14.494183906745889, 40.93270678777371]}}], "price": 1.519, "ultima_rilevazione": "02/07/2022 08:07:32"}, {"Gestore": "SERVIZI & GESTIONI ITALIA srl", "Bandiera": "Q8", "Tipo impianto": "Altro", "Indirizzo": "S.S. 7BIS KM. 48+354 IMP.Q8 SNC 80030", "Nome impianto": "S. VITALIANO S.S. 7BIS KM. 48+354 IMP.Q8", "Comune": "SAN VITALIANO", "idImpianto": 6705, "points": [{"type": "Feature", "properties": {}, "geometry": {"type": "Point", "coordinates": [14.48077595344239, 40.92802067797457]}}], "price": 1.979, "ultima_rilevazione": "03/07/2022 00:34:42"}, {"Gestore": "GRUPPO AURICCHIO DI CANGIANIELLO MARIA & C. S.A.S.", "Bandiera": "Pompe Bianche", "Tipo impianto": "Altro", "Indirizzo": "VIA TARANTO 3 80035", "Nome impianto": "ludoil", "Comune": "NOLA", "idImpianto": 42696, "points": [{"type": "Feature", "properties": {}, "geometry": {"type": "Point", "coordinates": [14.508878766233124, 40.93250826877032]}}], "price": 1.999, "ultima_rilevazione": "04/07/2022 09:33:18"}, {"Gestore": "MGT SAS DI TERRACCIANO CIRO", "Bandiera": "Agip Eni", "Tipo impianto": "Altro", "Indirizzo": "CORSO UMBERTO I 583 80034", "Nome impianto": "ENI 08115", "Comune": "MARIGLIANO", "idImpianto": 51426, "points": [{"type": "Feature", "properties": {}, "geometry": {"type": "Point", "coordinates": [14.46394370231971, 40.92411421858801]}}], "price": 2.024, "ultima_rilevazione": "04/07/2022 11:04:48"}, {"Gestore": "SARNI S.R.L.", "Bandiera": "Esso", "Tipo impianto": "Autostradale", "Indirizzo": "Autostrada A30 CASERTA-SALERNO, Km. 39, dir. NORD 80030", "Nome impianto": "TRE PONTI EST", "Comune": "MARIGLIANO", "idImpianto": 35470, "points": [{"type": "Feature", "properties": {}, "geometry": {"type": "Point", "coordinates": [14.470447897911072, 40.95311102223114]}}], "price": 2.099, "ultima_rilevazione": "06/07/2022 12:21:15"}, {"Gestore": "FABIANO ENERGIA S.R.L.", "Bandiera": "Pompe Bianche", "Tipo impianto": "Altro", "Indirizzo": "VIA PROVINCIALE PER NOLA 258 80030", "Nome impianto": "FABIANO ENERGIA", "Comune": "SAN VITALIANO", "idImpianto": 38160, "points": [{"type": "Feature", "properties": {}, "geometry": {"type": "Point", "coordinates": [14.494701772928238, 40.92393794218299]}}], "price": 1.999, "ultima_rilevazione": "06/07/2022 12:53:51"}, {"Gestore": "BML. S.R.L.", "Bandiera": "Agip Eni", "Tipo impianto": "Altro", "Indirizzo": "VIA NAZ.DELLE PUGLIE STAZ.AGIP S.C. 80030", "Nome impianto": "CELLINI -AGIP-", "Comune": "SAN VITALIANO", "idImpianto": 27132, "points": [{"type": "Feature", "properties": {}, "geometry": {"type": "Point", "coordinates": [14.478577673435211, 40.92755698656064]}}], "price": 1.974, "ultima_rilevazione": "07/07/2022 21:46:27"}, {"Gestore": "DS CARBURANTI S.A.S. DI D'ONOFRIO SAVERIO", "Bandiera": "Esso", "Tipo impianto": "Autostradale", "Indirizzo": "Autostrada A30 CASERTA-SALERNO, Km. 16,200, dir. sud 80034", "Nome impianto": "TRE PONTI OVEST", "Comune": "MARIGLIANO", "idImpianto": 22319, "points": [{"type": "Feature", "properties": {}, "geometry": {"type": "Point", "coordinates": [14.471424221992493, 40.95146226138661]}}], "price": 2.149, "ultima_rilevazione": "07/07/2022 22:32:45"}, {"Gestore": "IP SERVICES S.R.L.", "Bandiera": "Api-Ip", "Tipo impianto": "Altro", "Indirizzo": "Comprensorio CIS SNC 80035", "Nome impianto": "NOLA", "Comune": "NOLA", "idImpianto": 5956, "points": [{"type": "Feature", "properties": {}, "geometry": {"type": "Point", "coordinates": [14.485746034393287, 40.95376230339099]}}], "price": 1.979, "ultima_rilevazione": "08/07/2022 09:03:30"}], "3": [{"Gestore": "TRE PONTI PETROLI S.A.S. DI PAPILIO FRANCESCO E C.", "Bandiera": "Agip Eni", "Tipo impianto": "Strada Statale", "Indirizzo": "7 bis di Terra di Lavoro, Km. 35, Villa Literno-Nola 80034", "Nome impianto": "Area di servizio marigliano", "Comune": "MARIGLIANO", "idImpianto": 42450, "points": [{"type": "Feature", "properties": {}, "geometry": {"type": "Point", "coordinates": [14.450716227293016, 40.93338173629213]}}], "price": 2.069, "ultima_rilevazione": "23/06/2022 08:54:27"}, {"Gestore": "ADAMIANO SERVICES S.A.S. DI ANTONIO ADAMIANO E C.", "Bandiera": "Pompe Bianche", "Tipo impianto": "Altro", "Indirizzo": "via san paolo belsito  63 80035", "Nome impianto": "menna oil", "Comune": "NOLA", "idImpianto": 50097, "points": [{"type": "Feature", "properties": {}, "geometry": {"type": "Point", "coordinates": [14.53348041023868, 40.9221745522669]}}], "price": 1.979, "ultima_rilevazione": "03/07/2022 09:35:27"}, {"Gestore": "SERVIZI & GESTIONI ITALIA srl", "Bandiera": "Q8", "Tipo impianto": "Altro", "Indirizzo": "TORRE 39 IMP.Q8 SNC 80039", "Nome impianto": "SAVIANO TORRE 39 IMP.Q8", "Comune": "SAVIANO", "idImpianto": 6701, "points": [{"type": "Feature", "properties": {}, "geometry": {"type": "Point", "coordinates": [14.511427786508191, 40.90266336687782]}}], "price": 1.998, "ultima_rilevazione": "04/07/2022 01:05:17"}, {"Gestore": "MARINO PETROLI  SOCIETA' A RESPONSABILITA' LIMITATA SEMPLIFICATA", "Bandiera": "Q8", "Tipo impianto": "Altro", "Indirizzo": "VIA PONTE DEI CANI 1 80034", "Nome impianto": "Marino petroli", "Comune": "MARIGLIANO", "idImpianto": 42341, "points": [{"type": "Feature", "properties": {}, "geometry": {"type": "Point", "coordinates": [14.447655826807022, 40.93504513250292]}}], "price": 1.95, "ultima_rilevazione": "04/07/2022 09:54:51"}, {"Gestore": "DISTRIBUTORE ENERGI DI SALVATORE FURINO", "Bandiera": "Pompe Bianche", "Tipo impianto": "Altro", "Indirizzo": "via prov.le fressuriello  30 80039", "Nome impianto": "Energi", "Comune": "SAVIANO", "idImpianto": 34693, "points": [{"type": "Feature", "properties": {}, "geometry": {"type": "Point", "coordinates": [14.500974118709564, 40.90315773630837]}}], "price": 2.099, "ultima_rilevazione": "04/07/2022 10:16:14"}, {"Gestore": "G.I.BS SAS DI TERRACCIANO SALVATORE", "Bandiera": "Agip Eni", "Tipo impianto": "Altro", "Indirizzo": "VIA XI SETTEMBRE 25 80034", "Nome impianto": "Stazione di Servizio Eni Spa 55607", "Comune": "MARIGLIANO", "idImpianto": 38304, "points": [{"type": "Feature", "properties": {}, "geometry": {"type": "Point", "coordinates": [14.450710192322733, 40.93336937565988]}}], "price": 2.024, "ultima_rilevazione": "04/07/2022 11:08:27"}, {"Gestore": "EASY SERVICE S.R.L.", "Bandiera": "Energas", "Tipo impianto": "Altro", "Indirizzo": "Ingresso Interporto Campano SNC 80035", "Nome impianto": "Easy Service Interporto", "Comune": "NOLA", "idImpianto": 38714, "points": [{"type": "Feature", "properties": {}, "geometry": {"type": "Point", "coordinates": [14.487860798835754, 40.96090009531539]}}], "price": 1.999, "ultima_rilevazione": "04/07/2022 14:28:00"}, {"Gestore": "PETROL SA.FRA. DI PRISCO SALVATORE", "Bandiera": "Q8", "Tipo impianto": "Altro", "Indirizzo": "VIA FONSECA 49 80035", "Nome impianto": "Eni", "Comune": "NOLA", "idImpianto": 32324, "points": [{"type": "Feature", "properties": {}, "geometry": {"type": "Point", "coordinates": [14.532937947256071, 40.926848109637845]}}], "price": 1.969, "ultima_rilevazione": "05/07/2022 07:12:31"}, {"Gestore": "EMME PETROLI S.R.L.", "Bandiera": "Emme Petroli", "Tipo impianto": "Altro", "Indirizzo": "VIA FEUDO SNC 80035", "Nome impianto": "EMME PETROLI", "Comune": "NOLA", "idImpianto": 36769, "points": [{"type": "Feature", "properties": {}, "geometry": {"type": "Point", "coordinates": [14.526731766864714, 40.913530892231705]}}], "price": 1.999, "ultima_rilevazione": "05/07/2022 15:53:52"}, {"Gestore": "ESPOSITO ALFONSO", "Bandiera": "Pompe Bianche", "Tipo impianto": "Altro", "Indirizzo": "VIA CUPA DI NOLA 97 80049", "Nome impianto": "ESPOSITO ALFONSO", "Comune": "SOMMA VESUVIANA", "idImpianto": 20396, "points": [{"type": "Feature", "properties": {}, "geometry": {"type": "Point", "coordinates": [14.45585198700428, 40.8842824676105]}}], "price": 1.969, "ultima_rilevazione": "06/07/2022 16:25:33"}, {"Gestore": "DISTRIBUTORI ECOS S.R.L.", "Bandiera": "Pompe Bianche", "Tipo impianto": "Altro", "Indirizzo": "VIA NUOVA CIRCUMVALLAZIONE SNC, 80035  ", "Nome impianto": "DISTRIBUTORI ECOS", "Comune": "NOLA", "idImpianto": 21965, "points": [{"type": "Feature", "properties": {}, "geometry": {"type": "Point", "coordinates": [14.516716003417969, 40.91853920307452]}}], "price": 1.999, "ultima_rilevazione": "06/07/2022 18:46:49"}, {"Gestore": "DI PALMA ANTONIO", "Bandiera": "Esso", "Tipo impianto": "Altro", "Indirizzo": "VIA SPARTIMENTO 146 80030", "Nome impianto": "stazione carburanti esso", "Comune": "SCISCIANO", "idImpianto": 15973, "points": [{"type": "Feature", "properties": {}, "geometry": {"type": "Point", "coordinates": [14.472474977374077, 40.89034948276007]}}], "price": 1.979, "ultima_rilevazione": "06/07/2022 23:53:35"}, {"Gestore": "DISTRIBUTORI PAPA DI PAPA GIOVANNI & C. S.A.S.", "Bandiera": "Esso", "Tipo impianto": "Altro", "Indirizzo": "VIA MARCONI 13, 80030  ", "Nome impianto": "Q8 MARIGLIANELLA", "Comune": "MARIGLIANELLA", "idImpianto": 25243, "points": [{"type": "Feature", "properties": {}, "geometry": {"type": "Point", "coordinates": [14.441366792976396, 40.924862041785886]}}], "price": 2.019, "ultima_rilevazione": "07/07/2022 08:55:48"}, {"Gestore": "GOLD CARBURANTI S.R.L.", "Bandiera": "Pompe Bianche", "Tipo impianto": "Altro", "Indirizzo": "VIA GIORGIO AMENDOLA SNC 80034", "Nome impianto": "gold carburanti", "Comune": "MARIGLIANO", "idImpianto": 42251, "points": [{"type": "Feature", "properties": {}, "geometry": {"type": "Point", "coordinates": [14.444906562566755, 40.92036490907793]}}], "price": 2.039, "ultima_rilevazione": "07/07/2022 09:42:03"}, {"Gestore": "ALIPERTI GIUSEPPE", "Bandiera": "Pompe Bianche", "Tipo impianto": "Altro", "Indirizzo": "VIA SOMMA 120 80034", "Nome impianto": "AG CARBURANTI", "Comune": "MARIGLIANO", "idImpianto": 42283, "points": [{"type": "Feature", "properties": {}, "geometry": {"type": "Point", "coordinates": [14.451717026531696, 40.907995413153095]}}], "price": 2.039, "ultima_rilevazione": "07/07/2022 09:46:02"}, {"Gestore": "IP SERVICES S.R.L.", "Bandiera": "Api-Ip", "Tipo impianto": "Altro", "Indirizzo": "Corso Italia 75 80039", "Nome impianto": "Saviano", "Comune": "SAVIANO", "idImpianto": 31268, "points": [{"type": "Feature", "properties": {}, "geometry": {"type": "Point", "coordinates": [14.5105548087613, 40.91204175156891]}}], "price": 1.979, "ultima_rilevazione": "08/07/2022 09:04:11"}, {"Gestore": "T.D.M. S.R.L.", "Bandiera": "Tamoil", "Tipo impianto": "Altro", "Indirizzo": "CORSO UMBERTO I  80034", "Nome impianto": "8158", "Comune": "MARIGLIANO", "idImpianto": 34733, "points": [{"type": "Feature", "properties": {}, "geometry": {"type": "Point", "coordinates": [14.448272734880447, 40.92578779075373]}}], "price": 1.969, "ultima_rilevazione": "08/07/2022 11:46:10"}, {"Gestore": "ADAMIANO SERVICES S.A.S. DI ANTONIO ADAMIANO E C.", "Bandiera": "Q8", "Tipo impianto": "Strada Statale", "Indirizzo": "Strada Statale, Km. 50, avellino 80035", "Nome impianto": "impianto q8", "Comune": "NOLA", "idImpianto": 50096, "points": [{"type": "Feature", "properties": {}, "geometry": {"type": "Point", "coordinates": [14.519601150708803, 40.93229338666075]}}], "price": 1.979, "ultima_rilevazione": "08/07/2022 12:38:54"}, {"Gestore": "ORGANIZZAZIONE SERVIZI AUTO - O.S.A. - S.P.A.", "Bandiera": "Esso", "Tipo impianto": "Altro", "Indirizzo": "Via Mario De Sena  80035", "Nome impianto": "ESSO NOLA", "Comune": "NOLA", "idImpianto": 38009, "points": [{"type": "Feature", "properties": {}, "geometry": {"type": "Point", "coordinates": [14.523149822615096, 40.928503851834506]}}], "price": 1.969, "ultima_rilevazione": "08/07/2022 15:33:10"}, {"Gestore": "ORGANIZZAZIONE SERVIZI AUTO - O.S.A. - S.P.A.", "Bandiera": "Pompe Bianche", "Tipo impianto": "Altro", "Indirizzo": "Corso Campano 18 80034", "Nome impianto": "UNOIL MARIGLIANO", "Comune": "MARIGLIANO", "idImpianto": 40408, "points": [{"type": "Feature", "properties": {}, "geometry": {"type": "Point", "coordinates": [14.44451093673706, 40.92741553588833]}}], "price": 1.969, "ultima_rilevazione": "08/07/2022 15:33:42"}, {"Gestore": "ST OIL DI GIOVANNI NOTO", "Bandiera": "Pompe Bianche", "Tipo impianto": "Altro", "Indirizzo": "VIA CIRCUMVALLAZIONE 42 80035", "Nome impianto": "ST OIL - Via Circumvallazione", "Comune": "NOLA", "idImpianto": 29908, "points": [{"type": "Feature", "properties": {}, "geometry": {"type": "Point", "coordinates": [14.534757116567562, 40.92032872445766]}}], "price": 1.999, "ultima_rilevazione": "08/07/2022 15:37:27"}, {"Gestore": "ST OIL DI GIOVANNI NOTO", "Bandiera": "Pompe Bianche", "Tipo impianto": "Altro", "Indirizzo": "VIA FEUDO 210 80035", "Nome impianto": "ST OIL - Via Feudo", "Comune": "NOLA", "idImpianto": 29909, "points": [{"type": "Feature", "properties": {}, "geometry": {"type": "Point", "coordinates": [14.526006953967226, 40.91602696746248]}}], "price": 1.999, "ultima_rilevazione": "08/07/2022 15:37:44"}, {"Gestore": "TOIL S.P.A.", "Bandiera": "Toil", "Tipo impianto": "Altro", "Indirizzo": "via circumvallazione snc 80035", "Nome impianto": "toil nola", "Comune": "NOLA", "idImpianto": 41604, "points": [{"type": "Feature", "properties": {}, "geometry": {"type": "Point", "coordinates": [14.520669762724934, 40.91734228031811]}}], "price": 1.999, "ultima_rilevazione": "09/07/2022 00:20:07"}, {"Gestore": "TOIL S.P.A.", "Bandiera": "Toil", "Tipo impianto": "Altro", "Indirizzo": "via roma  80030", "Nome impianto": "toil mariglianella", "Comune": "MARIGLIANELLA", "idImpianto": 36459, "points": [{"type": "Feature", "properties": {}, "geometry": {"type": "Point", "coordinates": [14.436247050762177, 40.92263501334621]}}], "price": 1.989, "ultima_rilevazione": "09/07/2022 06:28:05"}], "5": [{"Gestore": "CAPOLONGO S.A.S. DI NUNZIO CAPOLONGO", "Bandiera": "Q8", "Tipo impianto": "Altro", "Indirizzo": "VIA PROVINCIALE NOLA-CICCIANO  80030", "Nome impianto": "CAPOLONGO SAS", "Comune": "CAMPOSANO", "idImpianto": 40439, "points": [{"type": "Feature", "properties": {}, "geometry": {"type": "Point", "coordinates": [14.537922888994215, 40.95467901849279]}}], "price": 2.109, "ultima_rilevazione": "04/07/2022 15:03:11"}, {"Gestore": "GIANDA DI MOSCA ANTONIO", "Bandiera": "Api-Ip", "Tipo impianto": "Altro", "Indirizzo": "VIA ALDO MORO SNC 80049", "Nome impianto": "totalerg", "Comune": "SOMMA VESUVIANA", "idImpianto": 38339, "points": [{"type": "Feature", "properties": {}, "geometry": {"type": "Point", "coordinates": [14.462637305259705, 40.86675029191864]}}], "price": 2.069, "ultima_rilevazione": "01/07/2022 07:42:54"}, {"Gestore": "AP CARBURANTI S.R.L.", "Bandiera": "Agip Eni", "Tipo impianto": "Altro", "Indirizzo": "VIA POMIGLIANO SNC 80049", "Nome impianto": "STAZIONE DI SERVIZIO ENI", "Comune": "SOMMA VESUVIANA", "idImpianto": 20334, "points": [{"type": "Feature", "properties": {}, "geometry": {"type": "Point", "coordinates": [14.422374665737152, 40.89165649482885]}}], "price": 2.039, "ultima_rilevazione": "02/07/2022 11:21:43"}, {"Gestore": "SERVIZI & GESTIONI ITALIA S.R.L.", "Bandiera": "Q8", "Tipo impianto": "Altro", "Indirizzo": "SS. 7BIS KM. 44+847  80030", "Nome impianto": "MARIGLIANELLA SS. 7BIS KM. 44+847", "Comune": "MARIGLIANELLA", "idImpianto": 25791, "points": [{"type": "Feature", "properties": {}, "geometry": {"type": "Point", "coordinates": [14.432668723417692, 40.93310259678763]}}], "price": 2.089, "ultima_rilevazione": "03/07/2022 00:34:42"}, {"Gestore": "SERVIZI & GESTIONI ITALIA S.R.L.", "Bandiera": "Q8", "Tipo impianto": "Altro", "Indirizzo": "VIA ALDO MORO   80049", "Nome impianto": "VIA ALDO MORO -  SOMMA VESUVIANA", "Comune": "SOMMA VESUVIANA", "idImpianto": 28360, "points": [{"type": "Feature", "properties": {}, "geometry": {"type": "Point", "coordinates": [14.44931978538898, 40.86903902848026]}}], "price": 1.998, "ultima_rilevazione": "04/07/2022 00:36:08"}, {"Gestore": "SODANO GIOVANNI", "Bandiera": "Agip Eni", "Tipo impianto": "Altro", "Indirizzo": "VIA SANTA MARIA DEL POZZO 188 80049", "Nome impianto": "sodano eni", "Comune": "SOMMA VESUVIANA", "idImpianto": 26864, "points": [{"type": "Feature", "properties": {}, "geometry": {"type": "Point", "coordinates": [14.433122534171048, 40.88322096198227]}}], "price": 2.064, "ultima_rilevazione": "04/07/2022 07:43:57"}, {"Gestore": "CENTRO GAS S.R.L.", "Bandiera": "Pompe Bianche", "Tipo impianto": "Altro", "Indirizzo": "STRADA PROVINCIALE POLVICA SNC 81027", "Nome impianto": "Centro Gas", "Comune": "SAN FELICE A CANCELLO", "idImpianto": 22948, "points": [{"type": "Feature", "properties": {}, "geometry": {"type": "Point", "coordinates": [14.44845512509346, 40.98391050149255]}}], "price": 2.059, "ultima_rilevazione": "04/07/2022 10:00:04"}, {"Gestore": "PELLEGRINO MASSIMO", "Bandiera": "Agip Eni", "Tipo impianto": "Altro", "Indirizzo": "Via seminario s.p. Nola/Casamarciano Snc 80032", "Nome impianto": "Stazione di servizio Eni", "Comune": "CASAMARCIANO", "idImpianto": 49427, "points": [{"type": "Feature", "properties": {}, "geometry": {"type": "Point", "coordinates": [14.54606406390667, 40.9295750579082]}}], "price": 2.064, "ultima_rilevazione": "04/07/2022 10:21:30"}, {"Gestore": "GAS S.R.L.", "Bandiera": "Pompe Bianche", "Tipo impianto": "Altro", "Indirizzo": "VIA XI SETTEMBRE 2001 SNC 80030", "Nome impianto": "gt fuel", "Comune": "MARIGLIANELLA", "idImpianto": 50951, "points": [{"type": "Feature", "properties": {}, "geometry": {"type": "Point", "coordinates": [14.433668363661283, 40.932867372058496]}}], "price": 2.039, "ultima_rilevazione": "04/07/2022 12:58:45"}, {"Gestore": "F.LLI DI PALMA S.A.S. DI DI PALMA ANIELLO & C.", "Bandiera": "Tamoil", "Tipo impianto": "Strada Statale", "Indirizzo": "Statale 367 Nolana Sarnese, Km. 4+200, dir. NOLA-SARNO", "Nome impianto": "TAMOIL ", "Comune": "SAN PAOLO BEL SITO", "idImpianto": 9437, "points": [{"type": "Feature", "properties": {}, "geometry": {"type": "Point", "coordinates": [14.544208645820618, 40.91560313182752]}}], "price": 1.989, "ultima_rilevazione": "04/07/2022 13:24:22"}, {"Gestore": "PICCOLO ENERGIE S.R.L.", "Bandiera": "Q8", "Tipo impianto": "Altro", "Indirizzo": "VIA MARIGLAINO SNC 80049", "Nome impianto": "PICCOLO ENERGIE SRL", "Comune": "SOMMA VESUVIANA", "idImpianto": 31050, "points": [{"type": "Feature", "properties": {}, "geometry": {"type": "Point", "coordinates": [14.447419792413712, 40.88539411943941]}}], "price": 1.999, "ultima_rilevazione": "04/07/2022 21:24:09"}, {"Gestore": "PROJECT FOOD & OIL S.R.L.", "Bandiera": "Energas", "Tipo impianto": "Altro", "Indirizzo": "Via Provinciale Cimitile/Cicciano SNC 80030", "Nome impianto": "Energas ", "Comune": "CAMPOSANO", "idImpianto": 45875, "points": [{"type": "Feature", "properties": {}, "geometry": {"type": "Point", "coordinates": [14.530801613561948, 40.94528390536588]}}], "price": 2.009, "ultima_rilevazione": "05/07/2022 08:57:53"}, {"Gestore": "TRE PONTI FOOD OIL S.R.L.", "Bandiera": "Api-Ip", "Tipo impianto": "Altro", "Indirizzo": " S.S.7 BIS - KM. 31,482 S.C. 80011", "Nome impianto": "Acerra ", "Comune": "ACERRA", "idImpianto": 16789, "points": [{"type": "Feature", "properties": {}, "geometry": {"type": "Point", "coordinates": [14.428237974643707, 40.962290376521054]}}], "price": 1.979, "ultima_rilevazione": "06/07/2022 10:42:01"}, {"Gestore": "EASY SERVICE S.R.L.", "Bandiera": "Energas", "Tipo impianto": "Altro", "Indirizzo": "Via Vesuviana SNC 80038", "Nome impianto": "Easy Service Pomigliano D'Arco", "Comune": "POMIGLIANO D'ARCO", "idImpianto": 38749, "points": [{"type": "Feature", "properties": {}, "geometry": {"type": "Point", "coordinates": [14.41037580370903, 40.9016575467778]}}], "price": 1.999, "ultima_rilevazione": "06/07/2022 12:20:43"}, {"Gestore": "ROMANO CARMELA", "Bandiera": "Agip Eni", "Tipo impianto": "Strada Statale", "Indirizzo": "Statale 268 del Vesuvio, Km. 7+744, dir. NAPOLI", "Nome impianto": "ROMANO CARMELA", "Comune": "SOMMA VESUVIANA", "idImpianto": 8156, "points": [{"type": "Feature", "properties": {}, "geometry": {"type": "Point", "coordinates": [14.436773715066463, 40.887424762457165]}}], "price": 1.999, "ultima_rilevazione": "07/07/2022 06:50:41"}, {"Gestore": "NEW SUMMA OIL S.R.L.", "Bandiera": "Agip Eni", "Tipo impianto": "Altro", "Indirizzo": "via marigliano 48/bis 80049", "Nome impianto": "DPM PETROLI", "Comune": "SOMMA VESUVIANA", "idImpianto": 41945, "points": [{"type": "Feature", "properties": {}, "geometry": {"type": "Point", "coordinates": [14.445199593901634, 40.875322870001625]}}], "price": 1.999, "ultima_rilevazione": "07/07/2022 06:57:12"}, {"Gestore": "GENOVESE RAFFAELE", "Bandiera": "Q8", "Tipo impianto": "Altro", "Indirizzo": "via nazionale delle puglie s.s.7bis km55,470 80032", "Nome impianto": "genovese raffaele", "Comune": "CASAMARCIANO", "idImpianto": 27576, "points": [{"type": "Feature", "properties": {}, "geometry": {"type": "Point", "coordinates": [14.555076956748962, 40.94443972820796]}}], "price": 2.088, "ultima_rilevazione": "07/07/2022 08:53:16"}, {"Gestore": "P.PETROLI SRL", "Bandiera": "Pompe Bianche", "Tipo impianto": "Altro", "Indirizzo": "VIA XI SETTEMBRE 272 80030", "Nome impianto": "P.PETROLI - Castello di Cisterna", "Comune": "CASTELLO DI CISTERNA", "idImpianto": 37166, "points": [{"type": "Feature", "properties": {}, "geometry": {"type": "Point", "coordinates": [14.412757605314257, 40.9089513921984]}}], "price": 1.91, "ultima_rilevazione": "07/07/2022 13:44:16"}, {"Gestore": "STAZIONE DI SERVIZIO DI AMMIRATI SEBASTIANO", "Bandiera": "Pompe Bianche", "Tipo impianto": "Altro", "Indirizzo": "VIA NOLA-PALMA SNC 80035", "Nome impianto": "AS", "Comune": "NOLA", "idImpianto": 46969, "points": [{"type": "Feature", "properties": {}, "geometry": {"type": "Point", "coordinates": [14.544473199808408, 40.90221928763224]}}], "price": 1.998, "ultima_rilevazione": "07/07/2022 16:24:14"}, {"Gestore": "DE LUCA ANTONIO", "Bandiera": "Api-Ip", "Tipo impianto": "Altro", "Indirizzo": "via provinciale  80030", "Nome impianto": "ip api", "Comune": "CAMPOSANO", "idImpianto": 29325, "points": [{"type": "Feature", "properties": {}, "geometry": {"type": "Point", "coordinates": [14.537660032510756, 40.95476500856712]}}], "price": 2.019, "ultima_rilevazione": "07/07/2022 16:57:57"}, {"Gestore": "FADDIMM  S.R.L.", "Bandiera": "Repsol", "Tipo impianto": "Altro", "Indirizzo": "VIA VITTORIO VENETO SNC 80035", "Nome impianto": "REPSOL", "Comune": "NOLA", "idImpianto": 24515, "points": [{"type": "Feature", "properties": {}, "geometry": {"type": "Point", "coordinates": [14.525086507201197, 40.90024328285186]}}], "price": 1.998, "ultima_rilevazione": "07/07/2022 21:39:18"}, {"Gestore": "IP SERVICES S.R.L.", "Bandiera": "Api-Ip", "Tipo impianto": "Altro", "Indirizzo": "SS 7 bis km 10  ", "Nome impianto": "Comiziano", "Comune": "COMIZIANO", "idImpianto": 25660, "points": [{"type": "Feature", "properties": {}, "geometry": {"type": "Point", "coordinates": [14.541735649108888, 40.94150440252946]}}], "price": 1.979, "ultima_rilevazione": "08/07/2022 09:04:17"}, {"Gestore": "SERVIZI & GESTIONI ITALIA S.R.L.", "Bandiera": "Q8", "Tipo impianto": "Altro", "Indirizzo": "VIA FORNARI  80049", "Nome impianto": "SOMMA VESUVIANA VIA FORNARI", "Comune": "SOMMA VESUVIANA", "idImpianto": 45220, "points": [{"type": "Feature", "properties": {}, "geometry": {"type": "Point", "coordinates": [14.414808165641375, 40.89746076200679]}}], "price": 1.989, "ultima_rilevazione": "08/07/2022 11:43:28"}, {"Gestore": "ORO NERO S.R.L.", "Bandiera": "Pompe Bianche", "Tipo impianto": "Altro", "Indirizzo": "VIA 11 SETTEMBRE 2001 SN 80030", "Nome impianto": "Ital Mare", "Comune": "MARIGLIANELLA", "idImpianto": 45505, "points": [{"type": "Feature", "properties": {}, "geometry": {"type": "Point", "coordinates": [14.441752, 40.935846]}}], "price": 1.979, "ultima_rilevazione": "08/07/2022 12:21:52"}, {"Gestore": "OASI VESUVIO S.R.L.", "Bandiera": "Pompe Bianche", "Tipo impianto": "Altro", "Indirizzo": "VIA POMIGLIANO 34 80049", "Nome impianto": "Oasi  Vesuvio Italmare", "Comune": "SOMMA VESUVIANA", "idImpianto": 41134, "points": [{"type": "Feature", "properties": {}, "geometry": {"type": "Point", "coordinates": [14.420388198741875, 40.893221661571545]}}], "price": 1.939, "ultima_rilevazione": "08/07/2022 14:46:25"}, {"Gestore": "VESUVIO PETROLI SERVICE  S.R.L.", "Bandiera": "Pompe Bianche", "Tipo impianto": "Strada Statale", "Indirizzo": "Statale 268 del Vesuvio, Km. N.C., dir. ANGRI 80049", "Nome impianto": "STAR OIL", "Comune": "SOMMA VESUVIANA", "idImpianto": 26712, "points": [{"type": "Feature", "properties": {}, "geometry": {"type": "Point", "coordinates": [14.436212182044985, 40.88685533919222]}}], "price": 1.959, "ultima_rilevazione": "08/07/2022 15:44:03"}]}, "null": {}, "GPL": {"1": [{"Gestore": "TRE PONTI PETROLI S.A.S. DI PAPILIO FRANCESCO E C.", "Bandiera": "Pompe Bianche", "Tipo impianto": "Strada Statale", "Indirizzo": "7 bis di Terra di Lavoro, Km. 42+064, Villa Literno 80034", "Nome impianto": "Area di servizio Marigliano Est", "Comune": "MARIGLIANO", "idImpianto": 46408, "points": [{"type": "Feature", "properties": {}, "geometry": {"type": "Point", "coordinates": [14.469875147862354, 40.958485869254815]}}], "price": 0.859, "ultima_rilevazione": "23/06/2022 08:55:16"}, {"Gestore": "SATEGAS S.R.L.", "Bandiera": "Total Erg", "Tipo impianto": "Altro", "Indirizzo": "VIA BOSCOFANGONE SNC 80035", "Nome impianto": "ERG", "Comune": "NOLA", "idImpianto": 21229, "points": [{"type": "Feature", "properties": {}, "geometry": {"type": "Point", "coordinates": [14.502277672290802, 40.93463318794302]}}], "price": 0.81, "ultima_rilevazione": "04/07/2022 15:44:56"}, {"Gestore": "SARNI S.R.L.", "Bandiera": "Esso", "Tipo impianto": "Autostradale", "Indirizzo": "Autostrada A30 CASERTA-SALERNO, Km. 39, dir. NORD 80030", "Nome impianto": "TRE PONTI EST", "Comune": "MARIGLIANO", "idImpianto": 35470, "points": [{"type": "Feature", "properties": {}, "geometry": {"type": "Point", "coordinates": [14.470447897911072, 40.95311102223114]}}], "price": 0.878, "ultima_rilevazione": "06/07/2022 12:21:15"}, {"Gestore": "FABIANO ENERGIA S.R.L.", "Bandiera": "Pompe Bianche", "Tipo impianto": "Altro", "Indirizzo": "VIA PROVINCIALE PER NOLA 258 80030", "Nome impianto": "FABIANO ENERGIA", "Comune": "SAN VITALIANO", "idImpianto": 38160, "points": [{"type": "Feature", "properties": {}, "geometry": {"type": "Point", "coordinates": [14.494701772928238, 40.92393794218299]}}], "price": 0.758, "ultima_rilevazione": "06/07/2022 12:53:51"}, {"Gestore": "BML. S.R.L.", "Bandiera": "Agip Eni", "Tipo impianto": "Altro", "Indirizzo": "VIA NAZ.DELLE PUGLIE STAZ.AGIP S.C. 80030", "Nome impianto": "CELLINI -AGIP-", "Comune": "SAN VITALIANO", "idImpianto": 27132, "points": [{"type": "Feature", "properties": {}, "geometry": {"type": "Point", "coordinates": [14.478577673435211, 40.92755698656064]}}], "price": 0.759, "ultima_rilevazione": "07/07/2022 21:46:27"}, {"Gestore": "DS CARBURANTI S.A.S. DI D'ONOFRIO SAVERIO", "Bandiera": "Esso", "Tipo impianto": "Autostradale", "Indirizzo": "Autostrada A30 CASERTA-SALERNO, Km. 16,200, dir. sud 80034", "Nome impianto": "TRE PONTI OVEST", "Comune": "MARIGLIANO", "idImpianto": 22319, "points": [{"type": "Feature", "properties": {}, "geometry": {"type": "Point", "coordinates": [14.471424221992493, 40.95146226138661]}}], "price": 0.899, "ultima_rilevazione": "07/07/2022 22:32:45"}, {"Gestore": "DISTRIBUTORI PAPA DI PAPA GIOVANNI & C. S.A.S.", "Bandiera": "Pompe Bianche", "Tipo impianto": "Altro", "Indirizzo": "via Pagliarelle snc 80030", "Nome impianto": "GNL Distributori Papa", "Comune": "SAN VITALIANO", "idImpianto": 44159, "points": [{"type": "Feature", "properties": {}, "geometry": {"type": "Point", "coordinates": [14.49169808919919, 40.93412374550363]}}], "price": 0.829, "ultima_rilevazione": "08/07/2022 09:21:17"}], "3": [{"Gestore": "EASY SERVICE S.R.L.", "Bandiera": "Energas", "Tipo impianto": "Altro", "Indirizzo": "Ingresso Interporto Campano SNC 80035", "Nome impianto": "Easy Service Interporto", "Comune": "NOLA", "idImpianto": 38714, "points": [{"type": "Feature", "properties": {}, "geometry": {"type": "Point", "coordinates": [14.487860798835754, 40.96090009531539]}}], "price": 0.799, "ultima_rilevazione": "04/07/2022 14:28:00"}, {"Gestore": "EMME PETROLI S.R.L.", "Bandiera": "Emme Petroli", "Tipo impianto": "Altro", "Indirizzo": "VIA FEUDO SNC 80035", "Nome impianto": "EMME PETROLI", "Comune": "NOLA", "idImpianto": 36769, "points": [{"type": "Feature", "properties": {}, "geometry": {"type": "Point", "coordinates": [14.526731766864714, 40.913530892231705]}}], "price": 0.799, "ultima_rilevazione": "05/07/2022 15:53:52"}, {"Gestore": "GOLD CARBURANTI S.R.L.", "Bandiera": "Pompe Bianche", "Tipo impianto": "Altro", "Indirizzo": "VIA GIORGIO AMENDOLA SNC 80034", "Nome impianto": "gold carburanti", "Comune": "MARIGLIANO", "idImpianto": 42251, "points": [{"type": "Feature", "properties": {}, "geometry": {"type": "Point", "coordinates": [14.444906562566755, 40.92036490907793]}}], "price": 0.799, "ultima_rilevazione": "07/07/2022 09:42:03"}, {"Gestore": "TOIL S.P.A.", "Bandiera": "Toil", "Tipo impianto": "Altro", "Indirizzo": "via circumvallazione snc 80035", "Nome impianto": "toil nola", "Comune": "NOLA", "idImpianto": 41604, "points": [{"type": "Feature", "properties": {}, "geometry": {"type": "Point", "coordinates": [14.520669762724934, 40.91734228031811]}}], "price": 0.799, "ultima_rilevazione": "09/07/2022 00:20:07"}, {"Gestore": "ADAMIANO SERVICES S.A.S. DI ANTONIO ADAMIANO E C.", "Bandiera": "Q8", "Tipo impianto": "Strada Statale", "Indirizzo": "Strada Statale, Km. 50, avellino 80035", "Nome impianto": "impianto q8", "Comune": "NOLA", "idImpianto": 50096, "points": [{"type": "Feature", "properties": {}, "geometry": {"type": "Point", "coordinates": [14.519601150708803, 40.93229338666075]}}], "price": 0.789, "ultima_rilevazione": "08/07/2022 12:38:54"}, {"Gestore": "TOIL S.P.A.", "Bandiera": "Toil", "Tipo impianto": "Altro", "Indirizzo": "via roma  80030", "Nome impianto": "toil mariglianella", "Comune": "MARIGLIANELLA", "idImpianto": 36459, "points": [{"type": "Feature", "properties": {}, "geometry": {"type": "Point", "coordinates": [14.436247050762177, 40.92263501334621]}}], "price": 0.779, "ultima_rilevazione": "09/07/2022 06:28:05"}], "5": [{"Gestore": "AP CARBURANTI S.R.L.", "Bandiera": "Agip Eni", "Tipo impianto": "Altro", "Indirizzo": "VIA POMIGLIANO SNC 80049", "Nome impianto": "STAZIONE DI SERVIZIO ENI", "Comune": "SOMMA VESUVIANA", "idImpianto": 20334, "points": [{"type": "Feature", "properties": {}, "geometry": {"type": "Point", "coordinates": [14.422374665737152, 40.89165649482885]}}], "price": 0.799, "ultima_rilevazione": "02/07/2022 11:21:43"}, {"Gestore": "CENTRO GAS S.R.L.", "Bandiera": "Pompe Bianche", "Tipo impianto": "Altro", "Indirizzo": "STRADA PROVINCIALE POLVICA SNC 81027", "Nome impianto": "Centro Gas", "Comune": "SAN FELICE A CANCELLO", "idImpianto": 22948, "points": [{"type": "Feature", "properties": {}, "geometry": {"type": "Point", "coordinates": [14.44845512509346, 40.98391050149255]}}], "price": 0.799, "ultima_rilevazione": "04/07/2022 10:00:04"}, {"Gestore": "GAS S.R.L.", "Bandiera": "Pompe Bianche", "Tipo impianto": "Altro", "Indirizzo": "VIA XI SETTEMBRE 2001 SNC 80030", "Nome impianto": "gt fuel", "Comune": "MARIGLIANELLA", "idImpianto": 50951, "points": [{"type": "Feature", "properties": {}, "geometry": {"type": "Point", "coordinates": [14.433668363661283, 40.932867372058496]}}], "price": 0.779, "ultima_rilevazione": "04/07/2022 12:58:45"}, {"Gestore": "DR CARBURANTI SRL", "Bandiera": "Pompe Bianche", "Tipo impianto": "Altro", "Indirizzo": "VIA PAOLO BORSELLINO SNC 80030", "Nome impianto": "DR CARBURANTI", "Comune": "CASTELLO DI CISTERNA", "idImpianto": 42534, "points": [{"type": "Feature", "properties": {}, "geometry": {"type": "Point", "coordinates": [14.415920072912286, 40.9205732629621]}}], "price": 0.789, "ultima_rilevazione": "04/07/2022 13:40:17"}, {"Gestore": "PICCOLO ENERGIE S.R.L.", "Bandiera": "Q8", "Tipo impianto": "Altro", "Indirizzo": "VIA MARIGLAINO SNC 80049", "Nome impianto": "PICCOLO ENERGIE SRL", "Comune": "SOMMA VESUVIANA", "idImpianto": 31050, "points": [{"type": "Feature", "properties": {}, "geometry": {"type": "Point", "coordinates": [14.447419792413712, 40.88539411943941]}}], "price": 0.799, "ultima_rilevazione": "04/07/2022 21:24:09"}, {"Gestore": "EASY SERVICE S.R.L.", "Bandiera": "Energas", "Tipo impianto": "Altro", "Indirizzo": "SS 367 Localit\u00e0 Cappella  snc 80035", "Nome impianto": "easy service Nola Cappella", "Comune": "NOLA", "idImpianto": 40377, "points": [{"type": "Feature", "properties": {}, "geometry": {"type": "Point", "coordinates": [14.544465467333794, 40.90221120176054]}}], "price": 0.799, "ultima_rilevazione": "06/07/2022 11:02:01"}, {"Gestore": "EASY SERVICE S.R.L.", "Bandiera": "Energas", "Tipo impianto": "Altro", "Indirizzo": "Via Vesuviana SNC 80038", "Nome impianto": "Easy Service Pomigliano D'Arco", "Comune": "POMIGLIANO D'ARCO", "idImpianto": 38749, "points": [{"type": "Feature", "properties": {}, "geometry": {"type": "Point", "coordinates": [14.41037580370903, 40.9016575467778]}}], "price": 0.789, "ultima_rilevazione": "06/07/2022 12:20:43"}, {"Gestore": "ROMANO CARMELA", "Bandiera": "Agip Eni", "Tipo impianto": "Strada Statale", "Indirizzo": "Statale 268 del Vesuvio, Km. 7+744, dir. NAPOLI", "Nome impianto": "ROMANO CARMELA", "Comune": "SOMMA VESUVIANA", "idImpianto": 8156, "points": [{"type": "Feature", "properties": {}, "geometry": {"type": "Point", "coordinates": [14.436773715066463, 40.887424762457165]}}], "price": 0.799, "ultima_rilevazione": "07/07/2022 06:50:41"}, {"Gestore": "P.PETROLI SRL", "Bandiera": "Pompe Bianche", "Tipo impianto": "Altro", "Indirizzo": "VIA XI SETTEMBRE 272 80030", "Nome impianto": "P.PETROLI - Castello di Cisterna", "Comune": "CASTELLO DI CISTERNA", "idImpianto": 37166, "points": [{"type": "Feature", "properties": {}, "geometry": {"type": "Point", "coordinates": [14.412757605314257, 40.9089513921984]}}], "price": 0.785, "ultima_rilevazione": "07/07/2022 13:44:16"}, {"Gestore": "STAZIONE DI SERVIZIO DI AMMIRATI SEBASTIANO", "Bandiera": "Pompe Bianche", "Tipo impianto": "Altro", "Indirizzo": "VIA NOLA-PALMA SNC 80035", "Nome impianto": "AS", "Comune": "NOLA", "idImpianto": 46969, "points": [{"type": "Feature", "properties": {}, "geometry": {"type": "Point", "coordinates": [14.544473199808408, 40.90221928763224]}}], "price": 0.798, "ultima_rilevazione": "07/07/2022 16:24:14"}, {"Gestore": "SERVIZI & GESTIONI ITALIA S.R.L.", "Bandiera": "Q8", "Tipo impianto": "Altro", "Indirizzo": "VIA FORNARI  80049", "Nome impianto": "SOMMA VESUVIANA VIA FORNARI", "Comune": "SOMMA VESUVIANA", "idImpianto": 45220, "points": [{"type": "Feature", "properties": {}, "geometry": {"type": "Point", "coordinates": [14.414808165641375, 40.89746076200679]}}], "price": 0.789, "ultima_rilevazione": "08/07/2022 11:43:28"}, {"Gestore": "ORO NERO S.R.L.", "Bandiera": "Pompe Bianche", "Tipo impianto": "Altro", "Indirizzo": "VIA 11 SETTEMBRE 2001 SN 80030", "Nome impianto": "Ital Mare", "Comune": "MARIGLIANELLA", "idImpianto": 45505, "points": [{"type": "Feature", "properties": {}, "geometry": {"type": "Point", "coordinates": [14.441752, 40.935846]}}], "price": 0.779, "ultima_rilevazione": "08/07/2022 12:21:52"}, {"Gestore": "EURO DISTRIBUZIONI CARBURANTI  S.R.L.", "Bandiera": "Pompe Bianche", "Tipo impianto": "Altro", "Indirizzo": "VIA C. CUCCA  SNC 80031", "Nome impianto": "EURO DISTRIBUZIONI CARBURANTI SRL", "Comune": "BRUSCIANO", "idImpianto": 42525, "points": [{"type": "Feature", "properties": {}, "geometry": {"type": "Point", "coordinates": [14.431956857442856, 40.92283545002133]}}], "price": 0.789, "ultima_rilevazione": "08/07/2022 14:00:11"}, {"Gestore": "OASI VESUVIO S.R.L.", "Bandiera": "Pompe Bianche", "Tipo impianto": "Altro", "Indirizzo": "VIA POMIGLIANO 34 80049", "Nome impianto": "Oasi  Vesuvio Italmare", "Comune": "SOMMA VESUVIANA", "idImpianto": 41134, "points": [{"type": "Feature", "properties": {}, "geometry": {"type": "Point", "coordinates": [14.420388198741875, 40.893221661571545]}}], "price": 0.789, "ultima_rilevazione": "08/07/2022 14:46:25"}]}, "Gasolio": {"1": [{"Gestore": "LCB CARBURANTI S.R.L.", "Bandiera": "Q8", "Tipo impianto": "Altro", "Indirizzo": "7BIS KM 49+615  80030", "Nome impianto": "LCB CARBURANTI S.R.L.", "Comune": "SAN VITALIANO", "idImpianto": 44405, "points": [{"type": "Feature", "properties": {}, "geometry": {"type": "Point", "coordinates": [14.494180000123, 40.932706000123]}}], "price": 1.569, "ultima_rilevazione": "11/06/2022 15:17:53"}, {"Gestore": "TRE PONTI PETROLI S.A.S. DI PAPILIO FRANCESCO E C.", "Bandiera": "Pompe Bianche", "Tipo impianto": "Strada Statale", "Indirizzo": "7 bis di Terra di Lavoro, Km. 42+064, Villa Literno 80034", "Nome impianto": "Area di servizio Marigliano Est", "Comune": "MARIGLIANO", "idImpianto": 46408, "points": [{"type": "Feature", "properties": {}, "geometry": {"type": "Point", "coordinates": [14.469875147862354, 40.958485869254815]}}], "price": 1.959, "ultima_rilevazione": "23/06/2022 08:55:16"}, {"Gestore": "SERVIZI & GESTIONI ITALIA S.R.L.", "Bandiera": "Q8", "Tipo impianto": "Altro", "Indirizzo": "SS. 7BIS KM.49+615 S/N 80030", "Nome impianto": "SAN VITALIANO-SS. 7BIS KM.49+615", "Comune": "SAN VITALIANO", "idImpianto": 11730, "points": [{"type": "Feature", "properties": {}, "geometry": {"type": "Point", "coordinates": [14.494183906745889, 40.93270678777371]}}], "price": 1.409, "ultima_rilevazione": "02/07/2022 08:07:32"}, {"Gestore": "SERVIZI & GESTIONI ITALIA srl", "Bandiera": "Q8", "Tipo impianto": "Altro", "Indirizzo": "S.S. 7BIS KM. 48+354 IMP.Q8 SNC 80030", "Nome impianto": "S. VITALIANO S.S. 7BIS KM. 48+354 IMP.Q8", "Comune": "SAN VITALIANO", "idImpianto": 6705, "points": [{"type": "Feature", "properties": {}, "geometry": {"type": "Point", "coordinates": [14.48077595344239, 40.92802067797457]}}], "price": 1.989, "ultima_rilevazione": "03/07/2022 00:34:42"}, {"Gestore": "GRUPPO AURICCHIO DI CANGIANIELLO MARIA & C. S.A.S.", "Bandiera": "Pompe Bianche", "Tipo impianto": "Altro", "Indirizzo": "VIA TARANTO 3 80035", "Nome impianto": "ludoil", "Comune": "NOLA", "idImpianto": 42696, "points": [{"type": "Feature", "properties": {}, "geometry": {"type": "Point", "coordinates": [14.508878766233124, 40.93250826877032]}}], "price": 1.989, "ultima_rilevazione": "04/07/2022 09:33:18"}, {"Gestore": "MGT SAS DI TERRACCIANO CIRO", "Bandiera": "Agip Eni", "Tipo impianto": "Altro", "Indirizzo": "CORSO UMBERTO I 583 80034", "Nome impianto": "ENI 08115", "Comune": "MARIGLIANO", "idImpianto": 51426, "points": [{"type": "Feature", "properties": {}, "geometry": {"type": "Point", "coordinates": [14.46394370231971, 40.92411421858801]}}], "price": 1.974, "ultima_rilevazione": "04/07/2022 11:04:48"}, {"Gestore": "SARNI S.R.L.", "Bandiera": "Esso", "Tipo impianto": "Autostradale", "Indirizzo": "Autostrada A30 CASERTA-SALERNO, Km. 39, dir. NORD 80030", "Nome impianto": "TRE PONTI EST", "Comune": "MARIGLIANO", "idImpianto": 35470, "points": [{"type": "Feature", "properties": {}, "geometry": {"type": "Point", "coordinates": [14.470447897911072, 40.95311102223114]}}], "price": 2.098, "ultima_rilevazione": "06/07/2022 12:21:15"}, {"Gestore": "FABIANO ENERGIA S.R.L.", "Bandiera": "Pompe Bianche", "Tipo impianto": "Altro", "Indirizzo": "VIA PROVINCIALE PER NOLA 258 80030", "Nome impianto": "FABIANO ENERGIA", "Comune": "SAN VITALIANO", "idImpianto": 38160, "points": [{"type": "Feature", "properties": {}, "geometry": {"type": "Point", "coordinates": [14.494701772928238, 40.92393794218299]}}], "price": 1.949, "ultima_rilevazione": "06/07/2022 12:53:51"}, {"Gestore": "BML. S.R.L.", "Bandiera": "Agip Eni", "Tipo impianto": "Altro", "Indirizzo": "VIA NAZ.DELLE PUGLIE STAZ.AGIP S.C. 80030", "Nome impianto": "CELLINI -AGIP-", "Comune": "SAN VITALIANO", "idImpianto": 27132, "points": [{"type": "Feature", "properties": {}, "geometry": {"type": "Point", "coordinates": [14.478577673435211, 40.92755698656064]}}], "price": 1.924, "ultima_rilevazione": "07/07/2022 21:46:27"}, {"Gestore": "DS CARBURANTI S.A.S. DI D'ONOFRIO SAVERIO", "Bandiera": "Esso", "Tipo impianto": "Autostradale", "Indirizzo": "Autostrada A30 CASERTA-SALERNO, Km. 16,200, dir. sud 80034", "Nome impianto": "TRE PONTI OVEST", "Comune": "MARIGLIANO", "idImpianto": 22319, "points": [{"type": "Feature", "properties": {}, "geometry": {"type": "Point", "coordinates": [14.471424221992493, 40.95146226138661]}}], "price": 2.089, "ultima_rilevazione": "07/07/2022 22:32:45"}, {"Gestore": "IP SERVICES S.R.L.", "Bandiera": "Api-Ip", "Tipo impianto": "Altro", "Indirizzo": "Comprensorio CIS SNC 80035", "Nome impianto": "NOLA", "Comune": "NOLA", "idImpianto": 5956, "points": [{"type": "Feature", "properties": {}, "geometry": {"type": "Point", "coordinates": [14.485746034393287, 40.95376230339099]}}], "price": 1.899, "ultima_rilevazione": "08/07/2022 09:03:30"}], "3": [{"Gestore": "TRE PONTI PETROLI S.A.S. DI PAPILIO FRANCESCO E C.", "Bandiera": "Agip Eni", "Tipo impianto": "Strada Statale", "Indirizzo": "7 bis di Terra di Lavoro, Km. 35, Villa Literno-Nola 80034", "Nome impianto": "Area di servizio marigliano", "Comune": "MARIGLIANO", "idImpianto": 42450, "points": [{"type": "Feature", "properties": {}, "geometry": {"type": "Point", "coordinates": [14.450716227293016, 40.93338173629213]}}], "price": 1.979, "ultima_rilevazione": "23/06/2022 08:54:27"}, {"Gestore": "ADAMIANO SERVICES S.A.S. DI ANTONIO ADAMIANO E C.", "Bandiera": "Pompe Bianche", "Tipo impianto": "Altro", "Indirizzo": "via san paolo belsito  63 80035", "Nome impianto": "menna oil", "Comune": "NOLA", "idImpianto": 50097, "points": [{"type": "Feature", "properties": {}, "geometry": {"type": "Point", "coordinates": [14.53348041023868, 40.9221745522669]}}], "price": 1.919, "ultima_rilevazione": "03/07/2022 09:35:27"}, {"Gestore": "SERVIZI & GESTIONI ITALIA srl", "Bandiera": "Q8", "Tipo impianto": "Altro", "Indirizzo": "TORRE 39 IMP.Q8 SNC 80039", "Nome impianto": "SAVIANO TORRE 39 IMP.Q8", "Comune": "SAVIANO", "idImpianto": 6701, "points": [{"type": "Feature", "properties": {}, "geometry": {"type": "Point", "coordinates": [14.511427786508191, 40.90266336687782]}}], "price": 1.988, "ultima_rilevazione": "04/07/2022 01:05:17"}, {"Gestore": "MARINO PETROLI  SOCIETA' A RESPONSABILITA' LIMITATA SEMPLIFICATA", "Bandiera": "Q8", "Tipo impianto": "Altro", "Indirizzo": "VIA PONTE DEI CANI 1 80034", "Nome impianto": "Marino petroli", "Comune": "MARIGLIANO", "idImpianto": 42341, "points": [{"type": "Feature", "properties": {}, "geometry": {"type": "Point", "coordinates": [14.447655826807022, 40.93504513250292]}}], "price": 1.95, "ultima_rilevazione": "04/07/2022 09:54:51"}, {"Gestore": "DISTRIBUTORE ENERGI DI SALVATORE FURINO", "Bandiera": "Pompe Bianche", "Tipo impianto": "Altro", "Indirizzo": "via prov.le fressuriello  30 80039", "Nome impianto": "Energi", "Comune": "SAVIANO", "idImpianto": 34693, "points": [{"type": "Feature", "properties": {}, "geometry": {"type": "Point", "coordinates": [14.500974118709564, 40.90315773630837]}}], "price": 1.989, "ultima_rilevazione": "04/07/2022 10:16:14"}, {"Gestore": "G.I.BS SAS DI TERRACCIANO SALVATORE", "Bandiera": "Agip Eni", "Tipo impianto": "Altro", "Indirizzo": "VIA XI SETTEMBRE 25 80034", "Nome impianto": "Stazione di Servizio Eni Spa 55607", "Comune": "MARIGLIANO", "idImpianto": 38304, "points": [{"type": "Feature", "properties": {}, "geometry": {"type": "Point", "coordinates": [14.450710192322733, 40.93336937565988]}}], "price": 1.974, "ultima_rilevazione": "04/07/2022 11:08:27"}, {"Gestore": "EASY SERVICE S.R.L.", "Bandiera": "Energas", "Tipo impianto": "Altro", "Indirizzo": "Ingresso Interporto Campano SNC 80035", "Nome impianto": "Easy Service Interporto", "Comune": "NOLA", "idImpianto": 38714, "points": [{"type": "Feature", "properties": {}, "geometry": {"type": "Point", "coordinates": [14.487860798835754, 40.96090009531539]}}], "price": 1.959, "ultima_rilevazione": "04/07/2022 14:28:00"}, {"Gestore": "PETROL SA.FRA. DI PRISCO SALVATORE", "Bandiera": "Q8", "Tipo impianto": "Altro", "Indirizzo": "VIA FONSECA 49 80035", "Nome impianto": "Eni", "Comune": "NOLA", "idImpianto": 32324, "points": [{"type": "Feature", "properties": {}, "geometry": {"type": "Point", "coordinates": [14.532937947256071, 40.926848109637845]}}], "price": 1.979, "ultima_rilevazione": "05/07/2022 07:12:31"}, {"Gestore": "EMME PETROLI S.R.L.", "Bandiera": "Emme Petroli", "Tipo impianto": "Altro", "Indirizzo": "VIA FEUDO SNC 80035", "Nome impianto": "EMME PETROLI", "Comune": "NOLA", "idImpianto": 36769, "points": [{"type": "Feature", "properties": {}, "geometry": {"type": "Point", "coordinates": [14.526731766864714, 40.913530892231705]}}], "price": 1.989, "ultima_rilevazione": "05/07/2022 15:53:52"}, {"Gestore": "ESPOSITO ALFONSO", "Bandiera": "Pompe Bianche", "Tipo impianto": "Altro", "Indirizzo": "VIA CUPA DI NOLA 97 80049", "Nome impianto": "ESPOSITO ALFONSO", "Comune": "SOMMA VESUVIANA", "idImpianto": 20396, "points": [{"type": "Feature", "properties": {}, "geometry": {"type": "Point", "coordinates": [14.45585198700428, 40.8842824676105]}}], "price": 1.979, "ultima_rilevazione": "06/07/2022 16:25:33"}, {"Gestore": "DISTRIBUTORI ECOS S.R.L.", "Bandiera": "Pompe Bianche", "Tipo impianto": "Altro", "Indirizzo": "VIA NUOVA CIRCUMVALLAZIONE SNC, 80035  ", "Nome impianto": "DISTRIBUTORI ECOS", "Comune": "NOLA", "idImpianto": 21965, "points": [{"type": "Feature", "properties": {}, "geometry": {"type": "Point", "coordinates": [14.516716003417969, 40.91853920307452]}}], "price": 1.979, "ultima_rilevazione": "06/07/2022 18:46:49"}, {"Gestore": "DI PALMA ANTONIO", "Bandiera": "Esso", "Tipo impianto": "Altro", "Indirizzo": "VIA SPARTIMENTO 146 80030", "Nome impianto": "stazione carburanti esso", "Comune": "SCISCIANO", "idImpianto": 15973, "points": [{"type": "Feature", "properties": {}, "geometry": {"type": "Point", "coordinates": [14.472474977374077, 40.89034948276007]}}], "price": 1.939, "ultima_rilevazione": "06/07/2022 23:53:35"}, {"Gestore": "DISTRIBUTORI PAPA DI PAPA GIOVANNI & C. S.A.S.", "Bandiera": "Esso", "Tipo impianto": "Altro", "Indirizzo": "VIA MARCONI 13, 80030  ", "Nome impianto": "Q8 MARIGLIANELLA", "Comune": "MARIGLIANELLA", "idImpianto": 25243, "points": [{"type": "Feature", "properties": {}, "geometry": {"type": "Point", "coordinates": [14.441366792976396, 40.924862041785886]}}], "price": 1.999, "ultima_rilevazione": "07/07/2022 08:55:48"}, {"Gestore": "GOLD CARBURANTI S.R.L.", "Bandiera": "Pompe Bianche", "Tipo impianto": "Altro", "Indirizzo": "VIA GIORGIO AMENDOLA SNC 80034", "Nome impianto": "gold carburanti", "Comune": "MARIGLIANO", "idImpianto": 42251, "points": [{"type": "Feature", "properties": {}, "geometry": {"type": "Point", "coordinates": [14.444906562566755, 40.92036490907793]}}], "price": 1.999, "ultima_rilevazione": "07/07/2022 09:42:03"}, {"Gestore": "ALIPERTI GIUSEPPE", "Bandiera": "Pompe Bianche", "Tipo impianto": "Altro", "Indirizzo": "VIA SOMMA 120 80034", "Nome impianto": "AG CARBURANTI", "Comune": "MARIGLIANO", "idImpianto": 42283, "points": [{"type": "Feature", "properties": {}, "geometry": {"type": "Point", "coordinates": [14.451717026531696, 40.907995413153095]}}], "price": 1.999, "ultima_rilevazione": "07/07/2022 09:46:02"}, {"Gestore": "IP SERVICES S.R.L.", "Bandiera": "Api-Ip", "Tipo impianto": "Altro", "Indirizzo": "Corso Italia 75 80039", "Nome impianto": "Saviano", "Comune": "SAVIANO", "idImpianto": 31268, "points": [{"type": "Feature", "properties": {}, "geometry": {"type": "Point", "coordinates": [14.5105548087613, 40.91204175156891]}}], "price": 1.899, "ultima_rilevazione": "08/07/2022 09:04:11"}, {"Gestore": "T.D.M. S.R.L.", "Bandiera": "Tamoil", "Tipo impianto": "Altro", "Indirizzo": "CORSO UMBERTO I  80034", "Nome impianto": "8158", "Comune": "MARIGLIANO", "idImpianto": 34733, "points": [{"type": "Feature", "properties": {}, "geometry": {"type": "Point", "coordinates": [14.448272734880447, 40.92578779075373]}}], "price": 1.949, "ultima_rilevazione": "08/07/2022 11:46:10"}, {"Gestore": "ADAMIANO SERVICES S.A.S. DI ANTONIO ADAMIANO E C.", "Bandiera": "Q8", "Tipo impianto": "Strada Statale", "Indirizzo": "Strada Statale, Km. 50, avellino 80035", "Nome impianto": "impianto q8", "Comune": "NOLA", "idImpianto": 50096, "points": [{"type": "Feature", "properties": {}, "geometry": {"type": "Point", "coordinates": [14.519601150708803, 40.93229338666075]}}], "price": 1.929, "ultima_rilevazione": "08/07/2022 12:38:54"}, {"Gestore": "ORGANIZZAZIONE SERVIZI AUTO - O.S.A. - S.P.A.", "Bandiera": "Esso", "Tipo impianto": "Altro", "Indirizzo": "Via Mario De Sena  80035", "Nome impianto": "ESSO NOLA", "Comune": "NOLA", "idImpianto": 38009, "points": [{"type": "Feature", "properties": {}, "geometry": {"type": "Point", "coordinates": [14.523149822615096, 40.928503851834506]}}], "price": 1.899, "ultima_rilevazione": "08/07/2022 15:33:10"}, {"Gestore": "ORGANIZZAZIONE SERVIZI AUTO - O.S.A. - S.P.A.", "Bandiera": "Pompe Bianche", "Tipo impianto": "Altro", "Indirizzo": "Corso Campano 18 80034", "Nome impianto": "UNOIL MARIGLIANO", "Comune": "MARIGLIANO", "idImpianto": 40408, "points": [{"type": "Feature", "properties": {}, "geometry": {"type": "Point", "coordinates": [14.44451093673706, 40.92741553588833]}}], "price": 1.949, "ultima_rilevazione": "08/07/2022 15:33:42"}, {"Gestore": "ST OIL DI GIOVANNI NOTO", "Bandiera": "Pompe Bianche", "Tipo impianto": "Altro", "Indirizzo": "VIA CIRCUMVALLAZIONE 42 80035", "Nome impianto": "ST OIL - Via Circumvallazione", "Comune": "NOLA", "idImpianto": 29908, "points": [{"type": "Feature", "properties": {}, "geometry": {"type": "Point", "coordinates": [14.534757116567562, 40.92032872445766]}}], "price": 1.979, "ultima_rilevazione": "08/07/2022 15:37:27"}, {"Gestore": "ST OIL DI GIOVANNI NOTO", "Bandiera": "Pompe Bianche", "Tipo impianto": "Altro", "Indirizzo": "VIA FEUDO 210 80035", "Nome impianto": "ST OIL - Via Feudo", "Comune": "NOLA", "idImpianto": 29909, "points": [{"type": "Feature", "properties": {}, "geometry": {"type": "Point", "coordinates": [14.526006953967226, 40.91602696746248]}}], "price": 1.979, "ultima_rilevazione": "08/07/2022 15:37:44"}, {"Gestore": "TOIL S.P.A.", "Bandiera": "Toil", "Tipo impianto": "Altro", "Indirizzo": "via circumvallazione snc 80035", "Nome impianto": "toil nola", "Comune": "NOLA", "idImpianto": 41604, "points": [{"type": "Feature", "properties": {}, "geometry": {"type": "Point", "coordinates": [14.520669762724934, 40.91734228031811]}}], "price": 1.979, "ultima_rilevazione": "09/07/2022 00:20:07"}, {"Gestore": "TOIL S.P.A.", "Bandiera": "Toil", "Tipo impianto": "Altro", "Indirizzo": "via roma  80030", "Nome impianto": "toil mariglianella", "Comune": "MARIGLIANELLA", "idImpianto": 36459, "points": [{"type": "Feature", "properties": {}, "geometry": {"type": "Point", "coordinates": [14.436247050762177, 40.92263501334621]}}], "price": 1.989, "ultima_rilevazione": "09/07/2022 06:28:05"}], "5": [{"Gestore": "CAPOLONGO S.A.S. DI NUNZIO CAPOLONGO", "Bandiera": "Q8", "Tipo impianto": "Altro", "Indirizzo": "VIA PROVINCIALE NOLA-CICCIANO  80030", "Nome impianto": "CAPOLONGO SAS", "Comune": "CAMPOSANO", "idImpianto": 40439, "points": [{"type": "Feature", "properties": {}, "geometry": {"type": "Point", "coordinates": [14.537922888994215, 40.95467901849279]}}], "price": 2.109, "ultima_rilevazione": "04/07/2022 15:03:11"}, {"Gestore": "GIANDA DI MOSCA ANTONIO", "Bandiera": "Api-Ip", "Tipo impianto": "Altro", "Indirizzo": "VIA ALDO MORO SNC 80049", "Nome impianto": "totalerg", "Comune": "SOMMA VESUVIANA", "idImpianto": 38339, "points": [{"type": "Feature", "properties": {}, "geometry": {"type": "Point", "coordinates": [14.462637305259705, 40.86675029191864]}}], "price": 1.999, "ultima_rilevazione": "01/07/2022 07:42:54"}, {"Gestore": "AP CARBURANTI S.R.L.", "Bandiera": "Agip Eni", "Tipo impianto": "Altro", "Indirizzo": "VIA POMIGLIANO SNC 80049", "Nome impianto": "STAZIONE DI SERVIZIO ENI", "Comune": "SOMMA VESUVIANA", "idImpianto": 20334, "points": [{"type": "Feature", "properties": {}, "geometry": {"type": "Point", "coordinates": [14.422374665737152, 40.89165649482885]}}], "price": 2.019, "ultima_rilevazione": "02/07/2022 11:21:43"}, {"Gestore": "SERVIZI & GESTIONI ITALIA S.R.L.", "Bandiera": "Q8", "Tipo impianto": "Altro", "Indirizzo": "SS. 7BIS KM. 44+847  80030", "Nome impianto": "MARIGLIANELLA SS. 7BIS KM. 44+847", "Comune": "MARIGLIANELLA", "idImpianto": 25791, "points": [{"type": "Feature", "properties": {}, "geometry": {"type": "Point", "coordinates": [14.432668723417692, 40.93310259678763]}}], "price": 2.089, "ultima_rilevazione": "03/07/2022 00:34:42"}, {"Gestore": "SERVIZI & GESTIONI ITALIA S.R.L.", "Bandiera": "Q8", "Tipo impianto": "Altro", "Indirizzo": "VIA ALDO MORO   80049", "Nome impianto": "VIA ALDO MORO -  SOMMA VESUVIANA", "Comune": "SOMMA VESUVIANA", "idImpianto": 28360, "points": [{"type": "Feature", "properties": {}, "geometry": {"type": "Point", "coordinates": [14.44931978538898, 40.86903902848026]}}], "price": 1.988, "ultima_rilevazione": "04/07/2022 00:36:08"}, {"Gestore": "SODANO GIOVANNI", "Bandiera": "Agip Eni", "Tipo impianto": "Altro", "Indirizzo": "VIA SANTA MARIA DEL POZZO 188 80049", "Nome impianto": "sodano eni", "Comune": "SOMMA VESUVIANA", "idImpianto": 26864, "points": [{"type": "Feature", "properties": {}, "geometry": {"type": "Point", "coordinates": [14.433122534171048, 40.88322096198227]}}], "price": 1.974, "ultima_rilevazione": "04/07/2022 07:43:57"}, {"Gestore": "CENTRO GAS S.R.L.", "Bandiera": "Pompe Bianche", "Tipo impianto": "Altro", "Indirizzo": "STRADA PROVINCIALE POLVICA SNC 81027", "Nome impianto": "Centro Gas", "Comune": "SAN FELICE A CANCELLO", "idImpianto": 22948, "points": [{"type": "Feature", "properties": {}, "geometry": {"type": "Point", "coordinates": [14.44845512509346, 40.98391050149255]}}], "price": 1.999, "ultima_rilevazione": "04/07/2022 10:00:04"}, {"Gestore": "PELLEGRINO MASSIMO", "Bandiera": "Agip Eni", "Tipo impianto": "Altro", "Indirizzo": "Via seminario s.p. Nola/Casamarciano Snc 80032", "Nome impianto": "Stazione di servizio Eni", "Comune": "CASAMARCIANO", "idImpianto": 49427, "points": [{"type": "Feature", "properties": {}, "geometry": {"type": "Point", "coordinates": [14.54606406390667, 40.9295750579082]}}], "price": 1.974, "ultima_rilevazione": "04/07/2022 10:21:30"}, {"Gestore": "GAS S.R.L.", "Bandiera": "Pompe Bianche", "Tipo impianto": "Altro", "Indirizzo": "VIA XI SETTEMBRE 2001 SNC 80030", "Nome impianto": "gt fuel", "Comune": "MARIGLIANELLA", "idImpianto": 50951, "points": [{"type": "Feature", "properties": {}, "geometry": {"type": "Point", "coordinates": [14.433668363661283, 40.932867372058496]}}], "price": 2.029, "ultima_rilevazione": "04/07/2022 12:58:45"}, {"Gestore": "F.LLI DI PALMA S.A.S. DI DI PALMA ANIELLO & C.", "Bandiera": "Tamoil", "Tipo impianto": "Strada Statale", "Indirizzo": "Statale 367 Nolana Sarnese, Km. 4+200, dir. NOLA-SARNO", "Nome impianto": "TAMOIL ", "Comune": "SAN PAOLO BEL SITO", "idImpianto": 9437, "points": [{"type": "Feature", "properties": {}, "geometry": {"type": "Point", "coordinates": [14.544208645820618, 40.91560313182752]}}], "price": 1.978, "ultima_rilevazione": "04/07/2022 13:24:22"}, {"Gestore": "PICCOLO ENERGIE S.R.L.", "Bandiera": "Q8", "Tipo impianto": "Altro", "Indirizzo": "VIA MARIGLAINO SNC 80049", "Nome impianto": "PICCOLO ENERGIE SRL", "Comune": "SOMMA VESUVIANA", "idImpianto": 31050, "points": [{"type": "Feature", "properties": {}, "geometry": {"type": "Point", "coordinates": [14.447419792413712, 40.88539411943941]}}], "price": 1.989, "ultima_rilevazione": "04/07/2022 21:24:09"}, {"Gestore": "PROJECT FOOD & OIL S.R.L.", "Bandiera": "Energas", "Tipo impianto": "Altro", "Indirizzo": "Via Provinciale Cimitile/Cicciano SNC 80030", "Nome impianto": "Energas ", "Comune": "CAMPOSANO", "idImpianto": 45875, "points": [{"type": "Feature", "properties": {}, "geometry": {"type": "Point", "coordinates": [14.530801613561948, 40.94528390536588]}}], "price": 1.989, "ultima_rilevazione": "05/07/2022 08:57:53"}, {"Gestore": "TRE PONTI FOOD OIL S.R.L.", "Bandiera": "Api-Ip", "Tipo impianto": "Altro", "Indirizzo": " S.S.7 BIS - KM. 31,482 S.C. 80011", "Nome impianto": "Acerra ", "Comune": "ACERRA", "idImpianto": 16789, "points": [{"type": "Feature", "properties": {}, "geometry": {"type": "Point", "coordinates": [14.428237974643707, 40.962290376521054]}}], "price": 1.929, "ultima_rilevazione": "06/07/2022 10:42:01"}, {"Gestore": "EASY SERVICE S.R.L.", "Bandiera": "Energas", "Tipo impianto": "Altro", "Indirizzo": "Via Vesuviana SNC 80038", "Nome impianto": "Easy Service Pomigliano D'Arco", "Comune": "POMIGLIANO D'ARCO", "idImpianto": 38749, "points": [{"type": "Feature", "properties": {}, "geometry": {"type": "Point", "coordinates": [14.41037580370903, 40.9016575467778]}}], "price": 1.989, "ultima_rilevazione": "06/07/2022 12:20:43"}, {"Gestore": "ROMANO CARMELA", "Bandiera": "Agip Eni", "Tipo impianto": "Strada Statale", "Indirizzo": "Statale 268 del Vesuvio, Km. 7+744, dir. NAPOLI", "Nome impianto": "ROMANO CARMELA", "Comune": "SOMMA VESUVIANA", "idImpianto": 8156, "points": [{"type": "Feature", "properties": {}, "geometry": {"type": "Point", "coordinates": [14.436773715066463, 40.887424762457165]}}], "price": 1.989, "ultima_rilevazione": "07/07/2022 06:50:41"}, {"Gestore": "NEW SUMMA OIL S.R.L.", "Bandiera": "Agip Eni", "Tipo impianto": "Altro", "Indirizzo": "via marigliano 48/bis 80049", "Nome impianto": "DPM PETROLI", "Comune": "SOMMA VESUVIANA", "idImpianto": 41945, "points": [{"type": "Feature", "properties": {}, "geometry": {"type": "Point", "coordinates": [14.445199593901634, 40.875322870001625]}}], "price": 1.989, "ultima_rilevazione": "07/07/2022 06:57:12"}, {"Gestore": "GENOVESE RAFFAELE", "Bandiera": "Q8", "Tipo impianto": "Altro", "Indirizzo": "via nazionale delle puglie s.s.7bis km55,470 80032", "Nome impianto": "genovese raffaele", "Comune": "CASAMARCIANO", "idImpianto": 27576, "points": [{"type": "Feature", "properties": {}, "geometry": {"type": "Point", "coordinates": [14.555076956748962, 40.94443972820796]}}], "price": 1.999, "ultima_rilevazione": "07/07/2022 08:53:16"}, {"Gestore": "P.PETROLI SRL", "Bandiera": "Pompe Bianche", "Tipo impianto": "Altro", "Indirizzo": "VIA XI SETTEMBRE 272 80030", "Nome impianto": "P.PETROLI - Castello di Cisterna", "Comune": "CASTELLO DI CISTERNA", "idImpianto": 37166, "points": [{"type": "Feature", "properties": {}, "geometry": {"type": "Point", "coordinates": [14.412757605314257, 40.9089513921984]}}], "price": 1.89, "ultima_rilevazione": "07/07/2022 13:44:16"}, {"Gestore": "STAZIONE DI SERVIZIO DI AMMIRATI SEBASTIANO", "Bandiera": "Pompe Bianche", "Tipo impianto": "Altro", "Indirizzo": "VIA NOLA-PALMA SNC 80035", "Nome impianto": "AS", "Comune": "NOLA", "idImpianto": 46969, "points": [{"type": "Feature", "properties": {}, "geometry": {"type": "Point", "coordinates": [14.544473199808408, 40.90221928763224]}}], "price": 1.978, "ultima_rilevazione": "07/07/2022 16:24:14"}, {"Gestore": "DE LUCA ANTONIO", "Bandiera": "Api-Ip", "Tipo impianto": "Altro", "Indirizzo": "via provinciale  80030", "Nome impianto": "ip api", "Comune": "CAMPOSANO", "idImpianto": 29325, "points": [{"type": "Feature", "properties": {}, "geometry": {"type": "Point", "coordinates": [14.537660032510756, 40.95476500856712]}}], "price": 1.989, "ultima_rilevazione": "07/07/2022 16:57:57"}, {"Gestore": "FADDIMM  S.R.L.", "Bandiera": "Repsol", "Tipo impianto": "Altro", "Indirizzo": "VIA VITTORIO VENETO SNC 80035", "Nome impianto": "REPSOL", "Comune": "NOLA", "idImpianto": 24515, "points": [{"type": "Feature", "properties": {}, "geometry": {"type": "Point", "coordinates": [14.525086507201197, 40.90024328285186]}}], "price": 1.968, "ultima_rilevazione": "07/07/2022 21:39:18"}, {"Gestore": "IP SERVICES S.R.L.", "Bandiera": "Api-Ip", "Tipo impianto": "Altro", "Indirizzo": "SS 7 bis km 10  ", "Nome impianto": "Comiziano", "Comune": "COMIZIANO", "idImpianto": 25660, "points": [{"type": "Feature", "properties": {}, "geometry": {"type": "Point", "coordinates": [14.541735649108888, 40.94150440252946]}}], "price": 1.899, "ultima_rilevazione": "08/07/2022 09:04:17"}, {"Gestore": "SERVIZI & GESTIONI ITALIA S.R.L.", "Bandiera": "Q8", "Tipo impianto": "Altro", "Indirizzo": "VIA FORNARI  80049", "Nome impianto": "SOMMA VESUVIANA VIA FORNARI", "Comune": "SOMMA VESUVIANA", "idImpianto": 45220, "points": [{"type": "Feature", "properties": {}, "geometry": {"type": "Point", "coordinates": [14.414808165641375, 40.89746076200679]}}], "price": 1.989, "ultima_rilevazione": "08/07/2022 11:43:28"}, {"Gestore": "ORO NERO S.R.L.", "Bandiera": "Pompe Bianche", "Tipo impianto": "Altro", "Indirizzo": "VIA 11 SETTEMBRE 2001 SN 80030", "Nome impianto": "Ital Mare", "Comune": "MARIGLIANELLA", "idImpianto": 45505, "points": [{"type": "Feature", "properties": {}, "geometry": {"type": "Point", "coordinates": [14.441752, 40.935846]}}], "price": 1.979, "ultima_rilevazione": "08/07/2022 12:21:52"}, {"Gestore": "OASI VESUVIO S.R.L.", "Bandiera": "Pompe Bianche", "Tipo impianto": "Altro", "Indirizzo": "VIA POMIGLIANO 34 80049", "Nome impianto": "Oasi  Vesuvio Italmare", "Comune": "SOMMA VESUVIANA", "idImpianto": 41134, "points": [{"type": "Feature", "properties": {}, "geometry": {"type": "Point", "coordinates": [14.420388198741875, 40.893221661571545]}}], "price": 1.869, "ultima_rilevazione": "08/07/2022 14:46:25"}, {"Gestore": "VESUVIO PETROLI SERVICE  S.R.L.", "Bandiera": "Pompe Bianche", "Tipo impianto": "Strada Statale", "Indirizzo": "Statale 268 del Vesuvio, Km. N.C., dir. ANGRI 80049", "Nome impianto": "STAR OIL", "Comune": "SOMMA VESUVIANA", "idImpianto": 26712, "points": [{"type": "Feature", "properties": {}, "geometry": {"type": "Point", "coordinates": [14.436212182044985, 40.88685533919222]}}], "price": 1.909, "ultima_rilevazione": "08/07/2022 15:44:03"}]}, "Metano": {"1": [{"Gestore": "SATEGAS S.R.L.", "Bandiera": "Total Erg", "Tipo impianto": "Altro", "Indirizzo": "VIA BOSCOFANGONE SNC 80035", "Nome impianto": "ERG", "Comune": "NOLA", "idImpianto": 21229, "points": [{"type": "Feature", "properties": {}, "geometry": {"type": "Point", "coordinates": [14.502277672290802, 40.93463318794302]}}], "price": 1.8, "ultima_rilevazione": "04/07/2022 15:44:56"}, {"Gestore": "FABIANO ENERGIA S.R.L.", "Bandiera": "Pompe Bianche", "Tipo impianto": "Altro", "Indirizzo": "VIA PROVINCIALE PER NOLA 258 80030", "Nome impianto": "FABIANO ENERGIA", "Comune": "SAN VITALIANO", "idImpianto": 38160, "points": [{"type": "Feature", "properties": {}, "geometry": {"type": "Point", "coordinates": [14.494701772928238, 40.92393794218299]}}], "price": 2.199, "ultima_rilevazione": "06/07/2022 12:53:51"}], "3": [{"Gestore": "EMME PETROLI S.R.L.", "Bandiera": "Emme Petroli", "Tipo impianto": "Altro", "Indirizzo": "VIA FEUDO SNC 80035", "Nome impianto": "EMME PETROLI", "Comune": "NOLA", "idImpianto": 36769, "points": [{"type": "Feature", "properties": {}, "geometry": {"type": "Point", "coordinates": [14.526731766864714, 40.913530892231705]}}], "price": 0.005, "ultima_rilevazione": "05/07/2022 15:53:52"}, {"Gestore": "DISTRIBUTORI ECOS S.R.L.", "Bandiera": "Pompe Bianche", "Tipo impianto": "Altro", "Indirizzo": "VIA CAPUA LOCALITA' CIANCIULLI , 80035", "Nome impianto": "DISTRIBUTORI ECOS", "Comune": "NOLA", "idImpianto": 13088, "points": [{"type": "Feature", "properties": {}, "geometry": {"type": "Point", "coordinates": [14.49445366859436, 40.95737119376574]}}], "price": 1.999, "ultima_rilevazione": "05/07/2022 18:05:30"}], "5": [{"Gestore": "DR CARBURANTI SRL", "Bandiera": "Pompe Bianche", "Tipo impianto": "Altro", "Indirizzo": "VIA PAOLO BORSELLINO SNC 80030", "Nome impianto": "DR CARBURANTI", "Comune": "CASTELLO DI CISTERNA", "idImpianto": 42534, "points": [{"type": "Feature", "properties": {}, "geometry": {"type": "Point", "coordinates": [14.415920072912286, 40.9205732629621]}}], "price": 2.199, "ultima_rilevazione": "04/07/2022 13:40:17"}, {"Gestore": "PICCOLO ENERGIE S.R.L.", "Bandiera": "Q8", "Tipo impianto": "Altro", "Indirizzo": "VIA MARIGLAINO SNC 80049", "Nome impianto": "PICCOLO ENERGIE SRL", "Comune": "SOMMA VESUVIANA", "idImpianto": 31050, "points": [{"type": "Feature", "properties": {}, "geometry": {"type": "Point", "coordinates": [14.447419792413712, 40.88539411943941]}}], "price": 1.489, "ultima_rilevazione": "04/07/2022 21:24:09"}, {"Gestore": "EASY SERVICE S.R.L.", "Bandiera": "Energas", "Tipo impianto": "Altro", "Indirizzo": "Via Vesuviana SNC 80038", "Nome impianto": "Easy Service Pomigliano D'Arco", "Comune": "POMIGLIANO D'ARCO", "idImpianto": 38749, "points": [{"type": "Feature", "properties": {}, "geometry": {"type": "Point", "coordinates": [14.41037580370903, 40.9016575467778]}}], "price": 2.699, "ultima_rilevazione": "06/07/2022 12:20:43"}, {"Gestore": "GENOVESE RAFFAELE", "Bandiera": "Q8", "Tipo impianto": "Altro", "Indirizzo": "via nazionale delle puglie s.s.7bis km55,470 80032", "Nome impianto": "genovese raffaele", "Comune": "CASAMARCIANO", "idImpianto": 27576, "points": [{"type": "Feature", "properties": {}, "geometry": {"type": "Point", "coordinates": [14.555076956748962, 40.94443972820796]}}], "price": 1.989, "ultima_rilevazione": "07/07/2022 08:53:16"}, {"Gestore": "VESUVIO PETROLI SERVICE  S.R.L.", "Bandiera": "Pompe Bianche", "Tipo impianto": "Strada Statale", "Indirizzo": "Statale 268 del Vesuvio, Km. N.C., dir. ANGRI 80049", "Nome impianto": "STAR OIL", "Comune": "SOMMA VESUVIANA", "idImpianto": 26712, "points": [{"type": "Feature", "properties": {}, "geometry": {"type": "Point", "coordinates": [14.436212182044985, 40.88685533919222]}}], "price": 1.599, "ultima_rilevazione": "08/07/2022 15:44:03"}]}}