{"area_comune": "[{\"type\": \"Feature\", \"properties\": {}, \"geometry\": {\"type\": \"Polygon\", \"coordinates\": [[[14.547857601555044, 40.73420714088482], [14.547479255736212, 40.73343653011989], [14.547457788808424, 40.731430063065496], [14.54966118584541, 40.72757885210229], [14.550320553997171, 40.726998668076675], [14.553889102053873, 40.72950839169093], [14.55471436121153, 40.72993218163821], [14.560706824390108, 40.7317402575858], [14.5637246012304, 40.726607110519346], [14.564964931450268, 40.72331531329185], [14.565125698171979, 40.72239831607435], [14.557105332837233, 40.71948394412141], [14.529382953354242, 40.708337643925375], [14.522913989220784, 40.70912091473426], [14.51807261966634, 40.70735464072891], [14.5176222360401, 40.71066659180673], [14.520790044015376, 40.711329386437946], [14.5232321965752, 40.72086272731674], [14.522810985512123, 40.7234621301675], [14.520562414865534, 40.73266326760651], [14.519398777385614, 40.73353746564541], [14.5204874546493, 40.73478577735068], [14.526058036613016, 40.7347373900472], [14.529654583678589, 40.73520377188431], [14.537816940956878, 40.736742211478266], [14.542684523700384, 40.74016727389082], [14.547857601555044, 40.73420714088482]]]}}]", "comune": "santantonio-abate", "buffer_1": "[{\"type\": \"Feature\", \"properties\": {}, \"geometry\": {\"type\": \"Polygon\", \"coordinates\": [[[14.556796669563585, 40.7402149805173], [14.55782875260899, 40.74045370519264], [14.558964613934739, 40.740626232918096], [14.560117232877706, 40.74071330301234], [14.56127552157154, 40.74071407817595], [14.562428337617323, 40.740628551243624], [14.563564591399757, 40.74045754524193], [14.56467335288966, 40.74020270545172], [14.56574395689935, 40.7398664835521], [14.566766105772935, 40.739452113999995], [14.567729968518767, 40.73896358287422], [14.568626275426563, 40.73840558948545], [14.569446407256148, 40.737783501124], [14.570182478138145, 40.73710330138257], [14.570827411388734, 40.736371532553754], [14.571375007509983, 40.73559523265865], [14.571820003723763, 40.73478186771433], [14.576237421252676, 40.72543958942517], [14.576584485088858, 40.72456955232594], [14.576814177586634, 40.72367728304827], [14.576924150955158, 40.72277192068556], [14.576913283774562, 40.72186273805079], [14.576781692279923, 40.72095904670264], [14.576530728969217, 40.72007010159046], [14.57616296855778, 40.719205006293954], [14.575682181430984, 40.71837261982704], [14.575093294874316, 40.71758146595857], [14.574402342484099, 40.71683964597638], [14.57361640228214, 40.71615475578559], [14.572743524171674, 40.71553380818701], [14.571792647479711, 40.714983161129005], [14.570773509430646, 40.71450845266408], [14.569696545487414, 40.714114543273524], [14.522648712961432, 40.699072418302556], [14.521573980016285, 40.69877424893063], [14.520466381513998, 40.698556636087346], [14.519336313487878, 40.69842162254057], [14.518194382685325, 40.6983704757891], [14.51705130713247, 40.698403676170145], [14.515917815658, 40.698520912345884], [14.51480454731356, 40.698721084211755], [14.513721951629073, 40.69900231319956], [14.512680190633933, 40.699361959879916], [14.511689043558711, 40.699796648699866], [14.510757815107892, 40.70030229962524], [14.509895248161136, 40.70087416639251], [14.509109441720298, 40.701506881013415], [14.508407774871069, 40.702194504116356], [14.507796837472942, 40.702930580654666], [14.50728236822911, 40.703708200460426], [14.506869200719825, 40.704520063077986], [14.506561217908946, 40.7053585462697], [14.506361315554974, 40.706215777552714], [14.506271374874851, 40.707083708096214], [14.506292244722731, 40.707954188285974], [14.508702293248913, 40.73538588227721], [14.508839072714657, 40.73627431871133], [14.509091320589427, 40.737148005651186], [14.509456540700812, 40.737998282089805], [14.509931116552591, 40.73881671879056], [14.510510347030246, 40.73959520188891], [14.511188492884335, 40.74032601337709], [14.511958833535338, 40.74100190767152], [14.512813733640353, 40.74161618350141], [14.513744718763599, 40.74216275040319], [14.514742559401261, 40.74263618915884], [14.51579736252666, 40.74303180557637], [14.516898669745988, 40.74334567707668], [14.539098463826205, 40.74872769747061], [14.540236284762983, 40.74895660740582], [14.54139841344076, 40.74909826708505], [14.542573310557646, 40.74915127019865], [14.543749309953133, 40.74911509075644], [14.544914734588083, 40.748990088304794], [14.546058012630253, 40.74877750434021], [14.547167792485787, 40.7484794499557], [14.548233055627948, 40.748098884843785], [14.549243226096976, 40.74763958786632], [14.550188275578801, 40.74710611948526], [14.55105882301542, 40.74650377642982], [14.55184622775533, 40.74583853905274], [14.55254267531789, 40.745117011900795], [14.556796669563585, 40.7402149805173]]]}}]", "buffer_3": "[{\"type\": \"Feature\", \"properties\": {}, \"geometry\": {\"type\": \"Polygon\", \"coordinates\": [[[14.569348117138313, 40.75787671281773], [14.572609759887598, 40.757126973508186], [14.57582218109031, 40.75611801412476], [14.578889084833735, 40.754874576736846], [14.581780960600735, 40.75340863221213], [14.584469988237425, 40.75173429197403], [14.586930305941525, 40.74986767172582], [14.589138259119265, 40.747826735887024], [14.591072627711451, 40.74563112426153], [14.592714829807946, 40.743301962626646], [14.59404909960963, 40.740861659085866], [14.598463602648858, 40.73151870804812], [14.599503942853408, 40.728908445783105], [14.600192092172097, 40.72623155836136], [14.600521045182948, 40.723515466304086], [14.60048747715493, 40.72078798823991], [14.600091776283712, 40.71807705597714], [14.599338037902083, 40.71541042855726], [14.598234020798655, 40.712815408212805], [14.596791066162876, 40.71031856112783], [14.59502398005125, 40.7079454458445], [14.592950880634634, 40.705720352077435], [14.590593011835804, 40.70366605258652], [14.58797452529836, 40.70180357062308], [14.585122232937907, 40.70015196530335], [14.582065332613253, 40.69872813707897], [14.578835109715506, 40.69754665526952], [14.53179776528565, 40.6825076280483], [14.528574325525703, 40.68161329946941], [14.525252377993699, 40.6809605781008], [14.521863079044811, 40.6805555878667], [14.518438215040845, 40.680402129381655], [14.51500990531068, 40.680501644342705], [14.511610302020648, 40.680853201963245], [14.508271289718468, 40.681453507577054], [14.50502418731821, 40.68229693333678], [14.501899455273307, 40.68337557072754], [14.498926410640754, 40.68467930441468], [14.496132952671575, 40.6861959067477], [14.493545301471762, 40.687911152050866], [14.491187752164082, 40.68980894964645], [14.489082446845488, 40.691871494382504], [14.487249166478248, 40.69407943327247], [14.485705144676105, 40.69641204670209], [14.484464905151663, 40.69884744252169], [14.483540124378516, 40.70136276121808], [14.482939520793567, 40.70393439025453], [14.482668771623123, 40.706538185577436], [14.482730458162584, 40.70914969821764], [14.485130932141722, 40.736582503526684], [14.485540361604071, 40.73924795537923], [14.486296273186097, 40.74186922252471], [14.487391211304661, 40.74442031379192], [14.488814355069785, 40.74687593111709], [14.490551624267148, 40.74921172075796], [14.49258581788971, 40.751404515227854], [14.494896783886537, 40.753432563530424], [14.497461618476105, 40.75527574738932], [14.50025489306602, 40.75691578130439], [14.503248906534196, 40.75833639442589], [14.506413960361906, 40.75952349241914], [14.509718653869571, 40.76046529769162], [14.5319239007345, 40.76584836698337], [14.535338233453944, 40.76653522174759], [14.538825551786738, 40.76696025510691], [14.542351200866628, 40.76711924597351], [14.545880144240911, 40.767010617105996], [14.549377313317997, 40.76663545073196], [14.552807957111725, 40.765997477646515], [14.556137988744675, 40.76510303990097], [14.559334325208209, 40.763961027463466], [14.562365216950043, 40.762582789495774], [14.56520056396948, 40.760982021146155], [14.56781221524454, 40.75917462700431], [14.569348117138313, 40.75787671281773]]]}}]", "buffer_5": "[{\"type\": \"Feature\", \"properties\": {}, \"geometry\": {\"type\": \"Polygon\", \"coordinates\": [[[14.582073498389413, 40.773572087264604], [14.585905688878018, 40.77236831496826], [14.591017957058897, 40.770295370981216], [14.59583822887994, 40.76785154443298], [14.600320119075608, 40.765060376893956], [14.604420517901284, 40.761948750964], [14.608100006147557, 40.758546630109784], [14.61132323381218, 40.7548867689015], [14.614059258803923, 40.751004396498224], [14.616281842469323, 40.74693687648566], [14.620693428374587, 40.73759325377603], [14.622425908804624, 40.733242565619896], [14.62357127664811, 40.728780954616454], [14.624117919519392, 40.72425412698929], [14.624060362110416, 40.71970844738279], [14.623399317220642, 40.715190463976704], [14.622141673419867, 40.71074643211141], [14.620300419676006, 40.70642184128683], [14.617894507916112, 40.70226095034834], [14.614948655107115, 40.69830633557481], [14.611493087037855, 40.69459845624072], [14.607563226550099, 40.69117524203438], [14.603199329499782, 40.688071706484585], [14.59844607222578, 40.685319590277246], [14.593352094759359, 40.682947038036744], [14.587969504419604, 40.680978311806655], [14.540942642935805, 40.665942378338215], [14.53557150771146, 40.6644521295162], [14.530036340730891, 40.66336445550229], [14.524389016433066, 40.662689555568754], [14.518682455726463, 40.66243376095625], [14.512970133025197, 40.662599475642565], [14.507305578188067, 40.66318515368865], [14.501741877886893, 40.664185313377956], [14.496331180937473, 40.665590588030426], [14.491124212096837, 40.667387813038296], [14.486169798763395, 40.669560148340565], [14.481514414912738, 40.67208723522823], [14.4772017464614, 40.67494538605672], [14.473272282074435, 40.67810780513831], [14.46976293322091, 40.68154483879681], [14.466706687035542, 40.68522425229443], [14.464132295265554, 40.68911153108683], [14.462064002271623, 40.69317020363057], [14.460521314711595, 40.69736218275975], [14.459518815168437, 40.701648122466736], [14.459066021591495, 40.70598778676908], [14.459167294006269, 40.7103404272209], [14.46155819126744, 40.737774339285316], [14.462239058258994, 40.7422169959087], [14.463497523241882, 40.74658611773488], [14.465321215215464, 40.750838372602345], [14.467692147133814, 40.75493157984514], [14.470586890643414, 40.75882512966174], [14.473976805427911, 40.762480387137174], [14.477828321001828, 40.765861076855074], [14.482103268244302, 40.768933644221526], [14.486759257436283, 40.77166758984933], [14.491750099066932, 40.7740357736172], [14.49702626321395, 40.776014685320334], [14.502535372883607, 40.777584679164384], [14.524746076170548, 40.782968798941816], [14.530438081620977, 40.78411376549799], [14.53625183397628, 40.784822245197866], [14.542129513409364, 40.78508719927495], [14.54801266242119, 40.78490600020102], [14.553842770776988, 40.7842804576767], [14.559561860904315, 40.7832168002243], [14.56511306775664, 40.78172561258325], [14.570441207211195, 40.77982172956068], [14.575493327200421, 40.77752408743464], [14.580219235971375, 40.77485553443856], [14.582073498389413, 40.773572087264604]]]}}]", "centroid": "[{\"type\": \"Feature\", \"properties\": {}, \"geometry\": {\"type\": \"Point\", \"coordinates\": [14.537838298198393, 40.72379608244045]}}]", "Diesel High Quality": {"1": [{"Gestore": "PADOVANO LUIGI", "Bandiera": "Esso", "Tipo impianto": "Altro", "Indirizzo": "VIA DEI GOTI 87 84012", "Nome impianto": "PADOVANO LUIGI", "Comune": "ANGRI", "idImpianto": 45211, "points": [{"type": "Feature", "properties": {}, "geometry": {"type": "Point", "coordinates": [14.569725000123, 40.734039000123]}}], "price": 2.109, "ultima_rilevazione": "14/07/2022 11:16:11"}], "3": [{"Gestore": "EUROPA SERVICE SOCIETA' A RESPONSABILITA' LIMITATA", "Bandiera": "Q8", "Tipo impianto": "Altro", "Indirizzo": "viale europa 154 80053", "Nome impianto": "Q8 Europa Service", "Comune": "CASTELLAMMARE DI STABIA", "idImpianto": 43882, "points": [{"type": "Feature", "properties": {}, "geometry": {"type": "Point", "coordinates": [14.489071915344198, 40.70126796656399]}}], "price": 1.929, "ultima_rilevazione": "21/01/2022 08:22:32"}, {"Gestore": "CASCONE CARBURANTI DI CINZIA SPINELLI S.A.S.", "Bandiera": "Q8", "Tipo impianto": "Altro", "Indirizzo": "STRADA PONTE DELLA PERSICA 100 80053", "Nome impianto": "Q8", "Comune": "CASTELLAMMARE DI STABIA", "idImpianto": 9595, "points": [{"type": "Feature", "properties": {}, "geometry": {"type": "Point", "coordinates": [14.485897421836851, 40.73187189266499]}}], "price": 2.099, "ultima_rilevazione": "21/06/2022 07:38:53"}, {"Gestore": "CARBURANTE DI CASCONE NICOLA", "Bandiera": "Esso", "Tipo impianto": "Altro", "Indirizzo": "VIA DANTE ALIGHIERI 27 84018", "Nome impianto": "CARBURANTE DI CASCONE NICOLA", "Comune": "SCAFATI", "idImpianto": 45066, "points": [{"type": "Feature", "properties": {}, "geometry": {"type": "Point", "coordinates": [14.534445000123, 40.749389000123]}}], "price": 2.139, "ultima_rilevazione": "13/07/2022 17:39:54"}, {"Gestore": "SERVIZI & GESTIONI ITALIA S.R.L.", "Bandiera": "Q8", "Tipo impianto": "Altro", "Indirizzo": "VIA MADONNA DELLE GRAZIE 238 80050", "Nome impianto": "SANTA MARIA LA CARITA'-VIA MADONNA DELLE GRAZIE 238", "Comune": "SANTA MARIA LA CARITA'", "idImpianto": 11728, "points": [{"type": "Feature", "properties": {}, "geometry": {"type": "Point", "coordinates": [14.50580728836053, 40.70934676337253]}}], "price": 2.229, "ultima_rilevazione": "18/07/2022 00:37:46"}, {"Gestore": "G. V. CARBURANTI S.A.S. DI CIARAVOLO MARIAROSARIA & C.", "Bandiera": "Esso", "Tipo impianto": "Altro", "Indirizzo": "Via Castellammare 120 80054", "Nome impianto": "Stazione Esso Gragnano", "Comune": "GRAGNANO", "idImpianto": 43246, "points": [{"type": "Feature", "properties": {}, "geometry": {"type": "Point", "coordinates": [14.505942105522536, 40.69418763269579]}}], "price": 2.119, "ultima_rilevazione": "19/07/2022 06:37:47"}], "5": [{"Gestore": "AREA FELIX S.A.S. DI AMITRANO POLISTO", "Bandiera": "Api-Ip", "Tipo impianto": "Altro", "Indirizzo": "VIA PLINIO 101 80045", "Nome impianto": "IP Area Felix", "Comune": "POMPEI", "idImpianto": 42083, "points": [{"type": "Feature", "properties": {}, "geometry": {"type": "Point", "coordinates": [14.486825459215993, 40.74677174655304]}}], "price": 1.879, "ultima_rilevazione": "18/07/2022 16:12:50"}, {"Gestore": "ORGANIZZAZIONE SERVIZI AUTO - O.S.A. - S.P.A.", "Bandiera": "Esso", "Tipo impianto": "Altro", "Indirizzo": "VIA PASSANTI 267 84018", "Nome impianto": "ESSO SCAFATI", "Comune": "SCAFATI", "idImpianto": 50249, "points": [{"type": "Feature", "properties": {}, "geometry": {"type": "Point", "coordinates": [14.517707887191804, 40.76596745019975]}}], "price": 2.129, "ultima_rilevazione": "20/07/2022 16:10:12"}]}, "Blue Diesel": {"1": [{"Gestore": "MASCOLO FRANCESCO", "Bandiera": "Agip Eni", "Tipo impianto": "Altro", "Indirizzo": "via scafati  80057", "Nome impianto": "Francesco Mascolo", "Comune": "SANT'ANTONIO ABATE", "idImpianto": 7854, "points": [{"type": "Feature", "properties": {}, "geometry": {"type": "Point", "coordinates": [14.539611649212702, 40.72706461128277]}}], "price": 2.004, "ultima_rilevazione": "20/07/2022 09:41:23"}], "3": [{"Gestore": "CA.VER. S.N.C. DI CACCIOPPOLI MAURIZIO E GIANLUCA", "Bandiera": "Agip Eni", "Tipo impianto": "Altro", "Indirizzo": "VIALE EUROPA 87 80053", "Nome impianto": "ENI", "Comune": "CASTELLAMMARE DI STABIA", "idImpianto": 32472, "points": [{"type": "Feature", "properties": {}, "geometry": {"type": "Point", "coordinates": [14.489392057717168, 40.70175169323834]}}], "price": 2.004, "ultima_rilevazione": "17/07/2022 23:24:02"}, {"Gestore": "MI.SA. CARBURANTI S.R.L.", "Bandiera": "Agip Eni", "Tipo impianto": "Altro", "Indirizzo": "VIA DE GASPERI 47 84018", "Nome impianto": "MISA CARBURANTI SRL", "Comune": "SCAFATI", "idImpianto": 43176, "points": [{"type": "Feature", "properties": {}, "geometry": {"type": "Point", "coordinates": [14.52959227423969, 40.75511612456466]}}], "price": 1.999, "ultima_rilevazione": "18/07/2022 07:32:37"}, {"Gestore": "MI.SA. CARBURANTI S.R.L.", "Bandiera": "Agip Eni", "Tipo impianto": "Altro", "Indirizzo": "VIA DE GASPERI 47 84018", "Nome impianto": "MISA CARBURANTI SRL", "Comune": "SCAFATI", "idImpianto": 43176, "points": [{"type": "Feature", "properties": {}, "geometry": {"type": "Point", "coordinates": [14.52959227423969, 40.75511612456466]}}], "price": 2.139, "ultima_rilevazione": "18/07/2022 07:32:37"}], "5": [{"Gestore": "CHIACCHIERA FRANCESCO", "Bandiera": "Agip Eni", "Tipo impianto": "Altro", "Indirizzo": "VIA VITTORIO VENETO 2 80058", "Nome impianto": "ENI spa", "Comune": "TORRE ANNUNZIATA", "idImpianto": 46634, "points": [{"type": "Feature", "properties": {}, "geometry": {"type": "Point", "coordinates": [14.465613216161728, 40.75009524376741]}}], "price": 2.364, "ultima_rilevazione": "21/07/2022 06:56:37"}, {"Gestore": "CHIACCHIERA FRANCESCO", "Bandiera": "Agip Eni", "Tipo impianto": "Altro", "Indirizzo": "VIA VITTORIO VENETO 2 80058", "Nome impianto": "ENI spa", "Comune": "TORRE ANNUNZIATA", "idImpianto": 46634, "points": [{"type": "Feature", "properties": {}, "geometry": {"type": "Point", "coordinates": [14.465613216161728, 40.75009524376741]}}], "price": 2.284, "ultima_rilevazione": "21/07/2022 06:56:37"}, {"Gestore": "F.S. PETROLI S.R.L. A CAPITALE RIDOTTO", "Bandiera": "Agip Eni", "Tipo impianto": "Altro", "Indirizzo": "VIA PADRE VINCENZO SORRENTINO SNC 84016", "Nome impianto": "F.S. PETROLI S.R.L.", "Comune": "PAGANI", "idImpianto": 20971, "points": [{"type": "Feature", "properties": {}, "geometry": {"type": "Point", "coordinates": [14.61111232638359, 40.7535128869219]}}], "price": 2.019, "ultima_rilevazione": "18/07/2022 09:25:59"}, {"Gestore": "F.S. PETROLI S.R.L. A CAPITALE RIDOTTO", "Bandiera": "Agip Eni", "Tipo impianto": "Altro", "Indirizzo": "VIA PADRE VINCENZO SORRENTINO SNC 84016", "Nome impianto": "F.S. PETROLI S.R.L.", "Comune": "PAGANI", "idImpianto": 20971, "points": [{"type": "Feature", "properties": {}, "geometry": {"type": "Point", "coordinates": [14.61111232638359, 40.7535128869219]}}], "price": 2.139, "ultima_rilevazione": "18/07/2022 09:25:59"}, {"Gestore": "MULTICARBURANTE DI MARESCA ANNA & C. S.N.C.", "Bandiera": "Agip Eni", "Tipo impianto": "Altro", "Indirizzo": "Via Taurano 128 84016", "Nome impianto": "Multicarburante di Maresca Anna & C. s.n.c.", "Comune": "PAGANI", "idImpianto": 5643, "points": [{"type": "Feature", "properties": {}, "geometry": {"type": "Point", "coordinates": [14.592188000679016, 40.75515215542613]}}], "price": 2.139, "ultima_rilevazione": "18/07/2022 16:58:15"}, {"Gestore": "MULTICARBURANTE DI MARESCA ANNA & C. S.N.C.", "Bandiera": "Agip Eni", "Tipo impianto": "Altro", "Indirizzo": "Via Taurano 128 84016", "Nome impianto": "Multicarburante di Maresca Anna & C. s.n.c.", "Comune": "PAGANI", "idImpianto": 5643, "points": [{"type": "Feature", "properties": {}, "geometry": {"type": "Point", "coordinates": [14.592188000679016, 40.75515215542613]}}], "price": 2.039, "ultima_rilevazione": "18/07/2022 16:58:15"}]}, "Gasolio High Quality": {"1": [], "3": [], "5": [{"Gestore": "SAVINELLI CARBURANTI S.A.S. DI MARCO SAVINELLI & C.", "Bandiera": "Esso", "Tipo impianto": "Autostradale", "Indirizzo": "A3 NAPOLI-SALERNO, Km. 20, sud 80058", "Nome impianto": "TORRE ANNUNZIATA OVEST", "Comune": "TORRE ANNUNZIATA", "idImpianto": 41777, "points": [{"type": "Feature", "properties": {}, "geometry": {"type": "Point", "coordinates": [14.472215473651886, 40.75156676184485]}}], "price": 2.159, "ultima_rilevazione": "18/07/2022 13:51:46"}, {"Gestore": "LANGELLA CARBURANTI DI LANGELLA DAVIDE", "Bandiera": "Pompe Bianche", "Tipo impianto": "Altro", "Indirizzo": "VIA FILETTINE 118 84016", "Nome impianto": "LANGELLA CARBURANTI", "Comune": "PAGANI", "idImpianto": 49857, "points": [{"type": "Feature", "properties": {}, "geometry": {"type": "Point", "coordinates": [14.608788183872583, 40.755019758641126]}}], "price": 1.989, "ultima_rilevazione": "19/07/2022 08:36:39"}]}, "Benzina": {"1": [{"Gestore": "PADOVANO LUIGI", "Bandiera": "Esso", "Tipo impianto": "Altro", "Indirizzo": "VIA DEI GOTI 87 84012", "Nome impianto": "PADOVANO LUIGI", "Comune": "ANGRI", "idImpianto": 45211, "points": [{"type": "Feature", "properties": {}, "geometry": {"type": "Point", "coordinates": [14.569725000123, 40.734039000123]}}], "price": 2.029, "ultima_rilevazione": "14/07/2022 11:16:11"}, {"Gestore": "SANTA MARIA CARBURANTI S.R.L.", "Bandiera": "Pompe Bianche", "Tipo impianto": "Altro", "Indirizzo": "VIA CARRARA SNC 80050", "Nome impianto": "SANTA MARIA CARBURANTI SRL", "Comune": "SANTA MARIA LA CARITA'", "idImpianto": 47407, "points": [{"type": "Feature", "properties": {}, "geometry": {"type": "Point", "coordinates": [14.510791003704073, 40.73084384549661]}}], "price": 1.979, "ultima_rilevazione": "16/07/2022 07:36:46"}, {"Gestore": "SUMMA OIL SRL", "Bandiera": "Tamoil", "Tipo impianto": "Altro", "Indirizzo": "Via Provinciale Santa Maria la Carit\u00e0 snc 80057", "Nome impianto": "Summa Oil srl", "Comune": "SANT'ANTONIO ABATE", "idImpianto": 39043, "points": [{"type": "Feature", "properties": {}, "geometry": {"type": "Point", "coordinates": [14.532002583146095, 40.72025066060659]}}], "price": 1.999, "ultima_rilevazione": "16/07/2022 11:43:39"}, {"Gestore": "SERVIZI & GESTIONI ITALIA srl", "Bandiera": "Q8", "Tipo impianto": "Altro", "Indirizzo": "LOC.MADONNA DELLE GRAZIE 143 80054", "Nome impianto": "GRAGNANO LOC.MADONNA DELLE GRAZIE 143", "Comune": "GRAGNANO", "idImpianto": 6703, "points": [{"type": "Feature", "properties": {}, "geometry": {"type": "Point", "coordinates": [14.50821713313519, 40.70968946774899]}}], "price": 1.949, "ultima_rilevazione": "18/07/2022 00:37:41"}, {"Gestore": "SERVIZI & GESTIONI ITALIA S.R.L.", "Bandiera": "Q8", "Tipo impianto": "Altro", "Indirizzo": "VIA DEI PASTAI  ", "Nome impianto": "GRAGNANO VIA DEI PASTAI", "Comune": "GRAGNANO", "idImpianto": 20818, "points": [{"type": "Feature", "properties": {}, "geometry": {"type": "Point", "coordinates": [14.514175396329849, 40.70174512517942]}}], "price": 1.949, "ultima_rilevazione": "18/07/2022 00:38:08"}, {"Gestore": "PETROLCHIMICA SUD - S.R.L.", "Bandiera": "Pompe Bianche", "Tipo impianto": "Altro", "Indirizzo": "VIA CAMPIA SNC 84013", "Nome impianto": "ANGRI", "Comune": "ANGRI", "idImpianto": 35638, "points": [{"type": "Feature", "properties": {}, "geometry": {"type": "Point", "coordinates": [14.561990350484848, 40.73931612267616]}}], "price": 1.889, "ultima_rilevazione": "18/07/2022 14:15:55"}, {"Gestore": "LE SPOSE DI BIANCA DI ANNARUMMA BIANCA", "Bandiera": "Pompe Bianche", "Tipo impianto": "Altro", "Indirizzo": "VIA PALUDICELLA 30A 84012", "Nome impianto": "VISCARDI CARBURANTI METANO GPL", "Comune": "ANGRI", "idImpianto": 42811, "points": [{"type": "Feature", "properties": {}, "geometry": {"type": "Point", "coordinates": [14.548700884665209, 40.72987052231823]}}], "price": 2.072, "ultima_rilevazione": "18/07/2022 17:57:06"}, {"Gestore": "VINCENZO CASCONE S.R.L.", "Bandiera": "Pompe Bianche", "Tipo impianto": "Altro", "Indirizzo": "VIA SCAFATI 223 80050", "Nome impianto": "STAZIONE DI SERVIZIO CASCONE", "Comune": "SANTA MARIA LA CARITA'", "idImpianto": 40789, "points": [{"type": "Feature", "properties": {}, "geometry": {"type": "Point", "coordinates": [14.513311487102555, 40.72861658682665]}}], "price": 1.979, "ultima_rilevazione": "19/07/2022 06:29:42"}, {"Gestore": "CAVALLARO S.N.C. DI CAVALLARO FRANCESCO E CAVALLARO MASSIMO", "Bandiera": "Pompe Bianche", "Tipo impianto": "Altro", "Indirizzo": "via sant'antonio abate 86 84018", "Nome impianto": "distributore cavallaro", "Comune": "SCAFATI", "idImpianto": 42182, "points": [{"type": "Feature", "properties": {}, "geometry": {"type": "Point", "coordinates": [14.530619451555252, 40.74301494983108]}}], "price": 2.169, "ultima_rilevazione": "19/07/2022 06:58:17"}, {"Gestore": "VIN.G S.A.S. DI VICIDOMINI LUCIA", "Bandiera": "Total Erg", "Tipo impianto": "Altro", "Indirizzo": "VIA STABIA SNC, 80057", "Nome impianto": "TOTAL ERG", "Comune": "SANT'ANTONIO ABATE", "idImpianto": 16934, "points": [{"type": "Feature", "properties": {}, "geometry": {"type": "Point", "coordinates": [14.531820682850594, 40.71421398059992]}}], "price": 1.979, "ultima_rilevazione": "19/07/2022 10:30:35"}, {"Gestore": "LA MURA GROUP S.R.L.", "Bandiera": "Total Erg", "Tipo impianto": "Altro", "Indirizzo": "VIA SCAFATI 283 80050", "Nome impianto": "La Mura Group", "Comune": "SANTA MARIA LA CARITA'", "idImpianto": 27269, "points": [{"type": "Feature", "properties": {}, "geometry": {"type": "Point", "coordinates": [14.514097782208978, 40.73094364975582]}}], "price": 1.929, "ultima_rilevazione": "20/07/2022 08:25:38"}, {"Gestore": "MASCOLO FRANCESCO", "Bandiera": "Agip Eni", "Tipo impianto": "Altro", "Indirizzo": "via scafati  80057", "Nome impianto": "Francesco Mascolo", "Comune": "SANT'ANTONIO ABATE", "idImpianto": 7854, "points": [{"type": "Feature", "properties": {}, "geometry": {"type": "Point", "coordinates": [14.539611649212702, 40.72706461128277]}}], "price": 1.974, "ultima_rilevazione": "20/07/2022 09:41:23"}, {"Gestore": "F.A.S. PETROLI S.A.S. DI SALVATORE FRANCO", "Bandiera": "Tamoil", "Tipo impianto": "Altro", "Indirizzo": "Via papa giovanni23 18 84012", "Nome impianto": "Distributore tamoil", "Comune": "ANGRI", "idImpianto": 42932, "points": [{"type": "Feature", "properties": {}, "geometry": {"type": "Point", "coordinates": [14.566300069940551, 40.73623133987071]}}], "price": 1.999, "ultima_rilevazione": "21/07/2022 06:16:05"}, {"Gestore": "LA SUPREMA  - S.R.L.", "Bandiera": "Pompe Bianche", "Tipo impianto": "Altro", "Indirizzo": "VIA DEI GOTI 298 84012", "Nome impianto": "la suprema srl", "Comune": "ANGRI", "idImpianto": 42745, "points": [{"type": "Feature", "properties": {}, "geometry": {"type": "Point", "coordinates": [14.55362076686481, 40.72930309774013]}}], "price": 1.96, "ultima_rilevazione": "21/07/2022 07:01:59"}], "3": [{"Gestore": "EUROPA SERVICE SOCIETA' A RESPONSABILITA' LIMITATA", "Bandiera": "Q8", "Tipo impianto": "Altro", "Indirizzo": "viale europa 154 80053", "Nome impianto": "Q8 Europa Service", "Comune": "CASTELLAMMARE DI STABIA", "idImpianto": 43882, "points": [{"type": "Feature", "properties": {}, "geometry": {"type": "Point", "coordinates": [14.489071915344198, 40.70126796656399]}}], "price": 1.839, "ultima_rilevazione": "21/01/2022 08:22:32"}, {"Gestore": "CASCONE CARBURANTI DI CINZIA SPINELLI S.A.S.", "Bandiera": "Q8", "Tipo impianto": "Altro", "Indirizzo": "STRADA PONTE DELLA PERSICA 100 80053", "Nome impianto": "Q8", "Comune": "CASTELLAMMARE DI STABIA", "idImpianto": 9595, "points": [{"type": "Feature", "properties": {}, "geometry": {"type": "Point", "coordinates": [14.485897421836851, 40.73187189266499]}}], "price": 1.959, "ultima_rilevazione": "21/06/2022 07:38:53"}, {"Gestore": "SA.MO. PETROLI DI SALVATORE MOSCA", "Bandiera": "Pompe Bianche", "Tipo impianto": "Altro", "Indirizzo": "via ripuaria 75 80045", "Nome impianto": "m petroli", "Comune": "POMPEI", "idImpianto": 33087, "points": [{"type": "Feature", "properties": {}, "geometry": {"type": "Point", "coordinates": [14.499395071094568, 40.73940683796222]}}], "price": 2.065, "ultima_rilevazione": "11/07/2022 16:41:31"}, {"Gestore": "CARBURANTE DI CASCONE NICOLA", "Bandiera": "Esso", "Tipo impianto": "Altro", "Indirizzo": "VIA DANTE ALIGHIERI 27 84018", "Nome impianto": "CARBURANTE DI CASCONE NICOLA", "Comune": "SCAFATI", "idImpianto": 45066, "points": [{"type": "Feature", "properties": {}, "geometry": {"type": "Point", "coordinates": [14.534445000123, 40.749389000123]}}], "price": 1.979, "ultima_rilevazione": "13/07/2022 17:39:54"}, {"Gestore": "COCCURULLO COSIMO", "Bandiera": "Pompe Bianche", "Tipo impianto": "Altro", "Indirizzo": "VIA E.CHIUNZI 2 84010", "Nome impianto": "Coccurullo Cosimo", "Comune": "CORBARA", "idImpianto": 50799, "points": [{"type": "Feature", "properties": {}, "geometry": {"type": "Point", "coordinates": [14.597206204893496, 40.72227233103176]}}], "price": 1.979, "ultima_rilevazione": "15/07/2022 08:13:48"}, {"Gestore": "MANNA DI MASCOLO LUIGI E ANNARUMMA ALESSANDRO & C. S.N.C.", "Bandiera": "Agip Eni", "Tipo impianto": "Altro", "Indirizzo": "VIA ADRIANA 7 84012", "Nome impianto": "MANNA PETROLI", "Comune": "ANGRI", "idImpianto": 47739, "points": [{"type": "Feature", "properties": {}, "geometry": {"type": "Point", "coordinates": [14.577712763537724, 40.736205840818]}}], "price": 1.899, "ultima_rilevazione": "15/07/2022 12:28:28"}, {"Gestore": "FRATELLI LONGOBARDI DI DEL GAUDIO NUNZIA & C. S.N.C.", "Bandiera": "Pompe Bianche", "Tipo impianto": "Altro", "Indirizzo": "VIA FONTANELLE 249 80045", "Nome impianto": "FRATELLI LONGOBARDI", "Comune": "POMPEI", "idImpianto": 33882, "points": [{"type": "Feature", "properties": {}, "geometry": {"type": "Point", "coordinates": [14.497255235910416, 40.723622169200425]}}], "price": 1.999, "ultima_rilevazione": "15/07/2022 17:12:34"}, {"Gestore": "2 G PETROLI S.R.L. SEMPLIFICATA", "Bandiera": "Pompe Bianche", "Tipo impianto": "Altro", "Indirizzo": "VIA G.B. CASCIELLO SNC 84018", "Nome impianto": "Eurogas", "Comune": "SCAFATI", "idImpianto": 46282, "points": [{"type": "Feature", "properties": {}, "geometry": {"type": "Point", "coordinates": [14.519029453570738, 40.76145869786863]}}], "price": 1.979, "ultima_rilevazione": "16/07/2022 16:27:31"}, {"Gestore": "CA.VER. S.N.C. DI CACCIOPPOLI MAURIZIO E GIANLUCA", "Bandiera": "Agip Eni", "Tipo impianto": "Altro", "Indirizzo": "VIALE EUROPA 87 80053", "Nome impianto": "ENI", "Comune": "CASTELLAMMARE DI STABIA", "idImpianto": 32472, "points": [{"type": "Feature", "properties": {}, "geometry": {"type": "Point", "coordinates": [14.489392057717168, 40.70175169323834]}}], "price": 1.994, "ultima_rilevazione": "17/07/2022 23:24:02"}, {"Gestore": "SERVIZI & GESTIONI ITALIA S.R.L.", "Bandiera": "Q8", "Tipo impianto": "Altro", "Indirizzo": "VIA MADONNA DELLE GRAZIE 238 80050", "Nome impianto": "SANTA MARIA LA CARITA'-VIA MADONNA DELLE GRAZIE 238", "Comune": "SANTA MARIA LA CARITA'", "idImpianto": 11728, "points": [{"type": "Feature", "properties": {}, "geometry": {"type": "Point", "coordinates": [14.50580728836053, 40.70934676337253]}}], "price": 1.979, "ultima_rilevazione": "18/07/2022 00:37:46"}, {"Gestore": "SERVIZI & GESTIONI ITALIA srl", "Bandiera": "Q8", "Tipo impianto": "Altro", "Indirizzo": "VIA S.P.UNGARO SNC 84018", "Nome impianto": "SCAFATI VIA S.P.UNGARO", "Comune": "SCAFATI", "idImpianto": 6738, "points": [{"type": "Feature", "properties": {}, "geometry": {"type": "Point", "coordinates": [14.522836018420094, 40.7591448349824]}}], "price": 1.959, "ultima_rilevazione": "18/07/2022 00:37:54"}, {"Gestore": "MI.SA. CARBURANTI S.R.L.", "Bandiera": "Agip Eni", "Tipo impianto": "Altro", "Indirizzo": "VIA DE GASPERI 47 84018", "Nome impianto": "MISA CARBURANTI SRL", "Comune": "SCAFATI", "idImpianto": 43176, "points": [{"type": "Feature", "properties": {}, "geometry": {"type": "Point", "coordinates": [14.52959227423969, 40.75511612456466]}}], "price": 1.989, "ultima_rilevazione": "18/07/2022 07:32:37"}, {"Gestore": "POMPEANGAS - S.A.S. DI ALLEGRO CATELLO & C.", "Bandiera": "Pompe Bianche", "Tipo impianto": "Altro", "Indirizzo": "VIA SALICE 157 84012", "Nome impianto": "BREAK ZONE  - POMPEANGAS", "Comune": "ANGRI", "idImpianto": 16158, "points": [{"type": "Feature", "properties": {}, "geometry": {"type": "Point", "coordinates": [14.56152766942978, 40.74097687632511]}}], "price": 2.02, "ultima_rilevazione": "18/07/2022 08:18:16"}, {"Gestore": "ROCAL S.R.L.", "Bandiera": "Pompe Bianche", "Tipo impianto": "Altro", "Indirizzo": "VIA SALICE 30 84012", "Nome impianto": "FERRI FUEL", "Comune": "ANGRI", "idImpianto": 45470, "points": [{"type": "Feature", "properties": {}, "geometry": {"type": "Point", "coordinates": [14.555597621551556, 40.74340303566079]}}], "price": 1.959, "ultima_rilevazione": "18/07/2022 11:15:50"}, {"Gestore": "TORTORA FILIPPO", "Bandiera": "Pompe Bianche", "Tipo impianto": "Altro", "Indirizzo": "VIALE PAPA GIOVANNI XXIII 145 84012", "Nome impianto": "ANGELINA PETROLI", "Comune": "ANGRI", "idImpianto": 32242, "points": [{"type": "Feature", "properties": {}, "geometry": {"type": "Point", "coordinates": [14.56538276580227, 40.74103632577491]}}], "price": 1.999, "ultima_rilevazione": "18/07/2022 11:22:54"}, {"Gestore": "SERVIZI & GESTIONI ITALIA S.R.L.", "Bandiera": "Q8", "Tipo impianto": "Altro", "Indirizzo": "S.S. 18 KM 24+623  80045", "Nome impianto": "POMPEI S.S. 18 KM 24+623", "Comune": "POMPEI", "idImpianto": 23138, "points": [{"type": "Feature", "properties": {}, "geometry": {"type": "Point", "coordinates": [14.49668714313043, 40.74617638697647]}}], "price": 1.909, "ultima_rilevazione": "19/07/2022 01:38:37"}, {"Gestore": "SERVIZI & GESTIONI ITALIA srl", "Bandiera": "Q8", "Tipo impianto": "Altro", "Indirizzo": "SS 18 LC BAGNI SNC 84018", "Nome impianto": "SCAFATI SS 18 LC BAGNI", "Comune": "SCAFATI", "idImpianto": 6735, "points": [{"type": "Feature", "properties": {}, "geometry": {"type": "Point", "coordinates": [14.547430870534868, 40.7488283369454]}}], "price": 1.989, "ultima_rilevazione": "19/07/2022 01:38:40"}, {"Gestore": "G. V. CARBURANTI S.A.S. DI CIARAVOLO MARIAROSARIA & C.", "Bandiera": "Esso", "Tipo impianto": "Altro", "Indirizzo": "Via Castellammare 120 80054", "Nome impianto": "Stazione Esso Gragnano", "Comune": "GRAGNANO", "idImpianto": 43246, "points": [{"type": "Feature", "properties": {}, "geometry": {"type": "Point", "coordinates": [14.505942105522536, 40.69418763269579]}}], "price": 1.929, "ultima_rilevazione": "19/07/2022 06:37:47"}, {"Gestore": "AFIERO MICHELE", "Bandiera": "Loro", "Tipo impianto": "Altro", "Indirizzo": "VIA MARTIRI D'UNGHERIA 101 84018", "Nome impianto": "AFIERO MICHELE", "Comune": "SCAFATI", "idImpianto": 40883, "points": [{"type": "Feature", "properties": {}, "geometry": {"type": "Point", "coordinates": [14.52107514283989, 40.75196803180263]}}], "price": 1.989, "ultima_rilevazione": "19/07/2022 06:49:20"}, {"Gestore": "COTICELLI SEBASTIANO", "Bandiera": "Tamoil", "Tipo impianto": "Strada Statale", "Indirizzo": "Statale 366 di Agerola, Km. 27.915, dir. amalfi 80054", "Nome impianto": "TAMOIL", "Comune": "GRAGNANO", "idImpianto": 17861, "points": [{"type": "Feature", "properties": {}, "geometry": {"type": "Point", "coordinates": [14.513602491882466, 40.68983172473408]}}], "price": 1.792, "ultima_rilevazione": "19/07/2022 17:35:15"}, {"Gestore": "GRIMALDI S.R.L.", "Bandiera": "Esso", "Tipo impianto": "Altro", "Indirizzo": "Via Nazionale 398 84012", "Nome impianto": "PIC ANGRI", "Comune": "ANGRI", "idImpianto": 43551, "points": [{"type": "Feature", "properties": {}, "geometry": {"type": "Point", "coordinates": [14.581970125436785, 40.7481375560265]}}], "price": 1.949, "ultima_rilevazione": "20/07/2022 16:13:03"}, {"Gestore": "ALIBERTI VITTORIO", "Bandiera": "Tamoil", "Tipo impianto": "Altro", "Indirizzo": "VIA LEPANTO 287 80045", "Nome impianto": "TAMOIL DI ALIBERTI VITTORIO", "Comune": "POMPEI", "idImpianto": 29276, "points": [{"type": "Feature", "properties": {}, "geometry": {"type": "Point", "coordinates": [14.511073976755142, 40.74999486560387]}}], "price": 1.908, "ultima_rilevazione": "21/07/2022 07:56:07"}, {"Gestore": "TOP GOMME DI ALFANO FRANCESCO", "Bandiera": "Pompe Bianche", "Tipo impianto": "Altro", "Indirizzo": "via murelle 57 84012", "Nome impianto": "staroil", "Comune": "ANGRI", "idImpianto": 32268, "points": [{"type": "Feature", "properties": {}, "geometry": {"type": "Point", "coordinates": [14.572852095530491, 40.736616335057086]}}], "price": 1.959, "ultima_rilevazione": "20/07/2022 17:37:54"}, {"Gestore": "GRIMALDI GERARDO", "Bandiera": "Api-Ip", "Tipo impianto": "Altro", "Indirizzo": "VIALE DEGLI ARANCI 50 84010", "Nome impianto": "TOTALERG", "Comune": "SANT'EGIDIO DEL MONTE ALBINO", "idImpianto": 43142, "points": [{"type": "Feature", "properties": {}, "geometry": {"type": "Point", "coordinates": [14.586150813491829, 40.73649125888497]}}], "price": 1.939, "ultima_rilevazione": "21/07/2022 06:55:30"}], "5": [{"Gestore": "CHIACCHIERA FRANCESCO", "Bandiera": "Agip Eni", "Tipo impianto": "Altro", "Indirizzo": "VIA VITTORIO VENETO 2 80058", "Nome impianto": "ENI spa", "Comune": "TORRE ANNUNZIATA", "idImpianto": 46634, "points": [{"type": "Feature", "properties": {}, "geometry": {"type": "Point", "coordinates": [14.465613216161728, 40.75009524376741]}}], "price": 2.214, "ultima_rilevazione": "21/07/2022 06:56:37"}, {"Gestore": "MILANO TERESA", "Bandiera": "Agip Eni", "Tipo impianto": "Altro", "Indirizzo": "VIA CARLO TRAMONTANO 35 84016", "Nome impianto": "ENI", "Comune": "PAGANI", "idImpianto": 47290, "points": [{"type": "Feature", "properties": {}, "geometry": {"type": "Point", "coordinates": [14.617230790921209, 40.73821965415488]}}], "price": 1.999, "ultima_rilevazione": "11/06/2022 08:19:31"}, {"Gestore": "AMORE S.A.S. DI AMORE ROSA E C.", "Bandiera": "Api-Ip", "Tipo impianto": "Altro", "Indirizzo": "VIA MADONNINA S.N.C. SNC 80050", "Nome impianto": "IP PIMONTE", "Comune": "PIMONTE", "idImpianto": 38843, "points": [{"type": "Feature", "properties": {}, "geometry": {"type": "Point", "coordinates": [14.514060616493223, 40.6733107144828]}}], "price": 2.259, "ultima_rilevazione": "13/07/2022 09:26:18"}, {"Gestore": "FEDERICO GIOVANNI", "Bandiera": "Energas", "Tipo impianto": "Altro", "Indirizzo": "VIA SETTETERMINI 14/18 80041", "Nome impianto": "Energas", "Comune": "BOSCOREALE", "idImpianto": 42635, "points": [{"type": "Feature", "properties": {}, "geometry": {"type": "Point", "coordinates": [14.471814588993766, 40.75835307443105]}}], "price": 1.999, "ultima_rilevazione": "14/07/2022 17:48:08"}, {"Gestore": "VELAR S.R.L.", "Bandiera": "Oceania", "Tipo impianto": "Altro", "Indirizzo": "VIA BOTTARO SNC 80058", "Nome impianto": "OCEANIA (TORRE)", "Comune": "TORRE ANNUNZIATA", "idImpianto": 46731, "points": [{"type": "Feature", "properties": {}, "geometry": {"type": "Point", "coordinates": [14.473502292261742, 40.7453950371418]}}], "price": 1.909, "ultima_rilevazione": "15/07/2022 08:18:21"}, {"Gestore": "MANNA DI MASCOLO LUIGI E ANNARUMMA ALESSANDRO & C. S.N.C.", "Bandiera": "Q8", "Tipo impianto": "Altro", "Indirizzo": "via san domenico 98 84016", "Nome impianto": "ALGISA PETROLI ", "Comune": "PAGANI", "idImpianto": 43054, "points": [{"type": "Feature", "properties": {}, "geometry": {"type": "Point", "coordinates": [14.60260385959782, 40.74152181786024]}}], "price": 1.899, "ultima_rilevazione": "15/07/2022 12:29:00"}, {"Gestore": "ANSOR DI CARMELA CELOTTO & C. S.N.C.", "Bandiera": "Pompe Bianche", "Tipo impianto": "Altro", "Indirizzo": "Via Vigna Sant'Antonio 18 80058", "Nome impianto": "Ansor snc ", "Comune": "TORRE ANNUNZIATA", "idImpianto": 23362, "points": [{"type": "Feature", "properties": {}, "geometry": {"type": "Point", "coordinates": [14.476697444915771, 40.7473041058179]}}], "price": 2.109, "ultima_rilevazione": "15/07/2022 16:12:08"}, {"Gestore": "DELTA PETROLI S.R.L.", "Bandiera": "Api-Ip", "Tipo impianto": "Altro", "Indirizzo": "Via Tre Ponti snc 80045", "Nome impianto": "Delta Petroli S.r.l. (Pompei)", "Comune": "POMPEI", "idImpianto": 32071, "points": [{"type": "Feature", "properties": {}, "geometry": {"type": "Point", "coordinates": [14.506644308567047, 40.76120620819259]}}], "price": 1.929, "ultima_rilevazione": "16/07/2022 10:04:22"}, {"Gestore": "PAKO CARBURANTI S.R.L.", "Bandiera": "Pompe Bianche", "Tipo impianto": "Altro", "Indirizzo": "VIA MARRA 175 80041", "Nome impianto": "PAKO CARBURANTI", "Comune": "BOSCOREALE", "idImpianto": 47980, "points": [{"type": "Feature", "properties": {}, "geometry": {"type": "Point", "coordinates": [14.546382294477445, 40.78290918565107]}}], "price": 1.959, "ultima_rilevazione": "17/07/2022 11:19:47"}, {"Gestore": "SERVIZI & GESTIONI ITALIA srl", "Bandiera": "Q8", "Tipo impianto": "Altro", "Indirizzo": "VIA S.P.21 KM 2 SNC 84018", "Nome impianto": "SCAFATI VIA S.P.21 KM 2", "Comune": "SCAFATI", "idImpianto": 6739, "points": [{"type": "Feature", "properties": {}, "geometry": {"type": "Point", "coordinates": [14.54173958283809, 40.77428223475604]}}], "price": 1.959, "ultima_rilevazione": "18/07/2022 00:37:54"}, {"Gestore": "SAVINO ROSALIA & C. - SOCIETA' IN ACCOMANDITA SEMPLICE", "Bandiera": "Pompe Bianche", "Tipo impianto": "Altro", "Indirizzo": "VIA VALICO DI CHIUNZI  84010", "Nome impianto": "SAVINO ROSALIA  & C. S.A.S.", "Comune": "TRAMONTI", "idImpianto": 26791, "points": [{"type": "Feature", "properties": {}, "geometry": {"type": "Point", "coordinates": [14.6188, 40.718736]}}], "price": 2.049, "ultima_rilevazione": "18/07/2022 08:37:40"}, {"Gestore": "F.S. PETROLI S.R.L. A CAPITALE RIDOTTO", "Bandiera": "Agip Eni", "Tipo impianto": "Altro", "Indirizzo": "VIA PADRE VINCENZO SORRENTINO SNC 84016", "Nome impianto": "F.S. PETROLI S.R.L.", "Comune": "PAGANI", "idImpianto": 20971, "points": [{"type": "Feature", "properties": {}, "geometry": {"type": "Point", "coordinates": [14.61111232638359, 40.7535128869219]}}], "price": 1.989, "ultima_rilevazione": "18/07/2022 09:25:59"}, {"Gestore": "G.P. CARBURANTI S.R.L.", "Bandiera": "Pompe Bianche", "Tipo impianto": "Altro", "Indirizzo": "Via A. De Gasperi 55 80053", "Nome impianto": "Atala Oil", "Comune": "CASTELLAMMARE DI STABIA", "idImpianto": 45205, "points": [{"type": "Feature", "properties": {}, "geometry": {"type": "Point", "coordinates": [14.483062982447109, 40.70279398192256]}}], "price": 2.029, "ultima_rilevazione": "18/07/2022 12:53:08"}, {"Gestore": "SAVINELLI CARBURANTI S.A.S. DI MARCO SAVINELLI & C.", "Bandiera": "Esso", "Tipo impianto": "Autostradale", "Indirizzo": "A3 NAPOLI-SALERNO, Km. 20, sud 80058", "Nome impianto": "TORRE ANNUNZIATA OVEST", "Comune": "TORRE ANNUNZIATA", "idImpianto": 41777, "points": [{"type": "Feature", "properties": {}, "geometry": {"type": "Point", "coordinates": [14.472215473651886, 40.75156676184485]}}], "price": 1.999, "ultima_rilevazione": "18/07/2022 13:51:46"}, {"Gestore": "AREA FELIX S.A.S. DI AMITRANO POLISTO", "Bandiera": "Api-Ip", "Tipo impianto": "Altro", "Indirizzo": "VIA PLINIO 101 80045", "Nome impianto": "IP Area Felix", "Comune": "POMPEI", "idImpianto": 42083, "points": [{"type": "Feature", "properties": {}, "geometry": {"type": "Point", "coordinates": [14.486825459215993, 40.74677174655304]}}], "price": 1.919, "ultima_rilevazione": "18/07/2022 16:12:50"}, {"Gestore": "MULTICARBURANTE DI MARESCA ANNA & C. S.N.C.", "Bandiera": "Agip Eni", "Tipo impianto": "Altro", "Indirizzo": "Via Taurano 128 84016", "Nome impianto": "Multicarburante di Maresca Anna & C. s.n.c.", "Comune": "PAGANI", "idImpianto": 5643, "points": [{"type": "Feature", "properties": {}, "geometry": {"type": "Point", "coordinates": [14.592188000679016, 40.75515215542613]}}], "price": 1.989, "ultima_rilevazione": "18/07/2022 16:58:15"}, {"Gestore": "SERVIZI & GESTIONI ITALIA S.R.L.", "Bandiera": "Q8", "Tipo impianto": "Altro", "Indirizzo": "VIA NAPOLI 298 80053", "Nome impianto": "CASTELLAMMARE DI STABIA-VIA NAPOLI 298", "Comune": "CASTELLAMMARE DI STABIA", "idImpianto": 11740, "points": [{"type": "Feature", "properties": {}, "geometry": {"type": "Point", "coordinates": [14.479706705522515, 40.720025410796254]}}], "price": 1.909, "ultima_rilevazione": "19/07/2022 07:07:16"}, {"Gestore": "LANGELLA CARBURANTI DI LANGELLA DAVIDE", "Bandiera": "Pompe Bianche", "Tipo impianto": "Altro", "Indirizzo": "VIA FILETTINE 118 84016", "Nome impianto": "LANGELLA CARBURANTI", "Comune": "PAGANI", "idImpianto": 49857, "points": [{"type": "Feature", "properties": {}, "geometry": {"type": "Point", "coordinates": [14.608788183872583, 40.755019758641126]}}], "price": 1.928, "ultima_rilevazione": "19/07/2022 08:36:39"}, {"Gestore": "VOLO GROUP S.R.L.", "Bandiera": "CONAD", "Tipo impianto": "Altro", "Indirizzo": "VIA ALCIDE DE GASPERI 340 84016", "Nome impianto": "CONAD SUPERMERCATO", "Comune": "PAGANI", "idImpianto": 32396, "points": [{"type": "Feature", "properties": {}, "geometry": {"type": "Point", "coordinates": [14.59837898998262, 40.74986271798383]}}], "price": 1.849, "ultima_rilevazione": "21/07/2022 07:00:09"}, {"Gestore": "LAPPON GAS S.R.L.", "Bandiera": "Pompe Bianche", "Tipo impianto": "Altro", "Indirizzo": " VALICO DI CHIUNZI SNC 84010", "Nome impianto": "LapponGas ", "Comune": "TRAMONTI", "idImpianto": 33791, "points": [{"type": "Feature", "properties": {}, "geometry": {"type": "Point", "coordinates": [14.620947200198884, 40.7178867496863]}}], "price": 1.959, "ultima_rilevazione": "20/07/2022 09:00:11"}, {"Gestore": "IP SERVICES S.R.L.", "Bandiera": "Api-Ip", "Tipo impianto": "Altro", "Indirizzo": "Viale Kennedy 23 84010", "Nome impianto": "S.EGIDIO MONTE ALBINO", "Comune": "SANT'EGIDIO DEL MONTE ALBINO", "idImpianto": 34896, "points": [{"type": "Feature", "properties": {}, "geometry": {"type": "Point", "coordinates": [14.597060343586008, 40.738189638920026]}}], "price": 1.959, "ultima_rilevazione": "20/07/2022 09:02:55"}, {"Gestore": "MERIDIONAL G.P.L. - S.R.L.", "Bandiera": "Pompe Bianche", "Tipo impianto": "Altro", "Indirizzo": "VIA SPINELLI 22 80045", "Nome impianto": "Meridional Gpl srl", "Comune": "POMPEI", "idImpianto": 9615, "points": [{"type": "Feature", "properties": {}, "geometry": {"type": "Point", "coordinates": [14.504981338977814, 40.76913387129056]}}], "price": 1.969, "ultima_rilevazione": "20/07/2022 14:55:27"}, {"Gestore": "ORGANIZZAZIONE SERVIZI AUTO - O.S.A. - S.P.A.", "Bandiera": "Esso", "Tipo impianto": "Altro", "Indirizzo": "VIA PASSANTI 267 84018", "Nome impianto": "ESSO SCAFATI", "Comune": "SCAFATI", "idImpianto": 50249, "points": [{"type": "Feature", "properties": {}, "geometry": {"type": "Point", "coordinates": [14.517707887191804, 40.76596745019975]}}], "price": 1.959, "ultima_rilevazione": "20/07/2022 16:10:12"}, {"Gestore": "PEGASO CARBURANTI S.R.L.", "Bandiera": "Pompe Bianche", "Tipo impianto": "Altro", "Indirizzo": "Via Taurano 123 84016", "Nome impianto": "Pegaso Carburanti Pagani", "Comune": "PAGANI", "idImpianto": 50920, "points": [{"type": "Feature", "properties": {}, "geometry": {"type": "Point", "coordinates": [14.598368931985153, 40.75241567036497]}}], "price": 1.929, "ultima_rilevazione": "20/07/2022 22:17:54"}]}, "null": {}, "GPL": {"1": [{"Gestore": "SUD PETROLI DI CESARANO ANGELA E C. S.R.L.", "Bandiera": "Pompe Bianche", "Tipo impianto": "Altro", "Indirizzo": "VIA MARICONDA SNC 80045", "Nome impianto": "SUD PETROLI", "Comune": "POMPEI", "idImpianto": 41655, "points": [{"type": "Feature", "properties": {}, "geometry": {"type": "Point", "coordinates": [14.516078978776932, 40.73455270817856]}}], "price": 0.795, "ultima_rilevazione": "18/07/2022 11:45:16"}, {"Gestore": "LE SPOSE DI BIANCA DI ANNARUMMA BIANCA", "Bandiera": "Pompe Bianche", "Tipo impianto": "Altro", "Indirizzo": "VIA PALUDICELLA 30A 84012", "Nome impianto": "VISCARDI CARBURANTI METANO GPL", "Comune": "ANGRI", "idImpianto": 42811, "points": [{"type": "Feature", "properties": {}, "geometry": {"type": "Point", "coordinates": [14.548700884665209, 40.72987052231823]}}], "price": 0.81, "ultima_rilevazione": "18/07/2022 17:57:06"}, {"Gestore": "VIN.G S.A.S. DI VICIDOMINI LUCIA", "Bandiera": "Total Erg", "Tipo impianto": "Altro", "Indirizzo": "VIA STABIA SNC, 80057", "Nome impianto": "TOTAL ERG", "Comune": "SANT'ANTONIO ABATE", "idImpianto": 16934, "points": [{"type": "Feature", "properties": {}, "geometry": {"type": "Point", "coordinates": [14.531820682850594, 40.71421398059992]}}], "price": 0.799, "ultima_rilevazione": "19/07/2022 10:30:35"}], "3": [{"Gestore": "2 G PETROLI S.R.L. SEMPLIFICATA", "Bandiera": "Pompe Bianche", "Tipo impianto": "Altro", "Indirizzo": "VIA G.B. CASCIELLO SNC 84018", "Nome impianto": "Eurogas", "Comune": "SCAFATI", "idImpianto": 46282, "points": [{"type": "Feature", "properties": {}, "geometry": {"type": "Point", "coordinates": [14.519029453570738, 40.76145869786863]}}], "price": 0.765, "ultima_rilevazione": "16/07/2022 16:27:31"}, {"Gestore": "POMPEANGAS - S.A.S. DI ALLEGRO CATELLO & C.", "Bandiera": "Pompe Bianche", "Tipo impianto": "Altro", "Indirizzo": "VIA SALICE 157 84012", "Nome impianto": "BREAK ZONE  - POMPEANGAS", "Comune": "ANGRI", "idImpianto": 16158, "points": [{"type": "Feature", "properties": {}, "geometry": {"type": "Point", "coordinates": [14.56152766942978, 40.74097687632511]}}], "price": 0.82, "ultima_rilevazione": "18/07/2022 08:18:16"}, {"Gestore": "LE SPOSE DI BIANCA DI ANNARUMMA BIANCA", "Bandiera": "Pompe Bianche", "Tipo impianto": "Altro", "Indirizzo": "VIA ORTALONGA 87 84018", "Nome impianto": "ANNARUMMA BIANCA", "Comune": "SCAFATI", "idImpianto": 34239, "points": [{"type": "Feature", "properties": {}, "geometry": {"type": "Point", "coordinates": [14.549692429938432, 40.762234569257394]}}], "price": 0.775, "ultima_rilevazione": "18/07/2022 14:55:21"}], "5": [{"Gestore": "FEDERICO GIOVANNI", "Bandiera": "Energas", "Tipo impianto": "Altro", "Indirizzo": "VIA SETTETERMINI 14/18 80041", "Nome impianto": "Energas", "Comune": "BOSCOREALE", "idImpianto": 42635, "points": [{"type": "Feature", "properties": {}, "geometry": {"type": "Point", "coordinates": [14.471814588993766, 40.75835307443105]}}], "price": 0.829, "ultima_rilevazione": "14/07/2022 17:48:08"}, {"Gestore": "DELTA PETROLI S.R.L.", "Bandiera": "Api-Ip", "Tipo impianto": "Altro", "Indirizzo": "Via Tre Ponti snc 80045", "Nome impianto": "Delta Petroli S.r.l. (Pompei)", "Comune": "POMPEI", "idImpianto": 32071, "points": [{"type": "Feature", "properties": {}, "geometry": {"type": "Point", "coordinates": [14.506644308567047, 40.76120620819259]}}], "price": 0.765, "ultima_rilevazione": "16/07/2022 10:04:22"}, {"Gestore": "MULTICARBURANTE DI MARESCA ANNA & C. S.N.C.", "Bandiera": "Agip Eni", "Tipo impianto": "Altro", "Indirizzo": "Via Taurano 128 84016", "Nome impianto": "Multicarburante di Maresca Anna & C. s.n.c.", "Comune": "PAGANI", "idImpianto": 5643, "points": [{"type": "Feature", "properties": {}, "geometry": {"type": "Point", "coordinates": [14.592188000679016, 40.75515215542613]}}], "price": 0.779, "ultima_rilevazione": "18/07/2022 16:58:15"}, {"Gestore": "LAPPON GAS S.R.L.", "Bandiera": "Pompe Bianche", "Tipo impianto": "Altro", "Indirizzo": " VALICO DI CHIUNZI SNC 84010", "Nome impianto": "LapponGas ", "Comune": "TRAMONTI", "idImpianto": 33791, "points": [{"type": "Feature", "properties": {}, "geometry": {"type": "Point", "coordinates": [14.620947200198884, 40.7178867496863]}}], "price": 0.819, "ultima_rilevazione": "20/07/2022 09:00:11"}, {"Gestore": "MERIDIONAL G.P.L. - S.R.L.", "Bandiera": "Pompe Bianche", "Tipo impianto": "Altro", "Indirizzo": "VIA SPINELLI 22 80045", "Nome impianto": "Meridional Gpl srl", "Comune": "POMPEI", "idImpianto": 9615, "points": [{"type": "Feature", "properties": {}, "geometry": {"type": "Point", "coordinates": [14.504981338977814, 40.76913387129056]}}], "price": 0.765, "ultima_rilevazione": "20/07/2022 14:55:27"}, {"Gestore": "ORGANIZZAZIONE SERVIZI AUTO - O.S.A. - S.P.A.", "Bandiera": "Esso", "Tipo impianto": "Altro", "Indirizzo": "VIA PASSANTI 267 84018", "Nome impianto": "ESSO SCAFATI", "Comune": "SCAFATI", "idImpianto": 50249, "points": [{"type": "Feature", "properties": {}, "geometry": {"type": "Point", "coordinates": [14.517707887191804, 40.76596745019975]}}], "price": 0.765, "ultima_rilevazione": "20/07/2022 16:10:12"}, {"Gestore": "PEGASO CARBURANTI S.R.L.", "Bandiera": "Pompe Bianche", "Tipo impianto": "Altro", "Indirizzo": "Via Alfonso Annunziata SNC 84018", "Nome impianto": "Pegaso Carburanti", "Comune": "SCAFATI", "idImpianto": 22998, "points": [{"type": "Feature", "properties": {}, "geometry": {"type": "Point", "coordinates": [14.544185959663425, 40.7726643749555]}}], "price": 0.765, "ultima_rilevazione": "20/07/2022 22:17:18"}, {"Gestore": "PEGASO CARBURANTI S.R.L.", "Bandiera": "Pompe Bianche", "Tipo impianto": "Altro", "Indirizzo": "Via Taurano 123 84016", "Nome impianto": "Pegaso Carburanti Pagani", "Comune": "PAGANI", "idImpianto": 50920, "points": [{"type": "Feature", "properties": {}, "geometry": {"type": "Point", "coordinates": [14.598368931985153, 40.75241567036497]}}], "price": 0.769, "ultima_rilevazione": "20/07/2022 22:17:54"}]}, "Gasolio": {"1": [{"Gestore": "PADOVANO LUIGI", "Bandiera": "Esso", "Tipo impianto": "Altro", "Indirizzo": "VIA DEI GOTI 87 84012", "Nome impianto": "PADOVANO LUIGI", "Comune": "ANGRI", "idImpianto": 45211, "points": [{"type": "Feature", "properties": {}, "geometry": {"type": "Point", "coordinates": [14.569725000123, 40.734039000123]}}], "price": 1.959, "ultima_rilevazione": "14/07/2022 11:16:11"}, {"Gestore": "SANTA MARIA CARBURANTI S.R.L.", "Bandiera": "Pompe Bianche", "Tipo impianto": "Altro", "Indirizzo": "VIA CARRARA SNC 80050", "Nome impianto": "SANTA MARIA CARBURANTI SRL", "Comune": "SANTA MARIA LA CARITA'", "idImpianto": 47407, "points": [{"type": "Feature", "properties": {}, "geometry": {"type": "Point", "coordinates": [14.510791003704073, 40.73084384549661]}}], "price": 1.959, "ultima_rilevazione": "16/07/2022 07:36:46"}, {"Gestore": "SUMMA OIL SRL", "Bandiera": "Tamoil", "Tipo impianto": "Altro", "Indirizzo": "Via Provinciale Santa Maria la Carit\u00e0 snc 80057", "Nome impianto": "Summa Oil srl", "Comune": "SANT'ANTONIO ABATE", "idImpianto": 39043, "points": [{"type": "Feature", "properties": {}, "geometry": {"type": "Point", "coordinates": [14.532002583146095, 40.72025066060659]}}], "price": 1.875, "ultima_rilevazione": "16/07/2022 11:43:39"}, {"Gestore": "SERVIZI & GESTIONI ITALIA srl", "Bandiera": "Q8", "Tipo impianto": "Altro", "Indirizzo": "LOC.MADONNA DELLE GRAZIE 143 80054", "Nome impianto": "GRAGNANO LOC.MADONNA DELLE GRAZIE 143", "Comune": "GRAGNANO", "idImpianto": 6703, "points": [{"type": "Feature", "properties": {}, "geometry": {"type": "Point", "coordinates": [14.50821713313519, 40.70968946774899]}}], "price": 1.939, "ultima_rilevazione": "18/07/2022 00:37:41"}, {"Gestore": "SERVIZI & GESTIONI ITALIA S.R.L.", "Bandiera": "Q8", "Tipo impianto": "Altro", "Indirizzo": "VIA DEI PASTAI  ", "Nome impianto": "GRAGNANO VIA DEI PASTAI", "Comune": "GRAGNANO", "idImpianto": 20818, "points": [{"type": "Feature", "properties": {}, "geometry": {"type": "Point", "coordinates": [14.514175396329849, 40.70174512517942]}}], "price": 1.939, "ultima_rilevazione": "18/07/2022 00:38:08"}, {"Gestore": "PETROLCHIMICA SUD - S.R.L.", "Bandiera": "Pompe Bianche", "Tipo impianto": "Altro", "Indirizzo": "VIA CAMPIA SNC 84013", "Nome impianto": "ANGRI", "Comune": "ANGRI", "idImpianto": 35638, "points": [{"type": "Feature", "properties": {}, "geometry": {"type": "Point", "coordinates": [14.561990350484848, 40.73931612267616]}}], "price": 1.869, "ultima_rilevazione": "18/07/2022 14:15:55"}, {"Gestore": "LE SPOSE DI BIANCA DI ANNARUMMA BIANCA", "Bandiera": "Pompe Bianche", "Tipo impianto": "Altro", "Indirizzo": "VIA PALUDICELLA 30A 84012", "Nome impianto": "VISCARDI CARBURANTI METANO GPL", "Comune": "ANGRI", "idImpianto": 42811, "points": [{"type": "Feature", "properties": {}, "geometry": {"type": "Point", "coordinates": [14.548700884665209, 40.72987052231823]}}], "price": 2.12, "ultima_rilevazione": "18/07/2022 17:57:06"}, {"Gestore": "VINCENZO CASCONE S.R.L.", "Bandiera": "Pompe Bianche", "Tipo impianto": "Altro", "Indirizzo": "VIA SCAFATI 223 80050", "Nome impianto": "STAZIONE DI SERVIZIO CASCONE", "Comune": "SANTA MARIA LA CARITA'", "idImpianto": 40789, "points": [{"type": "Feature", "properties": {}, "geometry": {"type": "Point", "coordinates": [14.513311487102555, 40.72861658682665]}}], "price": 1.969, "ultima_rilevazione": "19/07/2022 06:29:42"}, {"Gestore": "CAVALLARO S.N.C. DI CAVALLARO FRANCESCO E CAVALLARO MASSIMO", "Bandiera": "Pompe Bianche", "Tipo impianto": "Altro", "Indirizzo": "via sant'antonio abate 86 84018", "Nome impianto": "distributore cavallaro", "Comune": "SCAFATI", "idImpianto": 42182, "points": [{"type": "Feature", "properties": {}, "geometry": {"type": "Point", "coordinates": [14.530619451555252, 40.74301494983108]}}], "price": 1.949, "ultima_rilevazione": "19/07/2022 06:58:17"}, {"Gestore": "VIN.G S.A.S. DI VICIDOMINI LUCIA", "Bandiera": "Total Erg", "Tipo impianto": "Altro", "Indirizzo": "VIA STABIA SNC, 80057", "Nome impianto": "TOTAL ERG", "Comune": "SANT'ANTONIO ABATE", "idImpianto": 16934, "points": [{"type": "Feature", "properties": {}, "geometry": {"type": "Point", "coordinates": [14.531820682850594, 40.71421398059992]}}], "price": 1.909, "ultima_rilevazione": "19/07/2022 10:30:35"}, {"Gestore": "LA MURA GROUP S.R.L.", "Bandiera": "Total Erg", "Tipo impianto": "Altro", "Indirizzo": "VIA SCAFATI 283 80050", "Nome impianto": "La Mura Group", "Comune": "SANTA MARIA LA CARITA'", "idImpianto": 27269, "points": [{"type": "Feature", "properties": {}, "geometry": {"type": "Point", "coordinates": [14.514097782208978, 40.73094364975582]}}], "price": 1.919, "ultima_rilevazione": "20/07/2022 08:25:38"}, {"Gestore": "MASCOLO FRANCESCO", "Bandiera": "Agip Eni", "Tipo impianto": "Altro", "Indirizzo": "via scafati  80057", "Nome impianto": "Francesco Mascolo", "Comune": "SANT'ANTONIO ABATE", "idImpianto": 7854, "points": [{"type": "Feature", "properties": {}, "geometry": {"type": "Point", "coordinates": [14.539611649212702, 40.72706461128277]}}], "price": 1.904, "ultima_rilevazione": "20/07/2022 09:41:23"}, {"Gestore": "F.A.S. PETROLI S.A.S. DI SALVATORE FRANCO", "Bandiera": "Tamoil", "Tipo impianto": "Altro", "Indirizzo": "Via papa giovanni23 18 84012", "Nome impianto": "Distributore tamoil", "Comune": "ANGRI", "idImpianto": 42932, "points": [{"type": "Feature", "properties": {}, "geometry": {"type": "Point", "coordinates": [14.566300069940551, 40.73623133987071]}}], "price": 1.909, "ultima_rilevazione": "21/07/2022 06:16:05"}, {"Gestore": "LA SUPREMA  - S.R.L.", "Bandiera": "Pompe Bianche", "Tipo impianto": "Altro", "Indirizzo": "VIA DEI GOTI 298 84012", "Nome impianto": "la suprema srl", "Comune": "ANGRI", "idImpianto": 42745, "points": [{"type": "Feature", "properties": {}, "geometry": {"type": "Point", "coordinates": [14.55362076686481, 40.72930309774013]}}], "price": 1.87, "ultima_rilevazione": "21/07/2022 07:01:59"}], "3": [{"Gestore": "EUROPA SERVICE SOCIETA' A RESPONSABILITA' LIMITATA", "Bandiera": "Q8", "Tipo impianto": "Altro", "Indirizzo": "viale europa 154 80053", "Nome impianto": "Q8 Europa Service", "Comune": "CASTELLAMMARE DI STABIA", "idImpianto": 43882, "points": [{"type": "Feature", "properties": {}, "geometry": {"type": "Point", "coordinates": [14.489071915344198, 40.70126796656399]}}], "price": 1.689, "ultima_rilevazione": "21/01/2022 08:22:32"}, {"Gestore": "CASCONE CARBURANTI DI CINZIA SPINELLI S.A.S.", "Bandiera": "Q8", "Tipo impianto": "Altro", "Indirizzo": "STRADA PONTE DELLA PERSICA 100 80053", "Nome impianto": "Q8", "Comune": "CASTELLAMMARE DI STABIA", "idImpianto": 9595, "points": [{"type": "Feature", "properties": {}, "geometry": {"type": "Point", "coordinates": [14.485897421836851, 40.73187189266499]}}], "price": 1.999, "ultima_rilevazione": "21/06/2022 07:38:53"}, {"Gestore": "SA.MO. PETROLI DI SALVATORE MOSCA", "Bandiera": "Pompe Bianche", "Tipo impianto": "Altro", "Indirizzo": "via ripuaria 75 80045", "Nome impianto": "m petroli", "Comune": "POMPEI", "idImpianto": 33087, "points": [{"type": "Feature", "properties": {}, "geometry": {"type": "Point", "coordinates": [14.499395071094568, 40.73940683796222]}}], "price": 2.045, "ultima_rilevazione": "11/07/2022 16:41:31"}, {"Gestore": "CARBURANTE DI CASCONE NICOLA", "Bandiera": "Esso", "Tipo impianto": "Altro", "Indirizzo": "VIA DANTE ALIGHIERI 27 84018", "Nome impianto": "CARBURANTE DI CASCONE NICOLA", "Comune": "SCAFATI", "idImpianto": 45066, "points": [{"type": "Feature", "properties": {}, "geometry": {"type": "Point", "coordinates": [14.534445000123, 40.749389000123]}}], "price": 1.959, "ultima_rilevazione": "13/07/2022 17:39:54"}, {"Gestore": "COCCURULLO COSIMO", "Bandiera": "Pompe Bianche", "Tipo impianto": "Altro", "Indirizzo": "VIA E.CHIUNZI 2 84010", "Nome impianto": "Coccurullo Cosimo", "Comune": "CORBARA", "idImpianto": 50799, "points": [{"type": "Feature", "properties": {}, "geometry": {"type": "Point", "coordinates": [14.597206204893496, 40.72227233103176]}}], "price": 1.949, "ultima_rilevazione": "15/07/2022 08:13:48"}, {"Gestore": "MANNA DI MASCOLO LUIGI E ANNARUMMA ALESSANDRO & C. S.N.C.", "Bandiera": "Agip Eni", "Tipo impianto": "Altro", "Indirizzo": "VIA ADRIANA 7 84012", "Nome impianto": "MANNA PETROLI", "Comune": "ANGRI", "idImpianto": 47739, "points": [{"type": "Feature", "properties": {}, "geometry": {"type": "Point", "coordinates": [14.577712763537724, 40.736205840818]}}], "price": 1.869, "ultima_rilevazione": "15/07/2022 12:28:28"}, {"Gestore": "FRATELLI LONGOBARDI DI DEL GAUDIO NUNZIA & C. S.N.C.", "Bandiera": "Pompe Bianche", "Tipo impianto": "Altro", "Indirizzo": "VIA FONTANELLE 249 80045", "Nome impianto": "FRATELLI LONGOBARDI", "Comune": "POMPEI", "idImpianto": 33882, "points": [{"type": "Feature", "properties": {}, "geometry": {"type": "Point", "coordinates": [14.497255235910416, 40.723622169200425]}}], "price": 1.949, "ultima_rilevazione": "15/07/2022 17:12:34"}, {"Gestore": "2 G PETROLI S.R.L. SEMPLIFICATA", "Bandiera": "Pompe Bianche", "Tipo impianto": "Altro", "Indirizzo": "VIA G.B. CASCIELLO SNC 84018", "Nome impianto": "Eurogas", "Comune": "SCAFATI", "idImpianto": 46282, "points": [{"type": "Feature", "properties": {}, "geometry": {"type": "Point", "coordinates": [14.519029453570738, 40.76145869786863]}}], "price": 1.949, "ultima_rilevazione": "16/07/2022 16:27:31"}, {"Gestore": "CA.VER. S.N.C. DI CACCIOPPOLI MAURIZIO E GIANLUCA", "Bandiera": "Agip Eni", "Tipo impianto": "Altro", "Indirizzo": "VIALE EUROPA 87 80053", "Nome impianto": "ENI", "Comune": "CASTELLAMMARE DI STABIA", "idImpianto": 32472, "points": [{"type": "Feature", "properties": {}, "geometry": {"type": "Point", "coordinates": [14.489392057717168, 40.70175169323834]}}], "price": 1.904, "ultima_rilevazione": "17/07/2022 23:24:02"}, {"Gestore": "SERVIZI & GESTIONI ITALIA S.R.L.", "Bandiera": "Q8", "Tipo impianto": "Altro", "Indirizzo": "VIA MADONNA DELLE GRAZIE 238 80050", "Nome impianto": "SANTA MARIA LA CARITA'-VIA MADONNA DELLE GRAZIE 238", "Comune": "SANTA MARIA LA CARITA'", "idImpianto": 11728, "points": [{"type": "Feature", "properties": {}, "geometry": {"type": "Point", "coordinates": [14.50580728836053, 40.70934676337253]}}], "price": 1.969, "ultima_rilevazione": "18/07/2022 00:37:46"}, {"Gestore": "SERVIZI & GESTIONI ITALIA srl", "Bandiera": "Q8", "Tipo impianto": "Altro", "Indirizzo": "VIA S.P.UNGARO SNC 84018", "Nome impianto": "SCAFATI VIA S.P.UNGARO", "Comune": "SCAFATI", "idImpianto": 6738, "points": [{"type": "Feature", "properties": {}, "geometry": {"type": "Point", "coordinates": [14.522836018420094, 40.7591448349824]}}], "price": 1.929, "ultima_rilevazione": "18/07/2022 00:37:54"}, {"Gestore": "MI.SA. CARBURANTI S.R.L.", "Bandiera": "Agip Eni", "Tipo impianto": "Altro", "Indirizzo": "VIA DE GASPERI 47 84018", "Nome impianto": "MISA CARBURANTI SRL", "Comune": "SCAFATI", "idImpianto": 43176, "points": [{"type": "Feature", "properties": {}, "geometry": {"type": "Point", "coordinates": [14.52959227423969, 40.75511612456466]}}], "price": 1.899, "ultima_rilevazione": "18/07/2022 07:32:37"}, {"Gestore": "POMPEANGAS - S.A.S. DI ALLEGRO CATELLO & C.", "Bandiera": "Pompe Bianche", "Tipo impianto": "Altro", "Indirizzo": "VIA SALICE 157 84012", "Nome impianto": "BREAK ZONE  - POMPEANGAS", "Comune": "ANGRI", "idImpianto": 16158, "points": [{"type": "Feature", "properties": {}, "geometry": {"type": "Point", "coordinates": [14.56152766942978, 40.74097687632511]}}], "price": 1.95, "ultima_rilevazione": "18/07/2022 08:18:16"}, {"Gestore": "ROCAL S.R.L.", "Bandiera": "Pompe Bianche", "Tipo impianto": "Altro", "Indirizzo": "VIA SALICE 30 84012", "Nome impianto": "FERRI FUEL", "Comune": "ANGRI", "idImpianto": 45470, "points": [{"type": "Feature", "properties": {}, "geometry": {"type": "Point", "coordinates": [14.555597621551556, 40.74340303566079]}}], "price": 1.899, "ultima_rilevazione": "18/07/2022 11:15:50"}, {"Gestore": "TORTORA FILIPPO", "Bandiera": "Pompe Bianche", "Tipo impianto": "Altro", "Indirizzo": "VIALE PAPA GIOVANNI XXIII 145 84012", "Nome impianto": "ANGELINA PETROLI", "Comune": "ANGRI", "idImpianto": 32242, "points": [{"type": "Feature", "properties": {}, "geometry": {"type": "Point", "coordinates": [14.56538276580227, 40.74103632577491]}}], "price": 1.909, "ultima_rilevazione": "18/07/2022 11:22:54"}, {"Gestore": "SERVIZI & GESTIONI ITALIA S.R.L.", "Bandiera": "Q8", "Tipo impianto": "Altro", "Indirizzo": "S.S. 18 KM 24+623  80045", "Nome impianto": "POMPEI S.S. 18 KM 24+623", "Comune": "POMPEI", "idImpianto": 23138, "points": [{"type": "Feature", "properties": {}, "geometry": {"type": "Point", "coordinates": [14.49668714313043, 40.74617638697647]}}], "price": 1.899, "ultima_rilevazione": "19/07/2022 01:38:37"}, {"Gestore": "SERVIZI & GESTIONI ITALIA srl", "Bandiera": "Q8", "Tipo impianto": "Altro", "Indirizzo": "SS 18 LC BAGNI SNC 84018", "Nome impianto": "SCAFATI SS 18 LC BAGNI", "Comune": "SCAFATI", "idImpianto": 6735, "points": [{"type": "Feature", "properties": {}, "geometry": {"type": "Point", "coordinates": [14.547430870534868, 40.7488283369454]}}], "price": 1.919, "ultima_rilevazione": "19/07/2022 01:38:40"}, {"Gestore": "G. V. CARBURANTI S.A.S. DI CIARAVOLO MARIAROSARIA & C.", "Bandiera": "Esso", "Tipo impianto": "Altro", "Indirizzo": "Via Castellammare 120 80054", "Nome impianto": "Stazione Esso Gragnano", "Comune": "GRAGNANO", "idImpianto": 43246, "points": [{"type": "Feature", "properties": {}, "geometry": {"type": "Point", "coordinates": [14.505942105522536, 40.69418763269579]}}], "price": 1.939, "ultima_rilevazione": "19/07/2022 06:37:47"}, {"Gestore": "AFIERO MICHELE", "Bandiera": "Loro", "Tipo impianto": "Altro", "Indirizzo": "VIA MARTIRI D'UNGHERIA 101 84018", "Nome impianto": "AFIERO MICHELE", "Comune": "SCAFATI", "idImpianto": 40883, "points": [{"type": "Feature", "properties": {}, "geometry": {"type": "Point", "coordinates": [14.52107514283989, 40.75196803180263]}}], "price": 1.982, "ultima_rilevazione": "19/07/2022 06:49:20"}, {"Gestore": "COTICELLI SEBASTIANO", "Bandiera": "Tamoil", "Tipo impianto": "Strada Statale", "Indirizzo": "Statale 366 di Agerola, Km. 27.915, dir. amalfi 80054", "Nome impianto": "TAMOIL", "Comune": "GRAGNANO", "idImpianto": 17861, "points": [{"type": "Feature", "properties": {}, "geometry": {"type": "Point", "coordinates": [14.513602491882466, 40.68983172473408]}}], "price": 1.873, "ultima_rilevazione": "19/07/2022 17:35:15"}, {"Gestore": "GRIMALDI S.R.L.", "Bandiera": "Esso", "Tipo impianto": "Altro", "Indirizzo": "Via Nazionale 398 84012", "Nome impianto": "PIC ANGRI", "Comune": "ANGRI", "idImpianto": 43551, "points": [{"type": "Feature", "properties": {}, "geometry": {"type": "Point", "coordinates": [14.581970125436785, 40.7481375560265]}}], "price": 1.899, "ultima_rilevazione": "20/07/2022 16:13:03"}, {"Gestore": "ALIBERTI VITTORIO", "Bandiera": "Tamoil", "Tipo impianto": "Altro", "Indirizzo": "VIA LEPANTO 287 80045", "Nome impianto": "TAMOIL DI ALIBERTI VITTORIO", "Comune": "POMPEI", "idImpianto": 29276, "points": [{"type": "Feature", "properties": {}, "geometry": {"type": "Point", "coordinates": [14.511073976755142, 40.74999486560387]}}], "price": 1.898, "ultima_rilevazione": "21/07/2022 07:56:07"}, {"Gestore": "TOP GOMME DI ALFANO FRANCESCO", "Bandiera": "Pompe Bianche", "Tipo impianto": "Altro", "Indirizzo": "via murelle 57 84012", "Nome impianto": "staroil", "Comune": "ANGRI", "idImpianto": 32268, "points": [{"type": "Feature", "properties": {}, "geometry": {"type": "Point", "coordinates": [14.572852095530491, 40.736616335057086]}}], "price": 1.899, "ultima_rilevazione": "20/07/2022 17:37:54"}, {"Gestore": "GRIMALDI GERARDO", "Bandiera": "Api-Ip", "Tipo impianto": "Altro", "Indirizzo": "VIALE DEGLI ARANCI 50 84010", "Nome impianto": "TOTALERG", "Comune": "SANT'EGIDIO DEL MONTE ALBINO", "idImpianto": 43142, "points": [{"type": "Feature", "properties": {}, "geometry": {"type": "Point", "coordinates": [14.586150813491829, 40.73649125888497]}}], "price": 1.899, "ultima_rilevazione": "21/07/2022 06:55:30"}], "5": [{"Gestore": "CHIACCHIERA FRANCESCO", "Bandiera": "Agip Eni", "Tipo impianto": "Altro", "Indirizzo": "VIA VITTORIO VENETO 2 80058", "Nome impianto": "ENI spa", "Comune": "TORRE ANNUNZIATA", "idImpianto": 46634, "points": [{"type": "Feature", "properties": {}, "geometry": {"type": "Point", "coordinates": [14.465613216161728, 40.75009524376741]}}], "price": 2.184, "ultima_rilevazione": "21/07/2022 06:56:37"}, {"Gestore": "MILANO TERESA", "Bandiera": "Agip Eni", "Tipo impianto": "Altro", "Indirizzo": "VIA CARLO TRAMONTANO 35 84016", "Nome impianto": "ENI", "Comune": "PAGANI", "idImpianto": 47290, "points": [{"type": "Feature", "properties": {}, "geometry": {"type": "Point", "coordinates": [14.617230790921209, 40.73821965415488]}}], "price": 1.949, "ultima_rilevazione": "11/06/2022 08:19:31"}, {"Gestore": "AMORE S.A.S. DI AMORE ROSA E C.", "Bandiera": "Api-Ip", "Tipo impianto": "Altro", "Indirizzo": "VIA MADONNINA S.N.C. SNC 80050", "Nome impianto": "IP PIMONTE", "Comune": "PIMONTE", "idImpianto": 38843, "points": [{"type": "Feature", "properties": {}, "geometry": {"type": "Point", "coordinates": [14.514060616493223, 40.6733107144828]}}], "price": 2.179, "ultima_rilevazione": "13/07/2022 09:26:18"}, {"Gestore": "FEDERICO GIOVANNI", "Bandiera": "Energas", "Tipo impianto": "Altro", "Indirizzo": "VIA SETTETERMINI 14/18 80041", "Nome impianto": "Energas", "Comune": "BOSCOREALE", "idImpianto": 42635, "points": [{"type": "Feature", "properties": {}, "geometry": {"type": "Point", "coordinates": [14.471814588993766, 40.75835307443105]}}], "price": 1.939, "ultima_rilevazione": "14/07/2022 17:48:08"}, {"Gestore": "VELAR S.R.L.", "Bandiera": "Oceania", "Tipo impianto": "Altro", "Indirizzo": "VIA BOTTARO SNC 80058", "Nome impianto": "OCEANIA (TORRE)", "Comune": "TORRE ANNUNZIATA", "idImpianto": 46731, "points": [{"type": "Feature", "properties": {}, "geometry": {"type": "Point", "coordinates": [14.473502292261742, 40.7453950371418]}}], "price": 1.899, "ultima_rilevazione": "15/07/2022 08:18:21"}, {"Gestore": "MANNA DI MASCOLO LUIGI E ANNARUMMA ALESSANDRO & C. S.N.C.", "Bandiera": "Q8", "Tipo impianto": "Altro", "Indirizzo": "via san domenico 98 84016", "Nome impianto": "ALGISA PETROLI ", "Comune": "PAGANI", "idImpianto": 43054, "points": [{"type": "Feature", "properties": {}, "geometry": {"type": "Point", "coordinates": [14.60260385959782, 40.74152181786024]}}], "price": 1.929, "ultima_rilevazione": "15/07/2022 12:29:00"}, {"Gestore": "ANSOR DI CARMELA CELOTTO & C. S.N.C.", "Bandiera": "Pompe Bianche", "Tipo impianto": "Altro", "Indirizzo": "Via Vigna Sant'Antonio 18 80058", "Nome impianto": "Ansor snc ", "Comune": "TORRE ANNUNZIATA", "idImpianto": 23362, "points": [{"type": "Feature", "properties": {}, "geometry": {"type": "Point", "coordinates": [14.476697444915771, 40.7473041058179]}}], "price": 1.897, "ultima_rilevazione": "15/07/2022 16:12:08"}, {"Gestore": "DELTA PETROLI S.R.L.", "Bandiera": "Api-Ip", "Tipo impianto": "Altro", "Indirizzo": "Via Tre Ponti snc 80045", "Nome impianto": "Delta Petroli S.r.l. (Pompei)", "Comune": "POMPEI", "idImpianto": 32071, "points": [{"type": "Feature", "properties": {}, "geometry": {"type": "Point", "coordinates": [14.506644308567047, 40.76120620819259]}}], "price": 1.894, "ultima_rilevazione": "16/07/2022 10:04:22"}, {"Gestore": "PAKO CARBURANTI S.R.L.", "Bandiera": "Pompe Bianche", "Tipo impianto": "Altro", "Indirizzo": "VIA MARRA 175 80041", "Nome impianto": "PAKO CARBURANTI", "Comune": "BOSCOREALE", "idImpianto": 47980, "points": [{"type": "Feature", "properties": {}, "geometry": {"type": "Point", "coordinates": [14.546382294477445, 40.78290918565107]}}], "price": 1.899, "ultima_rilevazione": "17/07/2022 11:19:47"}, {"Gestore": "SERVIZI & GESTIONI ITALIA srl", "Bandiera": "Q8", "Tipo impianto": "Altro", "Indirizzo": "VIA S.P.21 KM 2 SNC 84018", "Nome impianto": "SCAFATI VIA S.P.21 KM 2", "Comune": "SCAFATI", "idImpianto": 6739, "points": [{"type": "Feature", "properties": {}, "geometry": {"type": "Point", "coordinates": [14.54173958283809, 40.77428223475604]}}], "price": 1.929, "ultima_rilevazione": "18/07/2022 00:37:54"}, {"Gestore": "SAVINO ROSALIA & C. - SOCIETA' IN ACCOMANDITA SEMPLICE", "Bandiera": "Pompe Bianche", "Tipo impianto": "Altro", "Indirizzo": "VIA VALICO DI CHIUNZI  84010", "Nome impianto": "SAVINO ROSALIA  & C. S.A.S.", "Comune": "TRAMONTI", "idImpianto": 26791, "points": [{"type": "Feature", "properties": {}, "geometry": {"type": "Point", "coordinates": [14.6188, 40.718736]}}], "price": 1.98, "ultima_rilevazione": "18/07/2022 08:37:40"}, {"Gestore": "F.S. PETROLI S.R.L. A CAPITALE RIDOTTO", "Bandiera": "Agip Eni", "Tipo impianto": "Altro", "Indirizzo": "VIA PADRE VINCENZO SORRENTINO SNC 84016", "Nome impianto": "F.S. PETROLI S.R.L.", "Comune": "PAGANI", "idImpianto": 20971, "points": [{"type": "Feature", "properties": {}, "geometry": {"type": "Point", "coordinates": [14.61111232638359, 40.7535128869219]}}], "price": 1.919, "ultima_rilevazione": "18/07/2022 09:25:59"}, {"Gestore": "G.P. CARBURANTI S.R.L.", "Bandiera": "Pompe Bianche", "Tipo impianto": "Altro", "Indirizzo": "Via A. De Gasperi 55 80053", "Nome impianto": "Atala Oil", "Comune": "CASTELLAMMARE DI STABIA", "idImpianto": 45205, "points": [{"type": "Feature", "properties": {}, "geometry": {"type": "Point", "coordinates": [14.483062982447109, 40.70279398192256]}}], "price": 1.999, "ultima_rilevazione": "18/07/2022 12:53:08"}, {"Gestore": "SAVINELLI CARBURANTI S.A.S. DI MARCO SAVINELLI & C.", "Bandiera": "Esso", "Tipo impianto": "Autostradale", "Indirizzo": "A3 NAPOLI-SALERNO, Km. 20, sud 80058", "Nome impianto": "TORRE ANNUNZIATA OVEST", "Comune": "TORRE ANNUNZIATA", "idImpianto": 41777, "points": [{"type": "Feature", "properties": {}, "geometry": {"type": "Point", "coordinates": [14.472215473651886, 40.75156676184485]}}], "price": 1.999, "ultima_rilevazione": "18/07/2022 13:51:46"}, {"Gestore": "AREA FELIX S.A.S. DI AMITRANO POLISTO", "Bandiera": "Api-Ip", "Tipo impianto": "Altro", "Indirizzo": "VIA PLINIO 101 80045", "Nome impianto": "IP Area Felix", "Comune": "POMPEI", "idImpianto": 42083, "points": [{"type": "Feature", "properties": {}, "geometry": {"type": "Point", "coordinates": [14.486825459215993, 40.74677174655304]}}], "price": 1.879, "ultima_rilevazione": "18/07/2022 16:12:50"}, {"Gestore": "MULTICARBURANTE DI MARESCA ANNA & C. S.N.C.", "Bandiera": "Agip Eni", "Tipo impianto": "Altro", "Indirizzo": "Via Taurano 128 84016", "Nome impianto": "Multicarburante di Maresca Anna & C. s.n.c.", "Comune": "PAGANI", "idImpianto": 5643, "points": [{"type": "Feature", "properties": {}, "geometry": {"type": "Point", "coordinates": [14.592188000679016, 40.75515215542613]}}], "price": 1.939, "ultima_rilevazione": "18/07/2022 16:58:15"}, {"Gestore": "SERVIZI & GESTIONI ITALIA S.R.L.", "Bandiera": "Q8", "Tipo impianto": "Altro", "Indirizzo": "VIA NAPOLI 298 80053", "Nome impianto": "CASTELLAMMARE DI STABIA-VIA NAPOLI 298", "Comune": "CASTELLAMMARE DI STABIA", "idImpianto": 11740, "points": [{"type": "Feature", "properties": {}, "geometry": {"type": "Point", "coordinates": [14.479706705522515, 40.720025410796254]}}], "price": 1.899, "ultima_rilevazione": "19/07/2022 07:07:16"}, {"Gestore": "LANGELLA CARBURANTI DI LANGELLA DAVIDE", "Bandiera": "Pompe Bianche", "Tipo impianto": "Altro", "Indirizzo": "VIA FILETTINE 118 84016", "Nome impianto": "LANGELLA CARBURANTI", "Comune": "PAGANI", "idImpianto": 49857, "points": [{"type": "Feature", "properties": {}, "geometry": {"type": "Point", "coordinates": [14.608788183872583, 40.755019758641126]}}], "price": 1.889, "ultima_rilevazione": "19/07/2022 08:36:39"}, {"Gestore": "LAPPON GAS S.R.L.", "Bandiera": "Pompe Bianche", "Tipo impianto": "Altro", "Indirizzo": " VALICO DI CHIUNZI SNC 84010", "Nome impianto": "LapponGas ", "Comune": "TRAMONTI", "idImpianto": 33791, "points": [{"type": "Feature", "properties": {}, "geometry": {"type": "Point", "coordinates": [14.620947200198884, 40.7178867496863]}}], "price": 1.909, "ultima_rilevazione": "20/07/2022 09:00:11"}, {"Gestore": "IP SERVICES S.R.L.", "Bandiera": "Api-Ip", "Tipo impianto": "Altro", "Indirizzo": "Viale Kennedy 23 84010", "Nome impianto": "S.EGIDIO MONTE ALBINO", "Comune": "SANT'EGIDIO DEL MONTE ALBINO", "idImpianto": 34896, "points": [{"type": "Feature", "properties": {}, "geometry": {"type": "Point", "coordinates": [14.597060343586008, 40.738189638920026]}}], "price": 1.909, "ultima_rilevazione": "20/07/2022 09:02:55"}, {"Gestore": "MERIDIONAL G.P.L. - S.R.L.", "Bandiera": "Pompe Bianche", "Tipo impianto": "Altro", "Indirizzo": "VIA SPINELLI 22 80045", "Nome impianto": "Meridional Gpl srl", "Comune": "POMPEI", "idImpianto": 9615, "points": [{"type": "Feature", "properties": {}, "geometry": {"type": "Point", "coordinates": [14.504981338977814, 40.76913387129056]}}], "price": 1.939, "ultima_rilevazione": "20/07/2022 14:55:27"}, {"Gestore": "ORGANIZZAZIONE SERVIZI AUTO - O.S.A. - S.P.A.", "Bandiera": "Esso", "Tipo impianto": "Altro", "Indirizzo": "VIA PASSANTI 267 84018", "Nome impianto": "ESSO SCAFATI", "Comune": "SCAFATI", "idImpianto": 50249, "points": [{"type": "Feature", "properties": {}, "geometry": {"type": "Point", "coordinates": [14.517707887191804, 40.76596745019975]}}], "price": 1.929, "ultima_rilevazione": "20/07/2022 16:10:12"}, {"Gestore": "PEGASO CARBURANTI S.R.L.", "Bandiera": "Pompe Bianche", "Tipo impianto": "Altro", "Indirizzo": "Via Taurano 123 84016", "Nome impianto": "Pegaso Carburanti Pagani", "Comune": "PAGANI", "idImpianto": 50920, "points": [{"type": "Feature", "properties": {}, "geometry": {"type": "Point", "coordinates": [14.598368931985153, 40.75241567036497]}}], "price": 1.879, "ultima_rilevazione": "20/07/2022 22:17:54"}, {"Gestore": "VOLO GROUP S.R.L.", "Bandiera": "CONAD", "Tipo impianto": "Altro", "Indirizzo": "VIA ALCIDE DE GASPERI 340 84016", "Nome impianto": "CONAD SUPERMERCATO", "Comune": "PAGANI", "idImpianto": 32396, "points": [{"type": "Feature", "properties": {}, "geometry": {"type": "Point", "coordinates": [14.59837898998262, 40.74986271798383]}}], "price": 1.829, "ultima_rilevazione": "21/07/2022 07:00:09"}]}, "Metano": {"1": [{"Gestore": "SUD PETROLI DI CESARANO ANGELA E C. S.R.L.", "Bandiera": "Pompe Bianche", "Tipo impianto": "Altro", "Indirizzo": "VIA MARICONDA SNC 80045", "Nome impianto": "SUD PETROLI", "Comune": "POMPEI", "idImpianto": 41655, "points": [{"type": "Feature", "properties": {}, "geometry": {"type": "Point", "coordinates": [14.516078978776932, 40.73455270817856]}}], "price": 2.999, "ultima_rilevazione": "18/07/2022 11:45:16"}, {"Gestore": "LE SPOSE DI BIANCA DI ANNARUMMA BIANCA", "Bandiera": "Pompe Bianche", "Tipo impianto": "Altro", "Indirizzo": "VIA PALUDICELLA 30A 84012", "Nome impianto": "VISCARDI CARBURANTI METANO GPL", "Comune": "ANGRI", "idImpianto": 42811, "points": [{"type": "Feature", "properties": {}, "geometry": {"type": "Point", "coordinates": [14.548700884665209, 40.72987052231823]}}], "price": 2.2, "ultima_rilevazione": "18/07/2022 17:57:06"}, {"Gestore": "VIN.G S.A.S. DI VICIDOMINI LUCIA", "Bandiera": "Total Erg", "Tipo impianto": "Altro", "Indirizzo": "VIA STABIA SNC, 80057", "Nome impianto": "TOTAL ERG", "Comune": "SANT'ANTONIO ABATE", "idImpianto": 16934, "points": [{"type": "Feature", "properties": {}, "geometry": {"type": "Point", "coordinates": [14.531820682850594, 40.71421398059992]}}], "price": 2.999, "ultima_rilevazione": "19/07/2022 10:30:35"}], "3": [{"Gestore": "2 G PETROLI S.R.L. SEMPLIFICATA", "Bandiera": "Pompe Bianche", "Tipo impianto": "Altro", "Indirizzo": "VIA G.B. CASCIELLO SNC 84018", "Nome impianto": "Eurogas", "Comune": "SCAFATI", "idImpianto": 46282, "points": [{"type": "Feature", "properties": {}, "geometry": {"type": "Point", "coordinates": [14.519029453570738, 40.76145869786863]}}], "price": 1.869, "ultima_rilevazione": "16/07/2022 16:27:31"}, {"Gestore": "LE SPOSE DI BIANCA DI ANNARUMMA BIANCA", "Bandiera": "Pompe Bianche", "Tipo impianto": "Altro", "Indirizzo": "VIA ORTALONGA 87 84018", "Nome impianto": "ANNARUMMA BIANCA", "Comune": "SCAFATI", "idImpianto": 34239, "points": [{"type": "Feature", "properties": {}, "geometry": {"type": "Point", "coordinates": [14.549692429938432, 40.762234569257394]}}], "price": 2.22, "ultima_rilevazione": "18/07/2022 14:55:21"}], "5": [{"Gestore": "MULTICARBURANTE DI MARESCA ANNA & C. S.N.C.", "Bandiera": "Agip Eni", "Tipo impianto": "Altro", "Indirizzo": "Via Taurano 128 84016", "Nome impianto": "Multicarburante di Maresca Anna & C. s.n.c.", "Comune": "PAGANI", "idImpianto": 5643, "points": [{"type": "Feature", "properties": {}, "geometry": {"type": "Point", "coordinates": [14.592188000679016, 40.75515215542613]}}], "price": 1.644, "ultima_rilevazione": "18/07/2022 16:58:15"}]}}