{"area_comune": "[{\"type\": \"Feature\", \"properties\": {}, \"geometry\": {\"type\": \"Polygon\", \"coordinates\": [[[14.567272421964587, 40.787682418313445], [14.575941240433531, 40.78687542817073], [14.576737772310619, 40.78285331161013], [14.576320620806547, 40.78139267169073], [14.575718689931467, 40.78097623716499], [14.57359004863462, 40.78015666294674], [14.56724928108425, 40.77838419420273], [14.56605634620339, 40.777811775261114], [14.564549788526643, 40.776048187526264], [14.560981894791526, 40.77098140918628], [14.555828178844672, 40.769087881612066], [14.554660055999102, 40.768419598051175], [14.552258061744984, 40.76605541051906], [14.550561666231772, 40.76284244452247], [14.550583421519246, 40.7613740171028], [14.551413811392395, 40.75940746221524], [14.552755593978938, 40.75713262670702], [14.553399431567025, 40.75661093130408], [14.557651796784187, 40.74941082183536], [14.557799753926298, 40.748737502458795], [14.55753039612376, 40.74650444720028], [14.551165060140354, 40.74364743039277], [14.542684523700386, 40.74016727389081], [14.537816940956882, 40.736742211478266], [14.535332354889302, 40.73620910549745], [14.529654583678589, 40.73520377188431], [14.526058036613016, 40.7347373900472], [14.5204874546493, 40.73478577735068], [14.519643248194006, 40.73707981169396], [14.51751213068398, 40.73799846383351], [14.514249850466017, 40.73815763251636], [14.512544803422918, 40.73806827511479], [14.509682401348302, 40.73765173265521], [14.508493787500313, 40.73776005342476], [14.506555944146045, 40.73917924081635], [14.505434007110361, 40.74052880182683], [14.506069230882757, 40.7425847298712], [14.506752463113504, 40.74298187142104], [14.510534807804946, 40.744142145389546], [14.513823914358795, 40.744776788981746], [14.514320902599307, 40.74634639670562], [14.510983429673963, 40.75729566305759], [14.50923361026649, 40.76049416806469], [14.50860396306716, 40.76334668300131], [14.510613691692129, 40.76397963616023], [14.511026249061613, 40.76423445572708], [14.510795058693796, 40.76516825904785], [14.50941923619645, 40.7686595636074], [14.509061870071928, 40.768901734649106], [14.507269989771185, 40.7692471934204], [14.506844122070554, 40.77072737472214], [14.507017244391967, 40.77296968112367], [14.51881751773513, 40.776563302699934], [14.525562208493367, 40.777931987684056], [14.534979933106497, 40.778465004236416], [14.544854560505597, 40.77814700510968], [14.550800576200555, 40.789469941709704], [14.55271973751068, 40.79268892368363], [14.567254649653307, 40.78859249853318], [14.567272421964587, 40.787682418313445]]]}}]", "comune": "scafati", "buffer_1": "[{\"type\": \"Feature\", \"properties\": {}, \"geometry\": {\"type\": \"Polygon\", \"coordinates\": [[[14.572148259228747, 40.79586668136553], [14.573252137082841, 40.79543226979977], [14.57428987044326, 40.79491215801478], [14.575249982890774, 40.79431209918332], [14.58429818864425, 40.78802171782725], [14.585102339673986, 40.78740578384578], [14.585824546085194, 40.78673375441437], [14.586458071805254, 40.786011900278254], [14.586997008817406, 40.78524695684167], [14.587436332200845, 40.784446061283056], [14.587771946906532, 40.783616685929324], [14.588000725836148, 40.78276656851244], [14.588120538873522, 40.78190363996058], [14.588130272602957, 40.78103595039812], [14.588029840536217, 40.78017159404558], [14.587820183758705, 40.77931863371985], [14.587503261994767, 40.7784850256391], [14.587082035181343, 40.7776785452326], [14.586560435727092, 40.77690671464685], [14.5859433317207, 40.776176732622304], [14.585236481435471, 40.77549540739342], [14.5844464795577, 40.774869093235594], [14.5641016263062, 40.7602202680326], [14.568767684194734, 40.74927553850538], [14.569063846562935, 40.74844800040775], [14.569254898154208, 40.74760275616385], [14.569339101967767, 40.746747508676236], [14.569315694822976, 40.74589005170309], [14.569184894162778, 40.74503819883564], [14.568947895921761, 40.744199712305864], [14.568606863483746, 40.74338223227267], [14.568164907834706, 40.74259320723035], [14.567626059096757, 40.741839826172004], [14.566995229706794, 40.74112895312493], [14.566278169578814, 40.74046706465264], [14.565481413661024, 40.73986019089114], [14.56461222236737, 40.73931386065469], [14.563678515426798, 40.73883305110932], [14.541482350407339, 40.72853878698246], [14.54040295299731, 40.728094783316024], [14.539268833976582, 40.72773836798737], [14.53809223274626, 40.7274733875366], [14.53688584670523, 40.72730270177948], [14.53566269437761, 40.72722815296885], [14.534435975091546, 40.72725054592372], [14.50760095929213, 40.72880105448321], [14.50644623010747, 40.72891137835165], [14.505311372941168, 40.729107612122625], [14.504207403303313, 40.729387851376664], [14.503145037316841, 40.72974937626157], [14.502134587796395, 40.73018867785307], [14.501185864217645, 40.730701492169096], [14.500308077544243, 40.73128284150975], [14.499509750833537, 40.73192708272401], [14.498798636487416, 40.73262796193691], [14.498181640951321, 40.73337867520869], [14.49766475759361, 40.73417193453926], [14.497253008419273, 40.73500003857946], [14.496950395187497, 40.73585494736487], [14.496759860412231, 40.73672836034802], [14.496683258630085, 40.737611796972864], [14.4967213382206, 40.73849667901007], [14.496873733962198, 40.73937441385396], [14.49713897040289, 40.740236477972275], [14.497514476019873, 40.74107449969799], [14.49799660803694, 40.74188034055782], [14.501899735315364, 40.747633226574], [14.495448226853853, 40.7711341572247], [14.495265050459897, 40.77202035659484], [14.495199025972092, 40.77291602564479], [14.495250816345697, 40.77381223555138], [14.495419909998446, 40.77470005174056], [14.495704625723267, 40.77557062297253], [14.496102129270797, 40.77641526960949], [14.496608461443508, 40.77722557018516], [14.497218577427667, 40.777993445411134], [14.497926396976528, 40.77871123878044], [14.498724864948768, 40.779371792962586], [14.499606021601592, 40.7799685212253], [14.500561081939393, 40.78049547316857], [14.501580523326844, 40.78094739411247], [14.502654180491653, 40.781319777544205], [14.503771346966934, 40.78160891009886], [14.504920881957705, 40.781811908623254], [14.536385394809203, 40.78611791630789], [14.54178587148993, 40.7961049418262], [14.542291163831496, 40.79692028407358], [14.542901415955164, 40.79769304850766], [14.54361048904715, 40.79841545734906], [14.544411248970643, 40.79908023944548], [14.545295638014125, 40.79968070351236], [14.546254755972031, 40.80021080553859], [14.54727894974201, 40.8006652096766], [14.5483579105356, 40.80103934200067], [14.54948077772115, 40.80132943659039], [14.55063624824966, 40.801532573472706], [14.551812690556785, 40.801646708039364], [14.552998261788302, 40.801670691641974], [14.554181027162128, 40.8016042831567], [14.555349080258067, 40.801448151402056], [14.556490663017035, 40.80120386838573], [14.55759428423462, 40.80087389344919], [14.572148259228747, 40.79586668136553]]]}}]", "buffer_3": "[{\"type\": \"Feature\", \"properties\": {}, \"geometry\": {\"type\": \"Polygon\", \"coordinates\": [[[14.58190381714278, 40.81223433365698], [14.58521596322449, 40.8109307497324], [14.588329481775654, 40.80937003803121], [14.591209929502982, 40.80756947469305], [14.60025814762928, 40.801277823395424], [14.602670514162156, 40.799429671634385], [14.60483687042671, 40.7974132521512], [14.606737018029829, 40.795247389520114], [14.608353248950904, 40.79295230113599], [14.609670510062141, 40.790549408142844], [14.610676542647413, 40.78806113519897], [14.611361995652219, 40.785510700961666], [14.611720511649803, 40.78292190125801], [14.611748784768851, 40.78031888697272], [14.611446590093843, 40.77772593872986], [14.610816784317462, 40.77516724047097], [14.609865277692816, 40.77266665403849], [14.608600977599036, 40.770247496860215], [14.607035704294988, 40.76793232479797], [14.605184079689593, 40.76574272217235], [14.60306339020203, 40.76369910090576], [14.600693425018177, 40.76182051063907], [14.591177833357856, 40.75497133027539], [14.591244742630398, 40.75481423579244], [14.592132401499637, 40.752331497595605], [14.592704667989318, 40.749795705525486], [14.592956363419159, 40.747229970437814], [14.592885231567609, 40.744657673327495], [14.592491957869866, 40.74210225227225], [14.591780161818383, 40.739586988954855], [14.590756362684274, 40.737134796705256], [14.589429918919032, 40.73476801198647], [14.587812941831793, 40.73250819121392], [14.58592018436647, 40.73037591474592], [14.583768906023156, 40.728390599816265], [14.581378715177522, 40.72657032409564], [14.578771390249509, 40.72493166147173], [14.575970681355798, 40.72348953152544], [14.553778268865388, 40.71319742096253], [14.550540691601872, 40.711865689159914], [14.54713909826451, 40.71079666280699], [14.543610174186702, 40.710001872083815], [14.539991973716488, 40.7094898899656], [14.536323511225786, 40.709266239984274], [14.532644341917086, 40.7093333367538], [14.50581642457625, 40.71088296696303], [14.502353130741962, 40.71121379180418], [14.498949374948753, 40.71180228452281], [14.495638172152317, 40.71264273993131], [14.492451643383891, 40.7137270086234], [14.489420705044123, 40.71504457566401], [14.486574769664212, 40.716582662174666], [14.483941461002777, 40.718326348848656], [14.481546346218042, 40.72025872021791], [14.479412687700417, 40.72236102829402], [14.477561216971482, 40.72461287401812], [14.476009932853277, 40.72699240478042], [14.474773925887767, 40.72947652611294], [14.473865230742607, 40.73204112551928], [14.473292708077244, 40.73466130628418], [14.473061957065713, 40.73731162900508], [14.473175259481089, 40.739966358508745], [14.47363155594439, 40.74259971375979], [14.474426454630322, 40.74518611833335], [14.475552272406564, 40.74770044901474], [14.476998108065683, 40.75011828010261], [14.477055519629364, 40.75020294617404], [14.47231174355832, 40.76745948822443], [14.471761278444758, 40.77011803340311], [14.471562244416763, 40.7728050606993], [14.471716668542232, 40.77549378285517], [14.472223053749445, 40.77815739248516], [14.473076392065932, 40.78076932947523], [14.474268212946408, 40.78330354603927], [14.4757866662715, 40.785734766779555], [14.477616639247596, 40.788038741142444], [14.479739906091629, 40.79019248573378], [14.48213530904766, 40.79217451405554], [14.484778968957821, 40.793965051349055], [14.487644523302455, 40.79554623237704], [14.49070338933711, 40.796902280146796], [14.49392504968999, 40.79801966376802], [14.497277357546572, 40.798887233848035], [14.500726858340741, 40.79949633405464], [14.51944106453016, 40.80205823807444], [14.519914469762622, 40.80293406655433], [14.521429795694715, 40.80538041312034], [14.523260170426724, 40.807699056562356], [14.525387192882649, 40.80986664948027], [14.527789468593918, 40.81186136369799], [14.530442824621819, 40.813663110576684], [14.533320552788746, 40.815253743826794], [14.53639367877139, 40.81661724275171], [14.539631254334667, 40.817739874052606], [14.543000669738678, 40.81861033054256], [14.546467983135429, 40.81921984535306], [14.549998263590119, 40.8195622804663], [14.55355594421572, 40.81963418866966], [14.557105181801404, 40.81943484830145], [14.560610219246021, 40.81896627043547], [14.564035747078828, 40.81823317843574], [14.567347260360416, 40.81724296009501], [14.58190381714278, 40.81223433365698]]]}}]", "buffer_5": "[{\"type\": \"Feature\", \"properties\": {}, \"geometry\": {\"type\": \"Polygon\", \"coordinates\": [[[14.452468039636697, 40.75182552136172], [14.44917733335006, 40.76377999227575], [14.448258332190145, 40.768210811984034], [14.447925008038968, 40.77268922363474], [14.44818080299796, 40.77717058053657], [14.449023284762195, 40.78161019765961], [14.450444166184463, 40.785963797536674], [14.452429383450387, 40.79018795244199], [14.45495923226243, 40.79424051840794], [14.458008560836067, 40.79808105671052], [14.461547017921982, 40.80167123856799], [14.46553935349119, 40.80497522895559], [14.469945769161937, 40.807960045641735], [14.47472231491519, 40.810595889794676], [14.479821328146103, 40.81285644479095], [14.485191910638848, 40.814719140176955], [14.490780438637215, 40.81616537808748], [14.49653110081969, 40.81718071980674], [14.504120854622233, 40.81821999981961], [14.507157495210754, 40.82131533836788], [14.511161280196603, 40.82464047550241], [14.515583854297436, 40.827643978452016], [14.52038069135221, 40.83029557959898], [14.525503475829183, 40.83256855581106], [14.5309005908825, 40.834439999003386], [14.536517640494509, 40.83589104810693], [14.542298000339526, 40.8369070800501], [14.548183391685006, 40.83747785778366], [14.554114472388996, 40.8375976338231], [14.560031438862504, 40.837265208245434], [14.565874632744189, 40.836483940549684], [14.571585145984434, 40.83526171527044], [14.57710541805728, 40.833610861713886], [14.591664557570844, 40.82860081968445], [14.597185655369204, 40.82642759727673], [14.60237538339333, 40.82382578340235], [14.607176312795872, 40.82082419938614], [14.61622454135881, 40.8145312775142], [14.620245006944351, 40.8114504413185], [14.623855161176028, 40.80808919010669], [14.627021356545248, 40.80447891875281], [14.629714106515188, 40.8006533415578], [14.6319083587118, 40.79664817643559], [14.633583726098049, 40.792500810592834], [14.634724674070283, 40.78824995086283], [14.635320661847572, 40.78393526198823], [14.635366236967327, 40.7795969962505], [14.634861082149113, 40.77527561791319], [14.633810014238781, 40.7710114259846], [14.632222935392221, 40.76684417880883], [14.630114737098202, 40.76281272396753], [14.627505158069068, 40.75895463691451], [14.624418597442746, 40.755305871675624], [14.620883885136632, 40.75190042682637], [14.616934011569969, 40.74877002981144], [14.61650009103655, 40.748457795033296], [14.616573419764538, 40.747707550594136], [14.616453349472614, 40.7434205124814], [14.615796440981434, 40.7391617073193], [14.614608779549249, 40.734969929514484], [14.612901279089908, 40.73088335600227], [14.610689579419606, 40.72693919916078], [14.607993900852106, 40.72317336872629], [14.604838857571282, 40.71962014575315], [14.60125323156658, 40.71631187154524], [14.597269709254249, 40.71327865434579], [14.592924583223041, 40.710548096406555], [14.588257421835523, 40.708145043871866], [14.566068762003553, 40.69785508475636], [14.560673824642182, 40.695635996575824], [14.555005774646384, 40.693854651567], [14.549125699517106, 40.692530251014105], [14.543096960185187, 40.69167707246414], [14.536984512062006, 40.69130431645429], [14.530854209322353, 40.691416007615025], [14.50403338415118, 40.69296475998727], [14.498262716009425, 40.69351589029507], [14.492591148137718, 40.69449636413771], [14.487073652929897, 40.69589668629013], [14.481763719939794, 40.69770329128606], [14.476712839794388, 40.699898673917424], [14.471970006881591, 40.70246155778568], [14.467581245538756, 40.70536710032273], [14.463589164268111, 40.70858713235144], [14.460032542264045, 40.712090429923016], [14.456945952256456, 40.71584301585693], [14.454359423354797, 40.719808488118645], [14.452298147221684, 40.72394837190575], [14.45078223051469, 40.72822249207787], [14.449826496112815, 40.732589362358226], [14.449440335193723, 40.7370065875634], [14.44962761175169, 40.74143127497917], [14.45038662064923, 40.74582045089937], [14.451710099781042, 40.750131478281794], [14.452468039636697, 40.75182552136172]]]}}]", "centroid": "[{\"type\": \"Feature\", \"properties\": {}, \"geometry\": {\"type\": \"Point\", \"coordinates\": [14.538732212578987, 40.763612805003866]}}]", "Diesel High Quality": {"1": [{"Gestore": "CARBURANTE DI CASCONE NICOLA", "Bandiera": "Esso", "Tipo impianto": "Altro", "Indirizzo": "VIA DANTE ALIGHIERI 27 84018", "Nome impianto": "CARBURANTE DI CASCONE NICOLA", "Comune": "SCAFATI", "idImpianto": 45066, "points": [{"type": "Feature", "properties": {}, "geometry": {"type": "Point", "coordinates": [14.534445000123, 40.749389000123]}}], "price": 1.879, "ultima_rilevazione": "11/04/2022 18:19:28"}, {"Gestore": "ORGANIZZAZIONE SERVIZI AUTO - O.S.A. - S.P.A.", "Bandiera": "Esso", "Tipo impianto": "Altro", "Indirizzo": "VIA PASSANTI 267 84018", "Nome impianto": "ESSO SCAFATI", "Comune": "SCAFATI", "idImpianto": 50249, "points": [{"type": "Feature", "properties": {}, "geometry": {"type": "Point", "coordinates": [14.517707887191804, 40.76596745019975]}}], "price": 1.899, "ultima_rilevazione": "14/04/2022 16:06:44"}, {"Gestore": "LA MURA GROUP S.R.L.", "Bandiera": "Total Erg", "Tipo impianto": "Altro", "Indirizzo": "VIA SCAFATI 283 80050", "Nome impianto": "La Mura Group", "Comune": "SANTA MARIA LA CARITA'", "idImpianto": 27269, "points": [{"type": "Feature", "properties": {}, "geometry": {"type": "Point", "coordinates": [14.514097782208978, 40.73094364975582]}}], "price": 1.699, "ultima_rilevazione": "15/04/2022 10:55:36"}], "3": [{"Gestore": "PADOVANO LUIGI", "Bandiera": "Esso", "Tipo impianto": "Altro", "Indirizzo": "VIA DEI GOTI 87 84012", "Nome impianto": "PADOVANO LUIGI", "Comune": "ANGRI", "idImpianto": 45211, "points": [{"type": "Feature", "properties": {}, "geometry": {"type": "Point", "coordinates": [14.569725000123, 40.734039000123]}}], "price": 1.839, "ultima_rilevazione": "12/04/2022 18:54:29"}, {"Gestore": "AREA FELIX S.A.S. DI AMITRANO POLISTO", "Bandiera": "Api-Ip", "Tipo impianto": "Altro", "Indirizzo": "VIA PLINIO 101 80045", "Nome impianto": "IP Area Felix", "Comune": "POMPEI", "idImpianto": 42083, "points": [{"type": "Feature", "properties": {}, "geometry": {"type": "Point", "coordinates": [14.486825459215993, 40.74677174655304]}}], "price": 1.699, "ultima_rilevazione": "15/04/2022 16:45:05"}, {"Gestore": "SERVIZI & GESTIONI ITALIA srl", "Bandiera": "Q8", "Tipo impianto": "Altro", "Indirizzo": "SS.268 KM.27 IMP.Q8 SNC 80041", "Nome impianto": "BOSCOREALE SS.268 KM.27 IMP.Q8", "Comune": "BOSCOREALE", "idImpianto": 6706, "points": [{"type": "Feature", "properties": {}, "geometry": {"type": "Point", "coordinates": [14.49257675092622, 40.775989040825344]}}], "price": 2.039, "ultima_rilevazione": "16/04/2022 07:10:45"}, {"Gestore": "SERVIZI & GESTIONI ITALIA srl", "Bandiera": "Q8", "Tipo impianto": "Altro", "Indirizzo": "SS.268 KM.27 IMP.Q8 SNC 80041", "Nome impianto": "BOSCOREALE SS.268 KM.27 IMP.Q8", "Comune": "BOSCOREALE", "idImpianto": 6706, "points": [{"type": "Feature", "properties": {}, "geometry": {"type": "Point", "coordinates": [14.49257675092622, 40.775989040825344]}}], "price": 1.984, "ultima_rilevazione": "16/04/2022 07:10:45"}, {"Gestore": "CASCONE CARBURANTI DI CINZIA SPINELLI S.A.S.", "Bandiera": "Q8", "Tipo impianto": "Altro", "Indirizzo": "STRADA PONTE DELLA PERSICA 100 80053", "Nome impianto": "Q8", "Comune": "CASTELLAMMARE DI STABIA", "idImpianto": 9595, "points": [{"type": "Feature", "properties": {}, "geometry": {"type": "Point", "coordinates": [14.485897421836851, 40.73187189266499]}}], "price": 1.796, "ultima_rilevazione": "16/04/2022 08:43:12"}], "5": [{"Gestore": "EUROPA SERVICE SOCIETA' A RESPONSABILITA' LIMITATA", "Bandiera": "Q8", "Tipo impianto": "Altro", "Indirizzo": "viale europa 154 80053", "Nome impianto": "Q8 Europa Service", "Comune": "CASTELLAMMARE DI STABIA", "idImpianto": 43882, "points": [{"type": "Feature", "properties": {}, "geometry": {"type": "Point", "coordinates": [14.489071915344198, 40.70126796656399]}}], "price": 1.929, "ultima_rilevazione": "21/01/2022 08:22:32"}, {"Gestore": "SERVIZI & GESTIONI ITALIA S.R.L.", "Bandiera": "Q8", "Tipo impianto": "Altro", "Indirizzo": "VIA MADONNA DELLE GRAZIE 238 80050", "Nome impianto": "SANTA MARIA LA CARITA'-VIA MADONNA DELLE GRAZIE 238", "Comune": "SANTA MARIA LA CARITA'", "idImpianto": 11728, "points": [{"type": "Feature", "properties": {}, "geometry": {"type": "Point", "coordinates": [14.50580728836053, 40.70934676337253]}}], "price": 2.079, "ultima_rilevazione": "11/04/2022 00:37:43"}, {"Gestore": "G. V. CARBURANTI S.A.S. DI CIARAVOLO MARIAROSARIA & C.", "Bandiera": "Esso", "Tipo impianto": "Altro", "Indirizzo": "Via Castellammare 120 80054", "Nome impianto": "Stazione Esso Gragnano", "Comune": "GRAGNANO", "idImpianto": 43246, "points": [{"type": "Feature", "properties": {}, "geometry": {"type": "Point", "coordinates": [14.505942105522536, 40.69418763269579]}}], "price": 1.949, "ultima_rilevazione": "15/04/2022 06:41:09"}]}, "Blue Diesel": {"1": [{"Gestore": "MI.SA. CARBURANTI S.R.L.", "Bandiera": "Agip Eni", "Tipo impianto": "Altro", "Indirizzo": "VIA DE GASPERI 47 84018", "Nome impianto": "MISA CARBURANTI SRL", "Comune": "SCAFATI", "idImpianto": 43176, "points": [{"type": "Feature", "properties": {}, "geometry": {"type": "Point", "coordinates": [14.52959227423969, 40.75511612456466]}}], "price": 1.844, "ultima_rilevazione": "15/04/2022 07:47:21"}, {"Gestore": "MI.SA. CARBURANTI S.R.L.", "Bandiera": "Agip Eni", "Tipo impianto": "Altro", "Indirizzo": "VIA DE GASPERI 47 84018", "Nome impianto": "MISA CARBURANTI SRL", "Comune": "SCAFATI", "idImpianto": 43176, "points": [{"type": "Feature", "properties": {}, "geometry": {"type": "Point", "coordinates": [14.52959227423969, 40.75511612456466]}}], "price": 1.944, "ultima_rilevazione": "15/04/2022 07:47:21"}], "3": [{"Gestore": "MASCOLO FRANCESCO", "Bandiera": "Agip Eni", "Tipo impianto": "Altro", "Indirizzo": "via scafati  80057", "Nome impianto": "Francesco Mascolo", "Comune": "SANT'ANTONIO ABATE", "idImpianto": 7854, "points": [{"type": "Feature", "properties": {}, "geometry": {"type": "Point", "coordinates": [14.539611649212702, 40.72706461128277]}}], "price": 1.849, "ultima_rilevazione": "15/04/2022 09:29:53"}], "5": [{"Gestore": "MULTICARBURANTE DI MARESCA ANNA & C. S.N.C.", "Bandiera": "Agip Eni", "Tipo impianto": "Altro", "Indirizzo": "Via Taurano 128 84016", "Nome impianto": "Multicarburante di Maresca Anna & C. s.n.c.", "Comune": "PAGANI", "idImpianto": 5643, "points": [{"type": "Feature", "properties": {}, "geometry": {"type": "Point", "coordinates": [14.592188000679016, 40.75515215542613]}}], "price": 1.934, "ultima_rilevazione": "14/04/2022 08:56:40"}, {"Gestore": "MULTICARBURANTE DI MARESCA ANNA & C. S.N.C.", "Bandiera": "Agip Eni", "Tipo impianto": "Altro", "Indirizzo": "Via Taurano 128 84016", "Nome impianto": "Multicarburante di Maresca Anna & C. s.n.c.", "Comune": "PAGANI", "idImpianto": 5643, "points": [{"type": "Feature", "properties": {}, "geometry": {"type": "Point", "coordinates": [14.592188000679016, 40.75515215542613]}}], "price": 1.874, "ultima_rilevazione": "14/04/2022 08:56:40"}, {"Gestore": "CA.VER. S.N.C. DI CACCIOPPOLI MAURIZIO E GIANLUCA", "Bandiera": "Agip Eni", "Tipo impianto": "Altro", "Indirizzo": "VIALE EUROPA 87 80053", "Nome impianto": "ENI", "Comune": "CASTELLAMMARE DI STABIA", "idImpianto": 32472, "points": [{"type": "Feature", "properties": {}, "geometry": {"type": "Point", "coordinates": [14.489392057717168, 40.70175169323834]}}], "price": 1.849, "ultima_rilevazione": "15/04/2022 06:59:37"}, {"Gestore": "F.S. PETROLI S.R.L. A CAPITALE RIDOTTO", "Bandiera": "Agip Eni", "Tipo impianto": "Altro", "Indirizzo": "VIA PADRE VINCENZO SORRENTINO SNC 84016", "Nome impianto": "F.S. PETROLI S.R.L.", "Comune": "PAGANI", "idImpianto": 20971, "points": [{"type": "Feature", "properties": {}, "geometry": {"type": "Point", "coordinates": [14.61111232638359, 40.7535128869219]}}], "price": 1.884, "ultima_rilevazione": "15/04/2022 20:01:15"}, {"Gestore": "F.S. PETROLI S.R.L. A CAPITALE RIDOTTO", "Bandiera": "Agip Eni", "Tipo impianto": "Altro", "Indirizzo": "VIA PADRE VINCENZO SORRENTINO SNC 84016", "Nome impianto": "F.S. PETROLI S.R.L.", "Comune": "PAGANI", "idImpianto": 20971, "points": [{"type": "Feature", "properties": {}, "geometry": {"type": "Point", "coordinates": [14.61111232638359, 40.7535128869219]}}], "price": 1.944, "ultima_rilevazione": "15/04/2022 20:01:15"}, {"Gestore": "CHIACCHIERA FRANCESCO", "Bandiera": "Agip Eni", "Tipo impianto": "Altro", "Indirizzo": "VIA VITTORIO VENETO 2 80058", "Nome impianto": "ENI spa", "Comune": "TORRE ANNUNZIATA", "idImpianto": 46634, "points": [{"type": "Feature", "properties": {}, "geometry": {"type": "Point", "coordinates": [14.465613216161728, 40.75009524376741]}}], "price": 1.949, "ultima_rilevazione": "16/04/2022 07:11:10"}, {"Gestore": "CHIACCHIERA FRANCESCO", "Bandiera": "Agip Eni", "Tipo impianto": "Altro", "Indirizzo": "VIA VITTORIO VENETO 2 80058", "Nome impianto": "ENI spa", "Comune": "TORRE ANNUNZIATA", "idImpianto": 46634, "points": [{"type": "Feature", "properties": {}, "geometry": {"type": "Point", "coordinates": [14.465613216161728, 40.75009524376741]}}], "price": 1.849, "ultima_rilevazione": "16/04/2022 07:11:10"}]}, "Benzina": {"1": [{"Gestore": "AFIERO MICHELE", "Bandiera": "Loro", "Tipo impianto": "Altro", "Indirizzo": "VIA MARTIRI D'UNGHERIA 101 84018", "Nome impianto": "AFIERO MICHELE", "Comune": "SCAFATI", "idImpianto": 40883, "points": [{"type": "Feature", "properties": {}, "geometry": {"type": "Point", "coordinates": [14.52107514283989, 40.75196803180263]}}], "price": 1.763, "ultima_rilevazione": "06/04/2022 17:29:47"}, {"Gestore": "SERVIZI & GESTIONI ITALIA srl", "Bandiera": "Q8", "Tipo impianto": "Altro", "Indirizzo": "VIA S.P.UNGARO SNC 84018", "Nome impianto": "SCAFATI VIA S.P.UNGARO", "Comune": "SCAFATI", "idImpianto": 6738, "points": [{"type": "Feature", "properties": {}, "geometry": {"type": "Point", "coordinates": [14.522836018420094, 40.7591448349824]}}], "price": 1.789, "ultima_rilevazione": "11/04/2022 00:37:55"}, {"Gestore": "SERVIZI & GESTIONI ITALIA srl", "Bandiera": "Q8", "Tipo impianto": "Altro", "Indirizzo": "VIA S.P.21 KM 2 SNC 84018", "Nome impianto": "SCAFATI VIA S.P.21 KM 2", "Comune": "SCAFATI", "idImpianto": 6739, "points": [{"type": "Feature", "properties": {}, "geometry": {"type": "Point", "coordinates": [14.54173958283809, 40.77428223475604]}}], "price": 1.749, "ultima_rilevazione": "11/04/2022 00:37:55"}, {"Gestore": "PAKO CARBURANTI S.R.L.", "Bandiera": "Pompe Bianche", "Tipo impianto": "Altro", "Indirizzo": "VIA MARRA 175 80041", "Nome impianto": "PAKO CARBURANTI", "Comune": "BOSCOREALE", "idImpianto": 47980, "points": [{"type": "Feature", "properties": {}, "geometry": {"type": "Point", "coordinates": [14.546382294477445, 40.78290918565107]}}], "price": 1.719, "ultima_rilevazione": "11/04/2022 09:20:21"}, {"Gestore": "SA.MO. PETROLI DI SALVATORE MOSCA", "Bandiera": "Pompe Bianche", "Tipo impianto": "Altro", "Indirizzo": "via ripuaria 75 80045", "Nome impianto": "m petroli", "Comune": "POMPEI", "idImpianto": 33087, "points": [{"type": "Feature", "properties": {}, "geometry": {"type": "Point", "coordinates": [14.499395071094568, 40.73940683796222]}}], "price": 1.795, "ultima_rilevazione": "11/04/2022 11:33:04"}, {"Gestore": "PETROLCHIMICA SUD - S.R.L.", "Bandiera": "Pompe Bianche", "Tipo impianto": "Altro", "Indirizzo": "VIA CAMPIA SNC 84013", "Nome impianto": "ANGRI", "Comune": "ANGRI", "idImpianto": 35638, "points": [{"type": "Feature", "properties": {}, "geometry": {"type": "Point", "coordinates": [14.561990350484848, 40.73931612267616]}}], "price": 1.739, "ultima_rilevazione": "11/04/2022 11:59:05"}, {"Gestore": "CARBURANTE DI CASCONE NICOLA", "Bandiera": "Esso", "Tipo impianto": "Altro", "Indirizzo": "VIA DANTE ALIGHIERI 27 84018", "Nome impianto": "CARBURANTE DI CASCONE NICOLA", "Comune": "SCAFATI", "idImpianto": 45066, "points": [{"type": "Feature", "properties": {}, "geometry": {"type": "Point", "coordinates": [14.534445000123, 40.749389000123]}}], "price": 1.739, "ultima_rilevazione": "11/04/2022 18:19:28"}, {"Gestore": "2 G PETROLI S.R.L. SEMPLIFICATA", "Bandiera": "Pompe Bianche", "Tipo impianto": "Altro", "Indirizzo": "VIA G.B. CASCIELLO SNC 84018", "Nome impianto": "Eurogas", "Comune": "SCAFATI", "idImpianto": 46282, "points": [{"type": "Feature", "properties": {}, "geometry": {"type": "Point", "coordinates": [14.519029453570738, 40.76145869786863]}}], "price": 1.735, "ultima_rilevazione": "11/04/2022 18:23:02"}, {"Gestore": "POMPEANGAS - S.A.S. DI ALLEGRO CATELLO & C.", "Bandiera": "Pompe Bianche", "Tipo impianto": "Altro", "Indirizzo": "VIA SALICE 157 84012", "Nome impianto": "BREAK ZONE  - POMPEANGAS", "Comune": "ANGRI", "idImpianto": 16158, "points": [{"type": "Feature", "properties": {}, "geometry": {"type": "Point", "coordinates": [14.56152766942978, 40.74097687632511]}}], "price": 1.78, "ultima_rilevazione": "12/04/2022 09:41:14"}, {"Gestore": "GALASSO GIUSEPPINA", "Bandiera": "Pompe Bianche", "Tipo impianto": "Altro", "Indirizzo": "VIA NUOVA SAN MARZANO 98 80040", "Nome impianto": "GALASSO GIUSEPPINA", "Comune": "POGGIOMARINO", "idImpianto": 22356, "points": [{"type": "Feature", "properties": {}, "geometry": {"type": "Point", "coordinates": [14.545705318450814, 40.79643830714438]}}], "price": 1.749, "ultima_rilevazione": "12/04/2022 15:54:10"}, {"Gestore": "SANTA MARIA CARBURANTI S.R.L.", "Bandiera": "Pompe Bianche", "Tipo impianto": "Altro", "Indirizzo": "VIA CARRARA SNC 80050", "Nome impianto": "SANTA MARIA CARBURANTI SRL", "Comune": "SANTA MARIA LA CARITA'", "idImpianto": 47407, "points": [{"type": "Feature", "properties": {}, "geometry": {"type": "Point", "coordinates": [14.510791003704073, 40.73084384549661]}}], "price": 1.749, "ultima_rilevazione": "13/04/2022 09:32:37"}, {"Gestore": "VINCENZO CASCONE S.R.L.", "Bandiera": "Pompe Bianche", "Tipo impianto": "Altro", "Indirizzo": "VIA SCAFATI 223 80050", "Nome impianto": "STAZIONE DI SERVIZIO CASCONE", "Comune": "SANTA MARIA LA CARITA'", "idImpianto": 40789, "points": [{"type": "Feature", "properties": {}, "geometry": {"type": "Point", "coordinates": [14.513311487102555, 40.72861658682665]}}], "price": 1.779, "ultima_rilevazione": "13/04/2022 16:45:14"}, {"Gestore": "MERIDIONAL G.P.L. - S.R.L.", "Bandiera": "Pompe Bianche", "Tipo impianto": "Altro", "Indirizzo": "VIA SPINELLI 22 80045", "Nome impianto": "Meridional Gpl srl", "Comune": "POMPEI", "idImpianto": 9615, "points": [{"type": "Feature", "properties": {}, "geometry": {"type": "Point", "coordinates": [14.504981338977814, 40.76913387129056]}}], "price": 1.729, "ultima_rilevazione": "14/04/2022 08:14:12"}, {"Gestore": "ORGANIZZAZIONE SERVIZI AUTO - O.S.A. - S.P.A.", "Bandiera": "Esso", "Tipo impianto": "Altro", "Indirizzo": "VIA PASSANTI 267 84018", "Nome impianto": "ESSO SCAFATI", "Comune": "SCAFATI", "idImpianto": 50249, "points": [{"type": "Feature", "properties": {}, "geometry": {"type": "Point", "coordinates": [14.517707887191804, 40.76596745019975]}}], "price": 1.739, "ultima_rilevazione": "14/04/2022 16:06:44"}, {"Gestore": "MI.SA. CARBURANTI S.R.L.", "Bandiera": "Agip Eni", "Tipo impianto": "Altro", "Indirizzo": "VIA DE GASPERI 47 84018", "Nome impianto": "MISA CARBURANTI SRL", "Comune": "SCAFATI", "idImpianto": 43176, "points": [{"type": "Feature", "properties": {}, "geometry": {"type": "Point", "coordinates": [14.52959227423969, 40.75511612456466]}}], "price": 1.794, "ultima_rilevazione": "15/04/2022 07:47:21"}, {"Gestore": "LA MURA GROUP S.R.L.", "Bandiera": "Total Erg", "Tipo impianto": "Altro", "Indirizzo": "VIA SCAFATI 283 80050", "Nome impianto": "La Mura Group", "Comune": "SANTA MARIA LA CARITA'", "idImpianto": 27269, "points": [{"type": "Feature", "properties": {}, "geometry": {"type": "Point", "coordinates": [14.514097782208978, 40.73094364975582]}}], "price": 1.719, "ultima_rilevazione": "15/04/2022 10:55:36"}, {"Gestore": "TORTORA FILIPPO", "Bandiera": "Pompe Bianche", "Tipo impianto": "Altro", "Indirizzo": "VIALE PAPA GIOVANNI XXIII 145 84012", "Nome impianto": "ANGELINA PETROLI", "Comune": "ANGRI", "idImpianto": 32242, "points": [{"type": "Feature", "properties": {}, "geometry": {"type": "Point", "coordinates": [14.56538276580227, 40.74103632577491]}}], "price": 1.759, "ultima_rilevazione": "15/04/2022 16:57:40"}, {"Gestore": "SERVIZI & GESTIONI ITALIA srl", "Bandiera": "Q8", "Tipo impianto": "Altro", "Indirizzo": "SS 18 LC BAGNI SNC 84018", "Nome impianto": "SCAFATI SS 18 LC BAGNI", "Comune": "SCAFATI", "idImpianto": 6735, "points": [{"type": "Feature", "properties": {}, "geometry": {"type": "Point", "coordinates": [14.547430870534868, 40.7488283369454]}}], "price": 1.779, "ultima_rilevazione": "16/04/2022 01:35:32"}, {"Gestore": "CAVALLARO S.N.C. DI CAVALLARO FRANCESCO E CAVALLARO MASSIMO", "Bandiera": "Pompe Bianche", "Tipo impianto": "Altro", "Indirizzo": "via sant'antonio abate 86 84018", "Nome impianto": "distributore cavallaro", "Comune": "SCAFATI", "idImpianto": 42182, "points": [{"type": "Feature", "properties": {}, "geometry": {"type": "Point", "coordinates": [14.530619451555252, 40.74301494983108]}}], "price": 1.969, "ultima_rilevazione": "16/04/2022 07:08:32"}, {"Gestore": "ALIBERTI VITTORIO", "Bandiera": "Tamoil", "Tipo impianto": "Altro", "Indirizzo": "VIA PASSANTI  107 80041", "Nome impianto": "TAMOIL DI ALIBERTI VITTORIO 4588", "Comune": "BOSCOREALE", "idImpianto": 12642, "points": [{"type": "Feature", "properties": {}, "geometry": {"type": "Point", "coordinates": [14.498139023780825, 40.77694806456933]}}], "price": 1.699, "ultima_rilevazione": "16/04/2022 07:28:12"}, {"Gestore": "DELTA PETROLI S.R.L.", "Bandiera": "Api-Ip", "Tipo impianto": "Altro", "Indirizzo": "Via Tre Ponti snc 80045", "Nome impianto": "Delta Petroli S.r.l. (Pompei)", "Comune": "POMPEI", "idImpianto": 32071, "points": [{"type": "Feature", "properties": {}, "geometry": {"type": "Point", "coordinates": [14.506644308567047, 40.76120620819259]}}], "price": 1.746, "ultima_rilevazione": "16/04/2022 10:27:27"}, {"Gestore": "ALIBERTI VITTORIO", "Bandiera": "Tamoil", "Tipo impianto": "Altro", "Indirizzo": "VIA LEPANTO 287 80045", "Nome impianto": "TAMOIL DI ALIBERTI VITTORIO", "Comune": "POMPEI", "idImpianto": 29276, "points": [{"type": "Feature", "properties": {}, "geometry": {"type": "Point", "coordinates": [14.511073976755142, 40.74999486560387]}}], "price": 1.743, "ultima_rilevazione": "16/04/2022 12:50:02"}, {"Gestore": "ROCAL S.R.L.", "Bandiera": "Pompe Bianche", "Tipo impianto": "Altro", "Indirizzo": "VIA SALICE 30 84012", "Nome impianto": "FERRI FUEL", "Comune": "ANGRI", "idImpianto": 45470, "points": [{"type": "Feature", "properties": {}, "geometry": {"type": "Point", "coordinates": [14.555597621551556, 40.74340303566079]}}], "price": 1.759, "ultima_rilevazione": "16/04/2022 13:16:45"}], "3": [{"Gestore": "LA SUPREMA  - S.R.L.", "Bandiera": "Pompe Bianche", "Tipo impianto": "Altro", "Indirizzo": "VIA DEI GOTI 298 84012", "Nome impianto": "la suprema srl", "Comune": "ANGRI", "idImpianto": 42745, "points": [{"type": "Feature", "properties": {}, "geometry": {"type": "Point", "coordinates": [14.55362076686481, 40.72930309774013]}}], "price": 1.74, "ultima_rilevazione": "04/04/2022 19:28:36"}, {"Gestore": "GAS S.R.L.", "Bandiera": "Pompe Bianche", "Tipo impianto": "Altro", "Indirizzo": "via Cesina 78 84010", "Nome impianto": "MECK OIL ", "Comune": "SAN VALENTINO TORIO", "idImpianto": 35752, "points": [{"type": "Feature", "properties": {}, "geometry": {"type": "Point", "coordinates": [14.60015252883602, 40.788597446740106]}}], "price": 1.769, "ultima_rilevazione": "06/04/2022 10:05:22"}, {"Gestore": "SUMMA OIL SRL", "Bandiera": "Tamoil", "Tipo impianto": "Altro", "Indirizzo": "Via Provinciale Santa Maria la Carit\u00e0 snc 80057", "Nome impianto": "Summa Oil srl", "Comune": "SANT'ANTONIO ABATE", "idImpianto": 39043, "points": [{"type": "Feature", "properties": {}, "geometry": {"type": "Point", "coordinates": [14.532002583146095, 40.72025066060659]}}], "price": 1.999, "ultima_rilevazione": "08/04/2022 10:26:20"}, {"Gestore": "ISMAN PETROLEUM S.R.L.", "Bandiera": "Pompe Bianche", "Tipo impianto": "Altro", "Indirizzo": "VIA VETICE 13 84010", "Nome impianto": "ISMAN PETROLEUM", "Comune": "SAN VALENTINO TORIO", "idImpianto": 31815, "points": [{"type": "Feature", "properties": {}, "geometry": {"type": "Point", "coordinates": [14.593898510689542, 40.79242573664654]}}], "price": 1.789, "ultima_rilevazione": "08/04/2022 12:22:49"}, {"Gestore": "BELLACOSA ALFREDO", "Bandiera": "Pompe Bianche", "Tipo impianto": "Altro", "Indirizzo": "VIA PIAVE 106 84010", "Nome impianto": "stazione di servizio bellacosa alfredo", "Comune": "SAN MARZANO SUL SARNO", "idImpianto": 47669, "points": [{"type": "Feature", "properties": {}, "geometry": {"type": "Point", "coordinates": [14.591359582207756, 40.77709121761687]}}], "price": 1.749, "ultima_rilevazione": "08/04/2022 20:22:33"}, {"Gestore": "FRATELLI LONGOBARDI DI DEL GAUDIO NUNZIA & C. S.N.C.", "Bandiera": "Pompe Bianche", "Tipo impianto": "Altro", "Indirizzo": "VIA FONTANELLE 249 80045", "Nome impianto": "FRATELLI LONGOBARDI", "Comune": "POMPEI", "idImpianto": 33882, "points": [{"type": "Feature", "properties": {}, "geometry": {"type": "Point", "coordinates": [14.497255235910416, 40.723622169200425]}}], "price": 1.799, "ultima_rilevazione": "09/04/2022 12:47:01"}, {"Gestore": "ANSOR DI CARMELA CELOTTO & C. S.N.C.", "Bandiera": "Pompe Bianche", "Tipo impianto": "Altro", "Indirizzo": "Via Vigna Sant'Antonio 18 80058", "Nome impianto": "Ansor snc ", "Comune": "TORRE ANNUNZIATA", "idImpianto": 23362, "points": [{"type": "Feature", "properties": {}, "geometry": {"type": "Point", "coordinates": [14.476697444915771, 40.7473041058179]}}], "price": 1.739, "ultima_rilevazione": "11/04/2022 08:28:20"}, {"Gestore": "TOP GOMME DI ALFANO FRANCESCO", "Bandiera": "Pompe Bianche", "Tipo impianto": "Altro", "Indirizzo": "via murelle 57 84012", "Nome impianto": "staroil", "Comune": "ANGRI", "idImpianto": 32268, "points": [{"type": "Feature", "properties": {}, "geometry": {"type": "Point", "coordinates": [14.572852095530491, 40.736616335057086]}}], "price": 1.794, "ultima_rilevazione": "11/04/2022 11:29:34"}, {"Gestore": "VASTOLA F. S.A.S. DI ATTIANESE EMANUELA", "Bandiera": "Pompe Bianche", "Tipo impianto": "Altro", "Indirizzo": "VIA POGGIOMARINO 170 80040", "Nome impianto": "VASTOLA F. S.A.S.", "Comune": "STRIANO", "idImpianto": 16117, "points": [{"type": "Feature", "properties": {}, "geometry": {"type": "Point", "coordinates": [14.556227624416351, 40.809959839525874]}}], "price": 1.707, "ultima_rilevazione": "11/04/2022 18:04:51"}, {"Gestore": "LONGAS  S.R.L.", "Bandiera": "Pompe Bianche", "Tipo impianto": "Altro", "Indirizzo": "VIA PALMA 1 80040", "Nome impianto": "Longas", "Comune": "POGGIOMARINO", "idImpianto": 41864, "points": [{"type": "Feature", "properties": {}, "geometry": {"type": "Point", "coordinates": [14.55616056919098, 40.81263791225227]}}], "price": 1.735, "ultima_rilevazione": "12/04/2022 09:54:04"}, {"Gestore": "PADOVANO LUIGI", "Bandiera": "Esso", "Tipo impianto": "Altro", "Indirizzo": "VIA DEI GOTI 87 84012", "Nome impianto": "PADOVANO LUIGI", "Comune": "ANGRI", "idImpianto": 45211, "points": [{"type": "Feature", "properties": {}, "geometry": {"type": "Point", "coordinates": [14.569725000123, 40.734039000123]}}], "price": 1.739, "ultima_rilevazione": "12/04/2022 18:54:29"}, {"Gestore": "SALVO PETROLI S.A.S. DI PANARIELLO TERESA & C.", "Bandiera": "Pompe Bianche", "Tipo impianto": "Altro", "Indirizzo": "VIA PASSANTI FLOCCO snc  80040", "Nome impianto": "AR PETROLI pv2", "Comune": "POGGIOMARINO", "idImpianto": 46538, "points": [{"type": "Feature", "properties": {}, "geometry": {"type": "Point", "coordinates": [14.527478, 40.79289]}}], "price": 1.726, "ultima_rilevazione": "13/04/2022 08:20:37"}, {"Gestore": "LE SPOSE DI BIANCA DI ANNARUMMA BIANCA", "Bandiera": "Pompe Bianche", "Tipo impianto": "Altro", "Indirizzo": "VIA PALUDICELLA 30A 84012", "Nome impianto": "VISCARDI CARBURANTI METANO GPL", "Comune": "ANGRI", "idImpianto": 42811, "points": [{"type": "Feature", "properties": {}, "geometry": {"type": "Point", "coordinates": [14.548700884665209, 40.72987052231823]}}], "price": 1.804, "ultima_rilevazione": "14/04/2022 09:15:57"}, {"Gestore": "UP S.R.L.S.", "Bandiera": "UP", "Tipo impianto": "Altro", "Indirizzo": "VIA PIANO DEL PRINCIPE SNC 84040", "Nome impianto": "UP - POGGIOMARINO", "Comune": "POGGIOMARINO", "idImpianto": 46677, "points": [{"type": "Feature", "properties": {}, "geometry": {"type": "Point", "coordinates": [14.52587693044461, 40.80285799456114]}}], "price": 1.679, "ultima_rilevazione": "14/04/2022 14:53:06"}, {"Gestore": "GRIMALDI S.R.L.", "Bandiera": "Esso", "Tipo impianto": "Altro", "Indirizzo": "Via Nazionale 398 84012", "Nome impianto": "PIC ANGRI", "Comune": "ANGRI", "idImpianto": 43551, "points": [{"type": "Feature", "properties": {}, "geometry": {"type": "Point", "coordinates": [14.581970125436785, 40.7481375560265]}}], "price": 1.759, "ultima_rilevazione": "14/04/2022 16:09:26"}, {"Gestore": "GRIMALDI GERARDO", "Bandiera": "Api-Ip", "Tipo impianto": "Altro", "Indirizzo": "VIALE DEGLI ARANCI 50 84010", "Nome impianto": "TOTALERG", "Comune": "SANT'EGIDIO DEL MONTE ALBINO", "idImpianto": 43142, "points": [{"type": "Feature", "properties": {}, "geometry": {"type": "Point", "coordinates": [14.586150813491829, 40.73649125888497]}}], "price": 1.769, "ultima_rilevazione": "14/04/2022 19:40:27"}, {"Gestore": "VIN.G S.A.S. DI VICIDOMINI LUCIA", "Bandiera": "Total Erg", "Tipo impianto": "Altro", "Indirizzo": "VIA STABIA SNC, 80057", "Nome impianto": "TOTAL ERG", "Comune": "SANT'ANTONIO ABATE", "idImpianto": 16934, "points": [{"type": "Feature", "properties": {}, "geometry": {"type": "Point", "coordinates": [14.531820682850594, 40.71421398059992]}}], "price": 1.749, "ultima_rilevazione": "14/04/2022 20:06:23"}, {"Gestore": "CRISPO PETROL SERVICE S.N.C. DI CRISPO P. & E.", "Bandiera": "Api-Ip", "Tipo impianto": "Altro", "Indirizzo": "VIA SOTTOSANTI 40 84010", "Nome impianto": "IP", "Comune": "SAN VALENTINO TORIO", "idImpianto": 13494, "points": [{"type": "Feature", "properties": {}, "geometry": {"type": "Point", "coordinates": [14.60153775267554, 40.79552600094498]}}], "price": 1.779, "ultima_rilevazione": "14/04/2022 20:37:27"}, {"Gestore": "MASCOLO FRANCESCO", "Bandiera": "Agip Eni", "Tipo impianto": "Altro", "Indirizzo": "via scafati  80057", "Nome impianto": "Francesco Mascolo", "Comune": "SANT'ANTONIO ABATE", "idImpianto": 7854, "points": [{"type": "Feature", "properties": {}, "geometry": {"type": "Point", "coordinates": [14.539611649212702, 40.72706461128277]}}], "price": 1.799, "ultima_rilevazione": "15/04/2022 09:29:53"}, {"Gestore": "G.B.L. SAS DI BUONO VINCENZO & C.", "Bandiera": "Api-Ip", "Tipo impianto": "Altro", "Indirizzo": "Nazionale Passanti 244 80040", "Nome impianto": "Stazione di servizio F.ll.i Buono", "Comune": "TERZIGNO", "idImpianto": 40678, "points": [{"type": "Feature", "properties": {}, "geometry": {"type": "Point", "coordinates": [14.487735740840437, 40.7753915960935]}}], "price": 1.699, "ultima_rilevazione": "15/04/2022 15:46:46"}, {"Gestore": "AREA FELIX S.A.S. DI AMITRANO POLISTO", "Bandiera": "Api-Ip", "Tipo impianto": "Altro", "Indirizzo": "VIA PLINIO 101 80045", "Nome impianto": "IP Area Felix", "Comune": "POMPEI", "idImpianto": 42083, "points": [{"type": "Feature", "properties": {}, "geometry": {"type": "Point", "coordinates": [14.486825459215993, 40.74677174655304]}}], "price": 1.719, "ultima_rilevazione": "15/04/2022 16:45:05"}, {"Gestore": "DI PALMA GIUSEPPE VINCENZO", "Bandiera": "Tamoil", "Tipo impianto": "Altro", "Indirizzo": "VIA PASSANTI FLOCCO 262 80041", "Nome impianto": "TAMOIL DI DI PALMA GIUSEPPE VINCENZO", "Comune": "BOSCOREALE", "idImpianto": 14102, "points": [{"type": "Feature", "properties": {}, "geometry": {"type": "Point", "coordinates": [14.510054738928602, 40.783947231763015]}}], "price": 1.789, "ultima_rilevazione": "15/04/2022 20:11:37"}, {"Gestore": "DE SANTIS ANTONIO", "Bandiera": "Api-Ip", "Tipo impianto": "Altro", "Indirizzo": "VIA D'ANNA 16 80040", "Nome impianto": "I P", "Comune": "STRIANO", "idImpianto": 12833, "points": [{"type": "Feature", "properties": {}, "geometry": {"type": "Point", "coordinates": [14.5727459530641, 40.81404560002596]}}], "price": 1.699, "ultima_rilevazione": "15/04/2022 21:16:40"}, {"Gestore": "SERVIZI & GESTIONI ITALIA S.R.L.", "Bandiera": "Q8", "Tipo impianto": "Altro", "Indirizzo": "S.S. 18 KM 24+623  80045", "Nome impianto": "POMPEI S.S. 18 KM 24+623", "Comune": "POMPEI", "idImpianto": 23138, "points": [{"type": "Feature", "properties": {}, "geometry": {"type": "Point", "coordinates": [14.49668714313043, 40.74617638697647]}}], "price": 1.724, "ultima_rilevazione": "16/04/2022 01:35:27"}, {"Gestore": "SERVIZI & GESTIONI ITALIA srl", "Bandiera": "Q8", "Tipo impianto": "Altro", "Indirizzo": "SS.268 KM.27 IMP.Q8 SNC 80041", "Nome impianto": "BOSCOREALE SS.268 KM.27 IMP.Q8", "Comune": "BOSCOREALE", "idImpianto": 6706, "points": [{"type": "Feature", "properties": {}, "geometry": {"type": "Point", "coordinates": [14.49257675092622, 40.775989040825344]}}], "price": 1.684, "ultima_rilevazione": "16/04/2022 07:10:45"}, {"Gestore": "CASCONE CARBURANTI DI CINZIA SPINELLI S.A.S.", "Bandiera": "Q8", "Tipo impianto": "Altro", "Indirizzo": "STRADA PONTE DELLA PERSICA 100 80053", "Nome impianto": "Q8", "Comune": "CASTELLAMMARE DI STABIA", "idImpianto": 9595, "points": [{"type": "Feature", "properties": {}, "geometry": {"type": "Point", "coordinates": [14.485897421836851, 40.73187189266499]}}], "price": 1.695, "ultima_rilevazione": "16/04/2022 08:43:12"}, {"Gestore": "MANNA DI MASCOLO LUIGI E ANNARUMMA ALESSANDRO & C. S.N.C.", "Bandiera": "Agip Eni", "Tipo impianto": "Altro", "Indirizzo": "VIA ADRIANA 7 84012", "Nome impianto": "MANNA PETROLI", "Comune": "ANGRI", "idImpianto": 47739, "points": [{"type": "Feature", "properties": {}, "geometry": {"type": "Point", "coordinates": [14.577712763537724, 40.736205840818]}}], "price": 1.739, "ultima_rilevazione": "16/04/2022 10:03:09"}, {"Gestore": "FINELLI ANTONIO S.R.L.", "Bandiera": "Pompe Bianche", "Tipo impianto": "Altro", "Indirizzo": "VIA G.IERVOLINO SNC 80040", "Nome impianto": "finfuel", "Comune": "POGGIOMARINO", "idImpianto": 41100, "points": [{"type": "Feature", "properties": {}, "geometry": {"type": "Point", "coordinates": [14.545948058366776, 40.810310236351945]}}], "price": 1.729, "ultima_rilevazione": "16/04/2022 20:56:51"}, {"Gestore": "F.A.S. PETROLI S.A.S. DI SALVATORE FRANCO", "Bandiera": "Tamoil", "Tipo impianto": "Altro", "Indirizzo": "Via papa giovanni23 18 84012", "Nome impianto": "Distributore tamoil", "Comune": "ANGRI", "idImpianto": 42932, "points": [{"type": "Feature", "properties": {}, "geometry": {"type": "Point", "coordinates": [14.566300069940551, 40.73623133987071]}}], "price": 1.779, "ultima_rilevazione": "17/04/2022 06:10:02"}], "5": [{"Gestore": "EUROPA SERVICE SOCIETA' A RESPONSABILITA' LIMITATA", "Bandiera": "Q8", "Tipo impianto": "Altro", "Indirizzo": "viale europa 154 80053", "Nome impianto": "Q8 Europa Service", "Comune": "CASTELLAMMARE DI STABIA", "idImpianto": 43882, "points": [{"type": "Feature", "properties": {}, "geometry": {"type": "Point", "coordinates": [14.489071915344198, 40.70126796656399]}}], "price": 1.839, "ultima_rilevazione": "21/01/2022 08:22:32"}, {"Gestore": "SQUITIERI  PARETE LINA", "Bandiera": "Pompe Bianche", "Tipo impianto": "Altro", "Indirizzo": "VIA PONTE DI NAPOLI 37 80036", "Nome impianto": "stazione Squitieri Parete Lina", "Comune": "PALMA CAMPANIA", "idImpianto": 38206, "points": [{"type": "Feature", "properties": {}, "geometry": {"type": "Point", "coordinates": [14.54755872488022, 40.83315592945279]}}], "price": 1.887, "ultima_rilevazione": "05/03/2022 12:25:20"}, {"Gestore": "FEDERICO GIOVANNI", "Bandiera": "Energas", "Tipo impianto": "Altro", "Indirizzo": "VIA SETTETERMINI 14/18 80041", "Nome impianto": "Energas", "Comune": "BOSCOREALE", "idImpianto": 42635, "points": [{"type": "Feature", "properties": {}, "geometry": {"type": "Point", "coordinates": [14.471814588993766, 40.75835307443105]}}], "price": 1.799, "ultima_rilevazione": "08/04/2022 08:23:34"}, {"Gestore": "GALLO S.R.L.", "Bandiera": "Pompe Bianche", "Tipo impianto": "Altro", "Indirizzo": " SP SAN GIUSEPPE V./STRIANO 138 80040", "Nome impianto": "gp petrol", "Comune": "POGGIOMARINO", "idImpianto": 41701, "points": [{"type": "Feature", "properties": {}, "geometry": {"type": "Point", "coordinates": [14.551934748888016, 40.82688497619187]}}], "price": 1.729, "ultima_rilevazione": "08/04/2022 23:45:00"}, {"Gestore": "PEGASO CARBURANTI S.R.L.", "Bandiera": "Pompe Bianche", "Tipo impianto": "Altro", "Indirizzo": "Via Taurano 123 84016", "Nome impianto": "Pegaso Carburanti Pagani", "Comune": "PAGANI", "idImpianto": 50920, "points": [{"type": "Feature", "properties": {}, "geometry": {"type": "Point", "coordinates": [14.598368931985153, 40.75241567036497]}}], "price": 1.699, "ultima_rilevazione": "09/04/2022 08:58:19"}, {"Gestore": "SERVIZI & GESTIONI ITALIA srl", "Bandiera": "Q8", "Tipo impianto": "Altro", "Indirizzo": "LOC.MADONNA DELLE GRAZIE 143 80054", "Nome impianto": "GRAGNANO LOC.MADONNA DELLE GRAZIE 143", "Comune": "GRAGNANO", "idImpianto": 6703, "points": [{"type": "Feature", "properties": {}, "geometry": {"type": "Point", "coordinates": [14.50821713313519, 40.70968946774899]}}], "price": 1.779, "ultima_rilevazione": "11/04/2022 00:37:38"}, {"Gestore": "SERVIZI & GESTIONI ITALIA S.R.L.", "Bandiera": "Q8", "Tipo impianto": "Altro", "Indirizzo": "VIA MADONNA DELLE GRAZIE 238 80050", "Nome impianto": "SANTA MARIA LA CARITA'-VIA MADONNA DELLE GRAZIE 238", "Comune": "SANTA MARIA LA CARITA'", "idImpianto": 11728, "points": [{"type": "Feature", "properties": {}, "geometry": {"type": "Point", "coordinates": [14.50580728836053, 40.70934676337253]}}], "price": 1.829, "ultima_rilevazione": "11/04/2022 00:37:43"}, {"Gestore": "SERVIZI & GESTIONI ITALIA S.R.L.", "Bandiera": "Q8", "Tipo impianto": "Altro", "Indirizzo": "VIA DEI PASTAI  ", "Nome impianto": "GRAGNANO VIA DEI PASTAI", "Comune": "GRAGNANO", "idImpianto": 20818, "points": [{"type": "Feature", "properties": {}, "geometry": {"type": "Point", "coordinates": [14.514175396329849, 40.70174512517942]}}], "price": 1.779, "ultima_rilevazione": "11/04/2022 00:38:10"}, {"Gestore": "BORRELLI SALVATORE", "Bandiera": "Pompe Bianche", "Tipo impianto": "Altro", "Indirizzo": "VIA VITTORIO VENETO 94/B", "Nome impianto": "BORRELLI SALVATORE", "Comune": "TORRE ANNUNZIATA", "idImpianto": 17557, "points": [{"type": "Feature", "properties": {}, "geometry": {"type": "Point", "coordinates": [14.462860591757249, 40.753032252449216]}}], "price": 1.859, "ultima_rilevazione": "11/04/2022 17:21:49"}, {"Gestore": "ADINOLFI S.R.L.", "Bandiera": "Repsol", "Tipo impianto": "Altro", "Indirizzo": "VIA PROVINCIALE 133 84010", "Nome impianto": "ADINOLFI SRL STAZ. SERVIZIO IP", "Comune": "SAN VALENTINO TORIO", "idImpianto": 29345, "points": [{"type": "Feature", "properties": {}, "geometry": {"type": "Point", "coordinates": [14.62157833997844, 40.78672217336834]}}], "price": 1.779, "ultima_rilevazione": "12/04/2022 07:24:05"}, {"Gestore": "PETROLCHIMICA SUD - S.R.L.", "Bandiera": "Pompe Bianche", "Tipo impianto": "Altro", "Indirizzo": "VIA PROVINCIALE G. AMENDOLA SNC 84087", "Nome impianto": "SARNO", "Comune": "SARNO", "idImpianto": 20297, "points": [{"type": "Feature", "properties": {}, "geometry": {"type": "Point", "coordinates": [14.617112054027416, 40.806991418981085]}}], "price": 1.719, "ultima_rilevazione": "12/04/2022 10:02:42"}, {"Gestore": "AUTOSTAZIONE CARPENTIERI FILIPPO", "Bandiera": "Loro", "Tipo impianto": "Altro", "Indirizzo": "VIA VITTORIO VENETO 360 80058", "Nome impianto": "mercato libero", "Comune": "TORRE ANNUNZIATA", "idImpianto": 44061, "points": [{"type": "Feature", "properties": {}, "geometry": {"type": "Point", "coordinates": [14.452028495084278, 40.75903786248801]}}], "price": 1.699, "ultima_rilevazione": "12/04/2022 11:13:06"}, {"Gestore": "AR.CI PETROLI SAS DI CIVALE GIUSEPPE & C.", "Bandiera": "Repsol", "Tipo impianto": "Altro", "Indirizzo": "via Cardinal Prisco 83 80042", "Nome impianto": "AR.CI PETROLI SAS DI CIVALE GIUSEPPE & C.", "Comune": "BOSCOTRECASE", "idImpianto": 39975, "points": [{"type": "Feature", "properties": {}, "geometry": {"type": "Point", "coordinates": [14.46732119510648, 40.77272375051156]}}], "price": 1.699, "ultima_rilevazione": "12/04/2022 13:17:22"}, {"Gestore": "ALMA S.R.L.", "Bandiera": "Tamoil", "Tipo impianto": "Autostradale", "Indirizzo": "Autostrada A30 CASERTA-SALERNO, Km. 33+400, dir. Sud 80040", "Nome impianto": "ANGIOINA OVEST", "Comune": "STRIANO", "idImpianto": 3680, "points": [{"type": "Feature", "properties": {}, "geometry": {"type": "Point", "coordinates": [14.568405070114068, 40.82695607098962]}}], "price": 1.799, "ultima_rilevazione": "12/04/2022 17:15:02"}, {"Gestore": "LETTIERI LUIGI", "Bandiera": "Pompe Bianche", "Tipo impianto": "Altro", "Indirizzo": "via nazionale  80042", "Nome impianto": "Energas", "Comune": "BOSCOTRECASE", "idImpianto": 31992, "points": [{"type": "Feature", "properties": {}, "geometry": {"type": "Point", "coordinates": [14.466066509485245, 40.7689204763078]}}], "price": 1.709, "ultima_rilevazione": "13/04/2022 07:20:32"}, {"Gestore": "ERBETTI ANTIMO", "Bandiera": "Api-Ip", "Tipo impianto": "Altro", "Indirizzo": "VIA SEPOLCRI S.N. 80042", "Nome impianto": "TOTALERG", "Comune": "BOSCOTRECASE", "idImpianto": 42809, "points": [{"type": "Feature", "properties": {}, "geometry": {"type": "Point", "coordinates": [14.455216974020004, 40.762702468546806]}}], "price": 1.699, "ultima_rilevazione": "13/04/2022 12:18:40"}, {"Gestore": "MULTICARBURANTE DI MARESCA ANNA & C. S.N.C.", "Bandiera": "Agip Eni", "Tipo impianto": "Altro", "Indirizzo": "Via Taurano 128 84016", "Nome impianto": "Multicarburante di Maresca Anna & C. s.n.c.", "Comune": "PAGANI", "idImpianto": 5643, "points": [{"type": "Feature", "properties": {}, "geometry": {"type": "Point", "coordinates": [14.592188000679016, 40.75515215542613]}}], "price": 1.784, "ultima_rilevazione": "14/04/2022 08:56:40"}, {"Gestore": "PETROL SERVICE S.A.S. DI CASCONE VINCENZO", "Bandiera": "Q8", "Tipo impianto": "Altro", "Indirizzo": "VIA MANGIONI 1 84016", "Nome impianto": "ENERGAS", "Comune": "PAGANI", "idImpianto": 28298, "points": [{"type": "Feature", "properties": {}, "geometry": {"type": "Point", "coordinates": [14.619114696979524, 40.75153343863095]}}], "price": 1.73, "ultima_rilevazione": "14/04/2022 11:09:16"}, {"Gestore": "LANGELLA CARBURANTI DI LANGELLA DAVIDE", "Bandiera": "Pompe Bianche", "Tipo impianto": "Altro", "Indirizzo": "VIA FILETTINE 118 84016", "Nome impianto": "LANGELLA CARBURANTI", "Comune": "PAGANI", "idImpianto": 49857, "points": [{"type": "Feature", "properties": {}, "geometry": {"type": "Point", "coordinates": [14.608788183872583, 40.755019758641126]}}], "price": 1.698, "ultima_rilevazione": "14/04/2022 11:31:56"}, {"Gestore": "G. V. CARBURANTI S.A.S. DI CIARAVOLO MARIAROSARIA & C.", "Bandiera": "Esso", "Tipo impianto": "Altro", "Indirizzo": "Via Castellammare 120 80054", "Nome impianto": "Stazione Esso Gragnano", "Comune": "GRAGNANO", "idImpianto": 43246, "points": [{"type": "Feature", "properties": {}, "geometry": {"type": "Point", "coordinates": [14.505942105522536, 40.69418763269579]}}], "price": 1.769, "ultima_rilevazione": "15/04/2022 06:41:09"}, {"Gestore": "CA.VER. S.N.C. DI CACCIOPPOLI MAURIZIO E GIANLUCA", "Bandiera": "Agip Eni", "Tipo impianto": "Altro", "Indirizzo": "VIALE EUROPA 87 80053", "Nome impianto": "ENI", "Comune": "CASTELLAMMARE DI STABIA", "idImpianto": 32472, "points": [{"type": "Feature", "properties": {}, "geometry": {"type": "Point", "coordinates": [14.489392057717168, 40.70175169323834]}}], "price": 1.799, "ultima_rilevazione": "15/04/2022 06:59:37"}, {"Gestore": "COZZOLINO S.A.S. DI COZZOLINO LUIGI & C.", "Bandiera": "Api-Ip", "Tipo impianto": "Altro", "Indirizzo": "capitano g. rea   99 80040", "Nome impianto": "Cozzolino s.a.s.", "Comune": "TRECASE", "idImpianto": 41703, "points": [{"type": "Feature", "properties": {}, "geometry": {"type": "Point", "coordinates": [14.448880687310748, 40.77164441469695]}}], "price": 1.719, "ultima_rilevazione": "15/04/2022 12:44:18"}, {"Gestore": "CARBURANTI MILONE DI MILONE ULDERICO", "Bandiera": "Api-Ip", "Tipo impianto": "Altro", "Indirizzo": "VIA STRIANO 48 84087", "Nome impianto": "IP", "Comune": "SARNO", "idImpianto": 43075, "points": [{"type": "Feature", "properties": {}, "geometry": {"type": "Point", "coordinates": [14.607442705522544, 40.815288970048826]}}], "price": 1.699, "ultima_rilevazione": "15/04/2022 14:45:27"}, {"Gestore": "UP S.R.L.S.", "Bandiera": "UP", "Tipo impianto": "Altro", "Indirizzo": "VIA S. VALENTINO SARNO SNC 84087", "Nome impianto": "UP - SARNO", "Comune": "SARNO", "idImpianto": 46770, "points": [{"type": "Feature", "properties": {}, "geometry": {"type": "Point", "coordinates": [14.613734000123, 40.805797000123]}}], "price": 1.719, "ultima_rilevazione": "15/04/2022 15:28:09"}, {"Gestore": "G.P. CARBURANTI S.R.L.", "Bandiera": "Pompe Bianche", "Tipo impianto": "Altro", "Indirizzo": "Via A. De Gasperi 55 80053", "Nome impianto": "Atala Oil", "Comune": "CASTELLAMMARE DI STABIA", "idImpianto": 45205, "points": [{"type": "Feature", "properties": {}, "geometry": {"type": "Point", "coordinates": [14.483062982447109, 40.70279398192256]}}], "price": 1.879, "ultima_rilevazione": "15/04/2022 15:58:15"}, {"Gestore": "SAVINELLI CARBURANTI S.A.S. DI MARCO SAVINELLI & C.", "Bandiera": "Esso", "Tipo impianto": "Autostradale", "Indirizzo": "A3 NAPOLI-SALERNO, Km. 20, sud 80058", "Nome impianto": "TORRE ANNUNZIATA OVEST", "Comune": "TORRE ANNUNZIATA", "idImpianto": 41777, "points": [{"type": "Feature", "properties": {}, "geometry": {"type": "Point", "coordinates": [14.472215473651886, 40.75156676184485]}}], "price": 1.849, "ultima_rilevazione": "15/04/2022 17:29:12"}, {"Gestore": "STAZIONE DI SERVIZIO AMMIRATI RAFFAELE", "Bandiera": "Pompe Bianche", "Tipo impianto": "Altro", "Indirizzo": "VIA FILIPPO TURATI 419 80040", "Nome impianto": "AR", "Comune": "POGGIOMARINO", "idImpianto": 46555, "points": [{"type": "Feature", "properties": {}, "geometry": {"type": "Point", "coordinates": [14.529054975339363, 40.814117982886174]}}], "price": 1.749, "ultima_rilevazione": "15/04/2022 19:43:45"}, {"Gestore": "F.S. PETROLI S.R.L. A CAPITALE RIDOTTO", "Bandiera": "Agip Eni", "Tipo impianto": "Altro", "Indirizzo": "VIA PADRE VINCENZO SORRENTINO SNC 84016", "Nome impianto": "F.S. PETROLI S.R.L.", "Comune": "PAGANI", "idImpianto": 20971, "points": [{"type": "Feature", "properties": {}, "geometry": {"type": "Point", "coordinates": [14.61111232638359, 40.7535128869219]}}], "price": 1.794, "ultima_rilevazione": "15/04/2022 20:01:15"}, {"Gestore": "SERVIZI & GESTIONI ITALIA S.R.L.", "Bandiera": "Q8", "Tipo impianto": "Altro", "Indirizzo": "VIA NAPOLI 298 80053", "Nome impianto": "CASTELLAMMARE DI STABIA-VIA NAPOLI 298", "Comune": "CASTELLAMMARE DI STABIA", "idImpianto": 11740, "points": [{"type": "Feature", "properties": {}, "geometry": {"type": "Point", "coordinates": [14.479706705522515, 40.720025410796254]}}], "price": 1.724, "ultima_rilevazione": "16/04/2022 07:10:46"}, {"Gestore": "CHIACCHIERA FRANCESCO", "Bandiera": "Agip Eni", "Tipo impianto": "Altro", "Indirizzo": "VIA VITTORIO VENETO 2 80058", "Nome impianto": "ENI spa", "Comune": "TORRE ANNUNZIATA", "idImpianto": 46634, "points": [{"type": "Feature", "properties": {}, "geometry": {"type": "Point", "coordinates": [14.465613216161728, 40.75009524376741]}}], "price": 1.799, "ultima_rilevazione": "16/04/2022 07:11:10"}, {"Gestore": "POLIMENO CARLO", "Bandiera": "Api-Ip", "Tipo impianto": "Altro", "Indirizzo": "VIA TENENTE LUIGI ROSSI 45 80042", "Nome impianto": "Api Ip", "Comune": "BOSCOTRECASE", "idImpianto": 40335, "points": [{"type": "Feature", "properties": {}, "geometry": {"type": "Point", "coordinates": [14.459966760747877, 40.76970186414686]}}], "price": 1.705, "ultima_rilevazione": "16/04/2022 08:04:13"}, {"Gestore": "COCCURULLO COSIMO", "Bandiera": "Pompe Bianche", "Tipo impianto": "Altro", "Indirizzo": "VIA E.CHIUNZI 2 84010", "Nome impianto": "Coccurullo Cosimo", "Comune": "CORBARA", "idImpianto": 50799, "points": [{"type": "Feature", "properties": {}, "geometry": {"type": "Point", "coordinates": [14.597206204893496, 40.72227233103176]}}], "price": 1.786, "ultima_rilevazione": "16/04/2022 08:11:53"}, {"Gestore": "VELAR S.R.L.", "Bandiera": "Oceania", "Tipo impianto": "Altro", "Indirizzo": "VIA BOTTARO SNC 80058", "Nome impianto": "OCEANIA (TORRE)", "Comune": "TORRE ANNUNZIATA", "idImpianto": 46731, "points": [{"type": "Feature", "properties": {}, "geometry": {"type": "Point", "coordinates": [14.473502292261742, 40.7453950371418]}}], "price": 1.734, "ultima_rilevazione": "16/04/2022 08:22:50"}, {"Gestore": "MANNA DI MASCOLO LUIGI E ANNARUMMA ALESSANDRO & C. S.N.C.", "Bandiera": "Q8", "Tipo impianto": "Altro", "Indirizzo": "via san domenico 98 84016", "Nome impianto": "ALGISA PETROLI ", "Comune": "PAGANI", "idImpianto": 43054, "points": [{"type": "Feature", "properties": {}, "geometry": {"type": "Point", "coordinates": [14.60260385959782, 40.74152181786024]}}], "price": 1.799, "ultima_rilevazione": "16/04/2022 10:03:04"}, {"Gestore": "TRAMONTANO S.R.L.", "Bandiera": "Esso", "Tipo impianto": "Altro", "Indirizzo": "VIA SARNO-STRIANO  84087", "Nome impianto": "DISTRIBUTORE ESSO", "Comune": "SARNO", "idImpianto": 13697, "points": [{"type": "Feature", "properties": {}, "geometry": {"type": "Point", "coordinates": [14.592645317316055, 40.80898497152845]}}], "price": 1.739, "ultima_rilevazione": "16/04/2022 10:27:49"}, {"Gestore": "IP SERVICES S.R.L.", "Bandiera": "Api-Ip", "Tipo impianto": "Altro", "Indirizzo": "VIA VENETO 114 80058", "Nome impianto": "TORRE ANNUNZIATA - VENETO", "Comune": "TORRE ANNUNZIATA", "idImpianto": 29700, "points": [{"type": "Feature", "properties": {}, "geometry": {"type": "Point", "coordinates": [14.461535626983618, 40.75435936372418]}}], "price": 1.698, "ultima_rilevazione": "16/04/2022 12:01:28"}, {"Gestore": "IP SERVICES S.R.L.", "Bandiera": "Api-Ip", "Tipo impianto": "Altro", "Indirizzo": "Viale Kennedy 23 84010", "Nome impianto": "S.EGIDIO MONTE ALBINO", "Comune": "SANT'EGIDIO DEL MONTE ALBINO", "idImpianto": 34896, "points": [{"type": "Feature", "properties": {}, "geometry": {"type": "Point", "coordinates": [14.597060343586008, 40.738189638920026]}}], "price": 1.739, "ultima_rilevazione": "16/04/2022 12:03:05"}, {"Gestore": "VOLO GROUP S.R.L.", "Bandiera": "CONAD", "Tipo impianto": "Altro", "Indirizzo": "VIA ALCIDE DE GASPERI 340 84016", "Nome impianto": "CONAD SUPERMERCATO", "Comune": "PAGANI", "idImpianto": 32396, "points": [{"type": "Feature", "properties": {}, "geometry": {"type": "Point", "coordinates": [14.59837898998262, 40.74986271798383]}}], "price": 1.659, "ultima_rilevazione": "17/04/2022 05:00:05"}]}, "Gasolio High Quality": {"1": [], "3": [], "5": [{"Gestore": "LANGELLA CARBURANTI DI LANGELLA DAVIDE", "Bandiera": "Pompe Bianche", "Tipo impianto": "Altro", "Indirizzo": "VIA FILETTINE 118 84016", "Nome impianto": "LANGELLA CARBURANTI", "Comune": "PAGANI", "idImpianto": 49857, "points": [{"type": "Feature", "properties": {}, "geometry": {"type": "Point", "coordinates": [14.608788183872583, 40.755019758641126]}}], "price": 1.799, "ultima_rilevazione": "14/04/2022 11:31:56"}, {"Gestore": "SAVINELLI CARBURANTI S.A.S. DI MARCO SAVINELLI & C.", "Bandiera": "Esso", "Tipo impianto": "Autostradale", "Indirizzo": "A3 NAPOLI-SALERNO, Km. 20, sud 80058", "Nome impianto": "TORRE ANNUNZIATA OVEST", "Comune": "TORRE ANNUNZIATA", "idImpianto": 41777, "points": [{"type": "Feature", "properties": {}, "geometry": {"type": "Point", "coordinates": [14.472215473651886, 40.75156676184485]}}], "price": 1.999, "ultima_rilevazione": "15/04/2022 17:29:12"}, {"Gestore": "TRAMONTANO S.R.L.", "Bandiera": "Esso", "Tipo impianto": "Altro", "Indirizzo": "VIA SARNO-STRIANO  84087", "Nome impianto": "DISTRIBUTORE ESSO", "Comune": "SARNO", "idImpianto": 13697, "points": [{"type": "Feature", "properties": {}, "geometry": {"type": "Point", "coordinates": [14.592645317316055, 40.80898497152845]}}], "price": 1.969, "ultima_rilevazione": "16/04/2022 10:27:49"}]}, "null": {}, "GPL": {"1": [{"Gestore": "PEGASO CARBURANTI S.R.L.", "Bandiera": "Pompe Bianche", "Tipo impianto": "Altro", "Indirizzo": "Via Alfonso Annunziata SNC 84018", "Nome impianto": "Pegaso Carburanti", "Comune": "SCAFATI", "idImpianto": 22998, "points": [{"type": "Feature", "properties": {}, "geometry": {"type": "Point", "coordinates": [14.544185959663425, 40.7726643749555]}}], "price": 0.795, "ultima_rilevazione": "09/04/2022 08:56:26"}, {"Gestore": "2 G PETROLI S.R.L. SEMPLIFICATA", "Bandiera": "Pompe Bianche", "Tipo impianto": "Altro", "Indirizzo": "VIA G.B. CASCIELLO SNC 84018", "Nome impianto": "Eurogas", "Comune": "SCAFATI", "idImpianto": 46282, "points": [{"type": "Feature", "properties": {}, "geometry": {"type": "Point", "coordinates": [14.519029453570738, 40.76145869786863]}}], "price": 0.795, "ultima_rilevazione": "11/04/2022 18:23:02"}, {"Gestore": "POMPEANGAS - S.A.S. DI ALLEGRO CATELLO & C.", "Bandiera": "Pompe Bianche", "Tipo impianto": "Altro", "Indirizzo": "VIA SALICE 157 84012", "Nome impianto": "BREAK ZONE  - POMPEANGAS", "Comune": "ANGRI", "idImpianto": 16158, "points": [{"type": "Feature", "properties": {}, "geometry": {"type": "Point", "coordinates": [14.56152766942978, 40.74097687632511]}}], "price": 0.82, "ultima_rilevazione": "12/04/2022 09:41:14"}, {"Gestore": "SUD PETROLI DI CESARANO ANGELA E C. S.R.L.", "Bandiera": "Pompe Bianche", "Tipo impianto": "Altro", "Indirizzo": "VIA MARICONDA SNC 80045", "Nome impianto": "SUD PETROLI", "Comune": "POMPEI", "idImpianto": 41655, "points": [{"type": "Feature", "properties": {}, "geometry": {"type": "Point", "coordinates": [14.516078978776932, 40.73455270817856]}}], "price": 0.799, "ultima_rilevazione": "12/04/2022 10:32:54"}, {"Gestore": "MERIDIONAL G.P.L. - S.R.L.", "Bandiera": "Pompe Bianche", "Tipo impianto": "Altro", "Indirizzo": "VIA SPINELLI 22 80045", "Nome impianto": "Meridional Gpl srl", "Comune": "POMPEI", "idImpianto": 9615, "points": [{"type": "Feature", "properties": {}, "geometry": {"type": "Point", "coordinates": [14.504981338977814, 40.76913387129056]}}], "price": 0.795, "ultima_rilevazione": "14/04/2022 08:14:12"}, {"Gestore": "LE SPOSE DI BIANCA DI ANNARUMMA BIANCA", "Bandiera": "Pompe Bianche", "Tipo impianto": "Altro", "Indirizzo": "VIA ORTALONGA 87 84018", "Nome impianto": "ANNARUMMA BIANCA", "Comune": "SCAFATI", "idImpianto": 34239, "points": [{"type": "Feature", "properties": {}, "geometry": {"type": "Point", "coordinates": [14.549692429938432, 40.762234569257394]}}], "price": 0.82, "ultima_rilevazione": "14/04/2022 09:15:21"}, {"Gestore": "ORGANIZZAZIONE SERVIZI AUTO - O.S.A. - S.P.A.", "Bandiera": "Esso", "Tipo impianto": "Altro", "Indirizzo": "VIA PASSANTI 267 84018", "Nome impianto": "ESSO SCAFATI", "Comune": "SCAFATI", "idImpianto": 50249, "points": [{"type": "Feature", "properties": {}, "geometry": {"type": "Point", "coordinates": [14.517707887191804, 40.76596745019975]}}], "price": 0.795, "ultima_rilevazione": "14/04/2022 16:06:44"}, {"Gestore": "DELTA PETROLI S.R.L.", "Bandiera": "Api-Ip", "Tipo impianto": "Altro", "Indirizzo": "Via Tre Ponti snc 80045", "Nome impianto": "Delta Petroli S.r.l. (Pompei)", "Comune": "POMPEI", "idImpianto": 32071, "points": [{"type": "Feature", "properties": {}, "geometry": {"type": "Point", "coordinates": [14.506644308567047, 40.76120620819259]}}], "price": 0.795, "ultima_rilevazione": "16/04/2022 10:27:27"}], "3": [{"Gestore": "LONGAS  S.R.L.", "Bandiera": "Pompe Bianche", "Tipo impianto": "Altro", "Indirizzo": "VIA PALMA 1 80040", "Nome impianto": "Longas", "Comune": "POGGIOMARINO", "idImpianto": 41864, "points": [{"type": "Feature", "properties": {}, "geometry": {"type": "Point", "coordinates": [14.55616056919098, 40.81263791225227]}}], "price": 0.855, "ultima_rilevazione": "12/04/2022 09:54:04"}, {"Gestore": "SALVO PETROLI S.A.S. DI PANARIELLO TERESA & C.", "Bandiera": "Pompe Bianche", "Tipo impianto": "Altro", "Indirizzo": "VIA PASSANTI FLOCCO snc  80040", "Nome impianto": "AR PETROLI pv2", "Comune": "POGGIOMARINO", "idImpianto": 46538, "points": [{"type": "Feature", "properties": {}, "geometry": {"type": "Point", "coordinates": [14.527478, 40.79289]}}], "price": 0.865, "ultima_rilevazione": "13/04/2022 08:20:37"}, {"Gestore": "LE SPOSE DI BIANCA DI ANNARUMMA BIANCA", "Bandiera": "Pompe Bianche", "Tipo impianto": "Altro", "Indirizzo": "VIA PALUDICELLA 30A 84012", "Nome impianto": "VISCARDI CARBURANTI METANO GPL", "Comune": "ANGRI", "idImpianto": 42811, "points": [{"type": "Feature", "properties": {}, "geometry": {"type": "Point", "coordinates": [14.548700884665209, 40.72987052231823]}}], "price": 0.83, "ultima_rilevazione": "14/04/2022 09:15:57"}, {"Gestore": "VIN.G S.A.S. DI VICIDOMINI LUCIA", "Bandiera": "Total Erg", "Tipo impianto": "Altro", "Indirizzo": "VIA STABIA SNC, 80057", "Nome impianto": "TOTAL ERG", "Comune": "SANT'ANTONIO ABATE", "idImpianto": 16934, "points": [{"type": "Feature", "properties": {}, "geometry": {"type": "Point", "coordinates": [14.531820682850594, 40.71421398059992]}}], "price": 0.829, "ultima_rilevazione": "14/04/2022 20:06:23"}], "5": [{"Gestore": "LINCAR GAS S.R.L.", "Bandiera": "Pompe Bianche", "Tipo impianto": "Altro", "Indirizzo": "VIA TAVERNA NOVA  80036", "Nome impianto": "Lincar gas", "Comune": "PALMA CAMPANIA", "idImpianto": 10966, "points": [{"type": "Feature", "properties": {}, "geometry": {"type": "Point", "coordinates": [14.548569917678831, 40.83698165227726]}}], "price": 0.768, "ultima_rilevazione": "04/01/2022 08:51:44"}, {"Gestore": "FEDERICO GIOVANNI", "Bandiera": "Energas", "Tipo impianto": "Altro", "Indirizzo": "VIA SETTETERMINI 14/18 80041", "Nome impianto": "Energas", "Comune": "BOSCOREALE", "idImpianto": 42635, "points": [{"type": "Feature", "properties": {}, "geometry": {"type": "Point", "coordinates": [14.471814588993766, 40.75835307443105]}}], "price": 0.829, "ultima_rilevazione": "08/04/2022 08:23:34"}, {"Gestore": "PEGASO CARBURANTI S.R.L.", "Bandiera": "Pompe Bianche", "Tipo impianto": "Altro", "Indirizzo": "Via Taurano 123 84016", "Nome impianto": "Pegaso Carburanti Pagani", "Comune": "PAGANI", "idImpianto": 50920, "points": [{"type": "Feature", "properties": {}, "geometry": {"type": "Point", "coordinates": [14.598368931985153, 40.75241567036497]}}], "price": 0.799, "ultima_rilevazione": "09/04/2022 08:58:19"}, {"Gestore": "USA GAS SRL", "Bandiera": "Pompe Bianche", "Tipo impianto": "Altro", "Indirizzo": "VIA VASCA AL PIANILLO SNC 80047", "Nome impianto": "USAGAS SRL", "Comune": "SAN GIUSEPPE VESUVIANO", "idImpianto": 51220, "points": [{"type": "Feature", "properties": {}, "geometry": {"type": "Point", "coordinates": [14.520150991588135, 40.827827710435145]}}], "price": 0.784, "ultima_rilevazione": "11/04/2022 10:09:51"}, {"Gestore": "ALMA S.R.L.", "Bandiera": "Tamoil", "Tipo impianto": "Autostradale", "Indirizzo": "Autostrada A30 CASERTA-SALERNO, Km. 33+400, dir. Sud 80040", "Nome impianto": "ANGIOINA OVEST", "Comune": "STRIANO", "idImpianto": 3680, "points": [{"type": "Feature", "properties": {}, "geometry": {"type": "Point", "coordinates": [14.568405070114068, 40.82695607098962]}}], "price": 0.939, "ultima_rilevazione": "12/04/2022 17:15:02"}, {"Gestore": "MULTICARBURANTE DI MARESCA ANNA & C. S.N.C.", "Bandiera": "Agip Eni", "Tipo impianto": "Altro", "Indirizzo": "Via Taurano 128 84016", "Nome impianto": "Multicarburante di Maresca Anna & C. s.n.c.", "Comune": "PAGANI", "idImpianto": 5643, "points": [{"type": "Feature", "properties": {}, "geometry": {"type": "Point", "coordinates": [14.592188000679016, 40.75515215542613]}}], "price": 0.809, "ultima_rilevazione": "14/04/2022 08:56:40"}, {"Gestore": "STAZIONE DI SERVIZIO AMMIRATI RAFFAELE", "Bandiera": "Pompe Bianche", "Tipo impianto": "Altro", "Indirizzo": "VIA FILIPPO TURATI 419 80040", "Nome impianto": "AR", "Comune": "POGGIOMARINO", "idImpianto": 46555, "points": [{"type": "Feature", "properties": {}, "geometry": {"type": "Point", "coordinates": [14.529054975339363, 40.814117982886174]}}], "price": 0.869, "ultima_rilevazione": "15/04/2022 19:43:45"}, {"Gestore": "TRAMONTANO S.R.L.", "Bandiera": "Esso", "Tipo impianto": "Altro", "Indirizzo": "VIA SARNO-STRIANO  84087", "Nome impianto": "DISTRIBUTORE ESSO", "Comune": "SARNO", "idImpianto": 13697, "points": [{"type": "Feature", "properties": {}, "geometry": {"type": "Point", "coordinates": [14.592645317316055, 40.80898497152845]}}], "price": 0.849, "ultima_rilevazione": "16/04/2022 10:27:49"}]}, "Gasolio": {"1": [{"Gestore": "AFIERO MICHELE", "Bandiera": "Loro", "Tipo impianto": "Altro", "Indirizzo": "VIA MARTIRI D'UNGHERIA 101 84018", "Nome impianto": "AFIERO MICHELE", "Comune": "SCAFATI", "idImpianto": 40883, "points": [{"type": "Feature", "properties": {}, "geometry": {"type": "Point", "coordinates": [14.52107514283989, 40.75196803180263]}}], "price": 1.794, "ultima_rilevazione": "06/04/2022 17:29:47"}, {"Gestore": "SERVIZI & GESTIONI ITALIA srl", "Bandiera": "Q8", "Tipo impianto": "Altro", "Indirizzo": "VIA S.P.UNGARO SNC 84018", "Nome impianto": "SCAFATI VIA S.P.UNGARO", "Comune": "SCAFATI", "idImpianto": 6738, "points": [{"type": "Feature", "properties": {}, "geometry": {"type": "Point", "coordinates": [14.522836018420094, 40.7591448349824]}}], "price": 1.739, "ultima_rilevazione": "11/04/2022 00:37:55"}, {"Gestore": "SERVIZI & GESTIONI ITALIA srl", "Bandiera": "Q8", "Tipo impianto": "Altro", "Indirizzo": "VIA S.P.21 KM 2 SNC 84018", "Nome impianto": "SCAFATI VIA S.P.21 KM 2", "Comune": "SCAFATI", "idImpianto": 6739, "points": [{"type": "Feature", "properties": {}, "geometry": {"type": "Point", "coordinates": [14.54173958283809, 40.77428223475604]}}], "price": 1.789, "ultima_rilevazione": "11/04/2022 00:37:55"}, {"Gestore": "PAKO CARBURANTI S.R.L.", "Bandiera": "Pompe Bianche", "Tipo impianto": "Altro", "Indirizzo": "VIA MARRA 175 80041", "Nome impianto": "PAKO CARBURANTI", "Comune": "BOSCOREALE", "idImpianto": 47980, "points": [{"type": "Feature", "properties": {}, "geometry": {"type": "Point", "coordinates": [14.546382294477445, 40.78290918565107]}}], "price": 1.699, "ultima_rilevazione": "11/04/2022 09:20:21"}, {"Gestore": "SA.MO. PETROLI DI SALVATORE MOSCA", "Bandiera": "Pompe Bianche", "Tipo impianto": "Altro", "Indirizzo": "via ripuaria 75 80045", "Nome impianto": "m petroli", "Comune": "POMPEI", "idImpianto": 33087, "points": [{"type": "Feature", "properties": {}, "geometry": {"type": "Point", "coordinates": [14.499395071094568, 40.73940683796222]}}], "price": 1.795, "ultima_rilevazione": "11/04/2022 11:33:04"}, {"Gestore": "PETROLCHIMICA SUD - S.R.L.", "Bandiera": "Pompe Bianche", "Tipo impianto": "Altro", "Indirizzo": "VIA CAMPIA SNC 84013", "Nome impianto": "ANGRI", "Comune": "ANGRI", "idImpianto": 35638, "points": [{"type": "Feature", "properties": {}, "geometry": {"type": "Point", "coordinates": [14.561990350484848, 40.73931612267616]}}], "price": 1.669, "ultima_rilevazione": "11/04/2022 11:59:05"}, {"Gestore": "CARBURANTE DI CASCONE NICOLA", "Bandiera": "Esso", "Tipo impianto": "Altro", "Indirizzo": "VIA DANTE ALIGHIERI 27 84018", "Nome impianto": "CARBURANTE DI CASCONE NICOLA", "Comune": "SCAFATI", "idImpianto": 45066, "points": [{"type": "Feature", "properties": {}, "geometry": {"type": "Point", "coordinates": [14.534445000123, 40.749389000123]}}], "price": 1.699, "ultima_rilevazione": "11/04/2022 18:19:28"}, {"Gestore": "2 G PETROLI S.R.L. SEMPLIFICATA", "Bandiera": "Pompe Bianche", "Tipo impianto": "Altro", "Indirizzo": "VIA G.B. CASCIELLO SNC 84018", "Nome impianto": "Eurogas", "Comune": "SCAFATI", "idImpianto": 46282, "points": [{"type": "Feature", "properties": {}, "geometry": {"type": "Point", "coordinates": [14.519029453570738, 40.76145869786863]}}], "price": 1.725, "ultima_rilevazione": "11/04/2022 18:23:02"}, {"Gestore": "POMPEANGAS - S.A.S. DI ALLEGRO CATELLO & C.", "Bandiera": "Pompe Bianche", "Tipo impianto": "Altro", "Indirizzo": "VIA SALICE 157 84012", "Nome impianto": "BREAK ZONE  - POMPEANGAS", "Comune": "ANGRI", "idImpianto": 16158, "points": [{"type": "Feature", "properties": {}, "geometry": {"type": "Point", "coordinates": [14.56152766942978, 40.74097687632511]}}], "price": 1.78, "ultima_rilevazione": "12/04/2022 09:41:14"}, {"Gestore": "GALASSO GIUSEPPINA", "Bandiera": "Pompe Bianche", "Tipo impianto": "Altro", "Indirizzo": "VIA NUOVA SAN MARZANO 98 80040", "Nome impianto": "GALASSO GIUSEPPINA", "Comune": "POGGIOMARINO", "idImpianto": 22356, "points": [{"type": "Feature", "properties": {}, "geometry": {"type": "Point", "coordinates": [14.545705318450814, 40.79643830714438]}}], "price": 1.779, "ultima_rilevazione": "12/04/2022 15:54:10"}, {"Gestore": "SANTA MARIA CARBURANTI S.R.L.", "Bandiera": "Pompe Bianche", "Tipo impianto": "Altro", "Indirizzo": "VIA CARRARA SNC 80050", "Nome impianto": "SANTA MARIA CARBURANTI SRL", "Comune": "SANTA MARIA LA CARITA'", "idImpianto": 47407, "points": [{"type": "Feature", "properties": {}, "geometry": {"type": "Point", "coordinates": [14.510791003704073, 40.73084384549661]}}], "price": 1.769, "ultima_rilevazione": "13/04/2022 09:32:37"}, {"Gestore": "VINCENZO CASCONE S.R.L.", "Bandiera": "Pompe Bianche", "Tipo impianto": "Altro", "Indirizzo": "VIA SCAFATI 223 80050", "Nome impianto": "STAZIONE DI SERVIZIO CASCONE", "Comune": "SANTA MARIA LA CARITA'", "idImpianto": 40789, "points": [{"type": "Feature", "properties": {}, "geometry": {"type": "Point", "coordinates": [14.513311487102555, 40.72861658682665]}}], "price": 1.759, "ultima_rilevazione": "13/04/2022 16:45:14"}, {"Gestore": "MERIDIONAL G.P.L. - S.R.L.", "Bandiera": "Pompe Bianche", "Tipo impianto": "Altro", "Indirizzo": "VIA SPINELLI 22 80045", "Nome impianto": "Meridional Gpl srl", "Comune": "POMPEI", "idImpianto": 9615, "points": [{"type": "Feature", "properties": {}, "geometry": {"type": "Point", "coordinates": [14.504981338977814, 40.76913387129056]}}], "price": 1.719, "ultima_rilevazione": "14/04/2022 08:14:12"}, {"Gestore": "ORGANIZZAZIONE SERVIZI AUTO - O.S.A. - S.P.A.", "Bandiera": "Esso", "Tipo impianto": "Altro", "Indirizzo": "VIA PASSANTI 267 84018", "Nome impianto": "ESSO SCAFATI", "Comune": "SCAFATI", "idImpianto": 50249, "points": [{"type": "Feature", "properties": {}, "geometry": {"type": "Point", "coordinates": [14.517707887191804, 40.76596745019975]}}], "price": 1.729, "ultima_rilevazione": "14/04/2022 16:06:44"}, {"Gestore": "MI.SA. CARBURANTI S.R.L.", "Bandiera": "Agip Eni", "Tipo impianto": "Altro", "Indirizzo": "VIA DE GASPERI 47 84018", "Nome impianto": "MISA CARBURANTI SRL", "Comune": "SCAFATI", "idImpianto": 43176, "points": [{"type": "Feature", "properties": {}, "geometry": {"type": "Point", "coordinates": [14.52959227423969, 40.75511612456466]}}], "price": 1.744, "ultima_rilevazione": "15/04/2022 07:47:21"}, {"Gestore": "LA MURA GROUP S.R.L.", "Bandiera": "Total Erg", "Tipo impianto": "Altro", "Indirizzo": "VIA SCAFATI 283 80050", "Nome impianto": "La Mura Group", "Comune": "SANTA MARIA LA CARITA'", "idImpianto": 27269, "points": [{"type": "Feature", "properties": {}, "geometry": {"type": "Point", "coordinates": [14.514097782208978, 40.73094364975582]}}], "price": 1.699, "ultima_rilevazione": "15/04/2022 10:55:36"}, {"Gestore": "TORTORA FILIPPO", "Bandiera": "Pompe Bianche", "Tipo impianto": "Altro", "Indirizzo": "VIALE PAPA GIOVANNI XXIII 145 84012", "Nome impianto": "ANGELINA PETROLI", "Comune": "ANGRI", "idImpianto": 32242, "points": [{"type": "Feature", "properties": {}, "geometry": {"type": "Point", "coordinates": [14.56538276580227, 40.74103632577491]}}], "price": 1.709, "ultima_rilevazione": "15/04/2022 16:57:40"}, {"Gestore": "SERVIZI & GESTIONI ITALIA srl", "Bandiera": "Q8", "Tipo impianto": "Altro", "Indirizzo": "SS 18 LC BAGNI SNC 84018", "Nome impianto": "SCAFATI SS 18 LC BAGNI", "Comune": "SCAFATI", "idImpianto": 6735, "points": [{"type": "Feature", "properties": {}, "geometry": {"type": "Point", "coordinates": [14.547430870534868, 40.7488283369454]}}], "price": 1.719, "ultima_rilevazione": "16/04/2022 01:35:32"}, {"Gestore": "CAVALLARO S.N.C. DI CAVALLARO FRANCESCO E CAVALLARO MASSIMO", "Bandiera": "Pompe Bianche", "Tipo impianto": "Altro", "Indirizzo": "via sant'antonio abate 86 84018", "Nome impianto": "distributore cavallaro", "Comune": "SCAFATI", "idImpianto": 42182, "points": [{"type": "Feature", "properties": {}, "geometry": {"type": "Point", "coordinates": [14.530619451555252, 40.74301494983108]}}], "price": 1.699, "ultima_rilevazione": "16/04/2022 07:08:32"}, {"Gestore": "ALIBERTI VITTORIO", "Bandiera": "Tamoil", "Tipo impianto": "Altro", "Indirizzo": "VIA PASSANTI  107 80041", "Nome impianto": "TAMOIL DI ALIBERTI VITTORIO 4588", "Comune": "BOSCOREALE", "idImpianto": 12642, "points": [{"type": "Feature", "properties": {}, "geometry": {"type": "Point", "coordinates": [14.498139023780825, 40.77694806456933]}}], "price": 1.769, "ultima_rilevazione": "16/04/2022 07:28:12"}, {"Gestore": "DELTA PETROLI S.R.L.", "Bandiera": "Api-Ip", "Tipo impianto": "Altro", "Indirizzo": "Via Tre Ponti snc 80045", "Nome impianto": "Delta Petroli S.r.l. (Pompei)", "Comune": "POMPEI", "idImpianto": 32071, "points": [{"type": "Feature", "properties": {}, "geometry": {"type": "Point", "coordinates": [14.506644308567047, 40.76120620819259]}}], "price": 1.799, "ultima_rilevazione": "16/04/2022 10:27:27"}, {"Gestore": "ALIBERTI VITTORIO", "Bandiera": "Tamoil", "Tipo impianto": "Altro", "Indirizzo": "VIA LEPANTO 287 80045", "Nome impianto": "TAMOIL DI ALIBERTI VITTORIO", "Comune": "POMPEI", "idImpianto": 29276, "points": [{"type": "Feature", "properties": {}, "geometry": {"type": "Point", "coordinates": [14.511073976755142, 40.74999486560387]}}], "price": 1.773, "ultima_rilevazione": "16/04/2022 12:50:02"}, {"Gestore": "ROCAL S.R.L.", "Bandiera": "Pompe Bianche", "Tipo impianto": "Altro", "Indirizzo": "VIA SALICE 30 84012", "Nome impianto": "FERRI FUEL", "Comune": "ANGRI", "idImpianto": 45470, "points": [{"type": "Feature", "properties": {}, "geometry": {"type": "Point", "coordinates": [14.555597621551556, 40.74340303566079]}}], "price": 1.699, "ultima_rilevazione": "16/04/2022 13:16:45"}], "3": [{"Gestore": "LA SUPREMA  - S.R.L.", "Bandiera": "Pompe Bianche", "Tipo impianto": "Altro", "Indirizzo": "VIA DEI GOTI 298 84012", "Nome impianto": "la suprema srl", "Comune": "ANGRI", "idImpianto": 42745, "points": [{"type": "Feature", "properties": {}, "geometry": {"type": "Point", "coordinates": [14.55362076686481, 40.72930309774013]}}], "price": 1.73, "ultima_rilevazione": "04/04/2022 19:28:36"}, {"Gestore": "GAS S.R.L.", "Bandiera": "Pompe Bianche", "Tipo impianto": "Altro", "Indirizzo": "via Cesina 78 84010", "Nome impianto": "MECK OIL ", "Comune": "SAN VALENTINO TORIO", "idImpianto": 35752, "points": [{"type": "Feature", "properties": {}, "geometry": {"type": "Point", "coordinates": [14.60015252883602, 40.788597446740106]}}], "price": 1.769, "ultima_rilevazione": "06/04/2022 10:05:22"}, {"Gestore": "SUMMA OIL SRL", "Bandiera": "Tamoil", "Tipo impianto": "Altro", "Indirizzo": "Via Provinciale Santa Maria la Carit\u00e0 snc 80057", "Nome impianto": "Summa Oil srl", "Comune": "SANT'ANTONIO ABATE", "idImpianto": 39043, "points": [{"type": "Feature", "properties": {}, "geometry": {"type": "Point", "coordinates": [14.532002583146095, 40.72025066060659]}}], "price": 1.875, "ultima_rilevazione": "08/04/2022 10:26:20"}, {"Gestore": "ISMAN PETROLEUM S.R.L.", "Bandiera": "Pompe Bianche", "Tipo impianto": "Altro", "Indirizzo": "VIA VETICE 13 84010", "Nome impianto": "ISMAN PETROLEUM", "Comune": "SAN VALENTINO TORIO", "idImpianto": 31815, "points": [{"type": "Feature", "properties": {}, "geometry": {"type": "Point", "coordinates": [14.593898510689542, 40.79242573664654]}}], "price": 1.769, "ultima_rilevazione": "08/04/2022 12:22:49"}, {"Gestore": "BELLACOSA ALFREDO", "Bandiera": "Pompe Bianche", "Tipo impianto": "Altro", "Indirizzo": "VIA PIAVE 106 84010", "Nome impianto": "stazione di servizio bellacosa alfredo", "Comune": "SAN MARZANO SUL SARNO", "idImpianto": 47669, "points": [{"type": "Feature", "properties": {}, "geometry": {"type": "Point", "coordinates": [14.591359582207756, 40.77709121761687]}}], "price": 1.749, "ultima_rilevazione": "08/04/2022 20:22:33"}, {"Gestore": "FRATELLI LONGOBARDI DI DEL GAUDIO NUNZIA & C. S.N.C.", "Bandiera": "Pompe Bianche", "Tipo impianto": "Altro", "Indirizzo": "VIA FONTANELLE 249 80045", "Nome impianto": "FRATELLI LONGOBARDI", "Comune": "POMPEI", "idImpianto": 33882, "points": [{"type": "Feature", "properties": {}, "geometry": {"type": "Point", "coordinates": [14.497255235910416, 40.723622169200425]}}], "price": 1.749, "ultima_rilevazione": "09/04/2022 12:47:01"}, {"Gestore": "ANSOR DI CARMELA CELOTTO & C. S.N.C.", "Bandiera": "Pompe Bianche", "Tipo impianto": "Altro", "Indirizzo": "Via Vigna Sant'Antonio 18 80058", "Nome impianto": "Ansor snc ", "Comune": "TORRE ANNUNZIATA", "idImpianto": 23362, "points": [{"type": "Feature", "properties": {}, "geometry": {"type": "Point", "coordinates": [14.476697444915771, 40.7473041058179]}}], "price": 1.799, "ultima_rilevazione": "11/04/2022 08:28:20"}, {"Gestore": "TOP GOMME DI ALFANO FRANCESCO", "Bandiera": "Pompe Bianche", "Tipo impianto": "Altro", "Indirizzo": "via murelle 57 84012", "Nome impianto": "staroil", "Comune": "ANGRI", "idImpianto": 32268, "points": [{"type": "Feature", "properties": {}, "geometry": {"type": "Point", "coordinates": [14.572852095530491, 40.736616335057086]}}], "price": 1.794, "ultima_rilevazione": "11/04/2022 11:29:34"}, {"Gestore": "VASTOLA F. S.A.S. DI ATTIANESE EMANUELA", "Bandiera": "Pompe Bianche", "Tipo impianto": "Altro", "Indirizzo": "VIA POGGIOMARINO 170 80040", "Nome impianto": "VASTOLA F. S.A.S.", "Comune": "STRIANO", "idImpianto": 16117, "points": [{"type": "Feature", "properties": {}, "geometry": {"type": "Point", "coordinates": [14.556227624416351, 40.809959839525874]}}], "price": 1.707, "ultima_rilevazione": "11/04/2022 18:04:51"}, {"Gestore": "LONGAS  S.R.L.", "Bandiera": "Pompe Bianche", "Tipo impianto": "Altro", "Indirizzo": "VIA PALMA 1 80040", "Nome impianto": "Longas", "Comune": "POGGIOMARINO", "idImpianto": 41864, "points": [{"type": "Feature", "properties": {}, "geometry": {"type": "Point", "coordinates": [14.55616056919098, 40.81263791225227]}}], "price": 1.725, "ultima_rilevazione": "12/04/2022 09:54:04"}, {"Gestore": "PADOVANO LUIGI", "Bandiera": "Esso", "Tipo impianto": "Altro", "Indirizzo": "VIA DEI GOTI 87 84012", "Nome impianto": "PADOVANO LUIGI", "Comune": "ANGRI", "idImpianto": 45211, "points": [{"type": "Feature", "properties": {}, "geometry": {"type": "Point", "coordinates": [14.569725000123, 40.734039000123]}}], "price": 1.689, "ultima_rilevazione": "12/04/2022 18:54:29"}, {"Gestore": "SALVO PETROLI S.A.S. DI PANARIELLO TERESA & C.", "Bandiera": "Pompe Bianche", "Tipo impianto": "Altro", "Indirizzo": "VIA PASSANTI FLOCCO snc  80040", "Nome impianto": "AR PETROLI pv2", "Comune": "POGGIOMARINO", "idImpianto": 46538, "points": [{"type": "Feature", "properties": {}, "geometry": {"type": "Point", "coordinates": [14.527478, 40.79289]}}], "price": 1.759, "ultima_rilevazione": "13/04/2022 08:20:37"}, {"Gestore": "LE SPOSE DI BIANCA DI ANNARUMMA BIANCA", "Bandiera": "Pompe Bianche", "Tipo impianto": "Altro", "Indirizzo": "VIA PALUDICELLA 30A 84012", "Nome impianto": "VISCARDI CARBURANTI METANO GPL", "Comune": "ANGRI", "idImpianto": 42811, "points": [{"type": "Feature", "properties": {}, "geometry": {"type": "Point", "coordinates": [14.548700884665209, 40.72987052231823]}}], "price": 1.794, "ultima_rilevazione": "14/04/2022 09:15:57"}, {"Gestore": "UP S.R.L.S.", "Bandiera": "UP", "Tipo impianto": "Altro", "Indirizzo": "VIA PIANO DEL PRINCIPE SNC 84040", "Nome impianto": "UP - POGGIOMARINO", "Comune": "POGGIOMARINO", "idImpianto": 46677, "points": [{"type": "Feature", "properties": {}, "geometry": {"type": "Point", "coordinates": [14.52587693044461, 40.80285799456114]}}], "price": 1.679, "ultima_rilevazione": "14/04/2022 14:53:06"}, {"Gestore": "GRIMALDI S.R.L.", "Bandiera": "Esso", "Tipo impianto": "Altro", "Indirizzo": "Via Nazionale 398 84012", "Nome impianto": "PIC ANGRI", "Comune": "ANGRI", "idImpianto": 43551, "points": [{"type": "Feature", "properties": {}, "geometry": {"type": "Point", "coordinates": [14.581970125436785, 40.7481375560265]}}], "price": 1.729, "ultima_rilevazione": "14/04/2022 16:09:26"}, {"Gestore": "GRIMALDI GERARDO", "Bandiera": "Api-Ip", "Tipo impianto": "Altro", "Indirizzo": "VIALE DEGLI ARANCI 50 84010", "Nome impianto": "TOTALERG", "Comune": "SANT'EGIDIO DEL MONTE ALBINO", "idImpianto": 43142, "points": [{"type": "Feature", "properties": {}, "geometry": {"type": "Point", "coordinates": [14.586150813491829, 40.73649125888497]}}], "price": 1.779, "ultima_rilevazione": "14/04/2022 19:40:27"}, {"Gestore": "VIN.G S.A.S. DI VICIDOMINI LUCIA", "Bandiera": "Total Erg", "Tipo impianto": "Altro", "Indirizzo": "VIA STABIA SNC, 80057", "Nome impianto": "TOTAL ERG", "Comune": "SANT'ANTONIO ABATE", "idImpianto": 16934, "points": [{"type": "Feature", "properties": {}, "geometry": {"type": "Point", "coordinates": [14.531820682850594, 40.71421398059992]}}], "price": 1.735, "ultima_rilevazione": "14/04/2022 20:06:23"}, {"Gestore": "CRISPO PETROL SERVICE S.N.C. DI CRISPO P. & E.", "Bandiera": "Api-Ip", "Tipo impianto": "Altro", "Indirizzo": "VIA SOTTOSANTI 40 84010", "Nome impianto": "IP", "Comune": "SAN VALENTINO TORIO", "idImpianto": 13494, "points": [{"type": "Feature", "properties": {}, "geometry": {"type": "Point", "coordinates": [14.60153775267554, 40.79552600094498]}}], "price": 1.759, "ultima_rilevazione": "14/04/2022 20:37:27"}, {"Gestore": "MASCOLO FRANCESCO", "Bandiera": "Agip Eni", "Tipo impianto": "Altro", "Indirizzo": "via scafati  80057", "Nome impianto": "Francesco Mascolo", "Comune": "SANT'ANTONIO ABATE", "idImpianto": 7854, "points": [{"type": "Feature", "properties": {}, "geometry": {"type": "Point", "coordinates": [14.539611649212702, 40.72706461128277]}}], "price": 1.749, "ultima_rilevazione": "15/04/2022 09:29:53"}, {"Gestore": "G.B.L. SAS DI BUONO VINCENZO & C.", "Bandiera": "Api-Ip", "Tipo impianto": "Altro", "Indirizzo": "Nazionale Passanti 244 80040", "Nome impianto": "Stazione di servizio F.ll.i Buono", "Comune": "TERZIGNO", "idImpianto": 40678, "points": [{"type": "Feature", "properties": {}, "geometry": {"type": "Point", "coordinates": [14.487735740840437, 40.7753915960935]}}], "price": 1.729, "ultima_rilevazione": "15/04/2022 15:46:46"}, {"Gestore": "AREA FELIX S.A.S. DI AMITRANO POLISTO", "Bandiera": "Api-Ip", "Tipo impianto": "Altro", "Indirizzo": "VIA PLINIO 101 80045", "Nome impianto": "IP Area Felix", "Comune": "POMPEI", "idImpianto": 42083, "points": [{"type": "Feature", "properties": {}, "geometry": {"type": "Point", "coordinates": [14.486825459215993, 40.74677174655304]}}], "price": 1.699, "ultima_rilevazione": "15/04/2022 16:45:05"}, {"Gestore": "DI PALMA GIUSEPPE VINCENZO", "Bandiera": "Tamoil", "Tipo impianto": "Altro", "Indirizzo": "VIA PASSANTI FLOCCO 262 80041", "Nome impianto": "TAMOIL DI DI PALMA GIUSEPPE VINCENZO", "Comune": "BOSCOREALE", "idImpianto": 14102, "points": [{"type": "Feature", "properties": {}, "geometry": {"type": "Point", "coordinates": [14.510054738928602, 40.783947231763015]}}], "price": 1.799, "ultima_rilevazione": "15/04/2022 20:11:37"}, {"Gestore": "DE SANTIS ANTONIO", "Bandiera": "Api-Ip", "Tipo impianto": "Altro", "Indirizzo": "VIA D'ANNA 16 80040", "Nome impianto": "I P", "Comune": "STRIANO", "idImpianto": 12833, "points": [{"type": "Feature", "properties": {}, "geometry": {"type": "Point", "coordinates": [14.5727459530641, 40.81404560002596]}}], "price": 1.719, "ultima_rilevazione": "15/04/2022 21:16:40"}, {"Gestore": "SERVIZI & GESTIONI ITALIA S.R.L.", "Bandiera": "Q8", "Tipo impianto": "Altro", "Indirizzo": "S.S. 18 KM 24+623  80045", "Nome impianto": "POMPEI S.S. 18 KM 24+623", "Comune": "POMPEI", "idImpianto": 23138, "points": [{"type": "Feature", "properties": {}, "geometry": {"type": "Point", "coordinates": [14.49668714313043, 40.74617638697647]}}], "price": 1.714, "ultima_rilevazione": "16/04/2022 01:35:27"}, {"Gestore": "SERVIZI & GESTIONI ITALIA srl", "Bandiera": "Q8", "Tipo impianto": "Altro", "Indirizzo": "SS.268 KM.27 IMP.Q8 SNC 80041", "Nome impianto": "BOSCOREALE SS.268 KM.27 IMP.Q8", "Comune": "BOSCOREALE", "idImpianto": 6706, "points": [{"type": "Feature", "properties": {}, "geometry": {"type": "Point", "coordinates": [14.49257675092622, 40.775989040825344]}}], "price": 1.739, "ultima_rilevazione": "16/04/2022 07:10:45"}, {"Gestore": "CASCONE CARBURANTI DI CINZIA SPINELLI S.A.S.", "Bandiera": "Q8", "Tipo impianto": "Altro", "Indirizzo": "STRADA PONTE DELLA PERSICA 100 80053", "Nome impianto": "Q8", "Comune": "CASTELLAMMARE DI STABIA", "idImpianto": 9595, "points": [{"type": "Feature", "properties": {}, "geometry": {"type": "Point", "coordinates": [14.485897421836851, 40.73187189266499]}}], "price": 1.696, "ultima_rilevazione": "16/04/2022 08:43:12"}, {"Gestore": "MANNA DI MASCOLO LUIGI E ANNARUMMA ALESSANDRO & C. S.N.C.", "Bandiera": "Agip Eni", "Tipo impianto": "Altro", "Indirizzo": "VIA ADRIANA 7 84012", "Nome impianto": "MANNA PETROLI", "Comune": "ANGRI", "idImpianto": 47739, "points": [{"type": "Feature", "properties": {}, "geometry": {"type": "Point", "coordinates": [14.577712763537724, 40.736205840818]}}], "price": 1.759, "ultima_rilevazione": "16/04/2022 10:03:09"}, {"Gestore": "FINELLI ANTONIO S.R.L.", "Bandiera": "Pompe Bianche", "Tipo impianto": "Altro", "Indirizzo": "VIA G.IERVOLINO SNC 80040", "Nome impianto": "finfuel", "Comune": "POGGIOMARINO", "idImpianto": 41100, "points": [{"type": "Feature", "properties": {}, "geometry": {"type": "Point", "coordinates": [14.545948058366776, 40.810310236351945]}}], "price": 1.719, "ultima_rilevazione": "16/04/2022 20:56:51"}, {"Gestore": "F.A.S. PETROLI S.A.S. DI SALVATORE FRANCO", "Bandiera": "Tamoil", "Tipo impianto": "Altro", "Indirizzo": "Via papa giovanni23 18 84012", "Nome impianto": "Distributore tamoil", "Comune": "ANGRI", "idImpianto": 42932, "points": [{"type": "Feature", "properties": {}, "geometry": {"type": "Point", "coordinates": [14.566300069940551, 40.73623133987071]}}], "price": 1.749, "ultima_rilevazione": "17/04/2022 06:10:02"}], "5": [{"Gestore": "EUROPA SERVICE SOCIETA' A RESPONSABILITA' LIMITATA", "Bandiera": "Q8", "Tipo impianto": "Altro", "Indirizzo": "viale europa 154 80053", "Nome impianto": "Q8 Europa Service", "Comune": "CASTELLAMMARE DI STABIA", "idImpianto": 43882, "points": [{"type": "Feature", "properties": {}, "geometry": {"type": "Point", "coordinates": [14.489071915344198, 40.70126796656399]}}], "price": 1.689, "ultima_rilevazione": "21/01/2022 08:22:32"}, {"Gestore": "SQUITIERI  PARETE LINA", "Bandiera": "Pompe Bianche", "Tipo impianto": "Altro", "Indirizzo": "VIA PONTE DI NAPOLI 37 80036", "Nome impianto": "stazione Squitieri Parete Lina", "Comune": "PALMA CAMPANIA", "idImpianto": 38206, "points": [{"type": "Feature", "properties": {}, "geometry": {"type": "Point", "coordinates": [14.54755872488022, 40.83315592945279]}}], "price": 1.839, "ultima_rilevazione": "05/03/2022 12:25:20"}, {"Gestore": "FEDERICO GIOVANNI", "Bandiera": "Energas", "Tipo impianto": "Altro", "Indirizzo": "VIA SETTETERMINI 14/18 80041", "Nome impianto": "Energas", "Comune": "BOSCOREALE", "idImpianto": 42635, "points": [{"type": "Feature", "properties": {}, "geometry": {"type": "Point", "coordinates": [14.471814588993766, 40.75835307443105]}}], "price": 1.799, "ultima_rilevazione": "08/04/2022 08:23:34"}, {"Gestore": "GALLO S.R.L.", "Bandiera": "Pompe Bianche", "Tipo impianto": "Altro", "Indirizzo": " SP SAN GIUSEPPE V./STRIANO 138 80040", "Nome impianto": "gp petrol", "Comune": "POGGIOMARINO", "idImpianto": 41701, "points": [{"type": "Feature", "properties": {}, "geometry": {"type": "Point", "coordinates": [14.551934748888016, 40.82688497619187]}}], "price": 1.709, "ultima_rilevazione": "08/04/2022 23:45:00"}, {"Gestore": "PEGASO CARBURANTI S.R.L.", "Bandiera": "Pompe Bianche", "Tipo impianto": "Altro", "Indirizzo": "Via Taurano 123 84016", "Nome impianto": "Pegaso Carburanti Pagani", "Comune": "PAGANI", "idImpianto": 50920, "points": [{"type": "Feature", "properties": {}, "geometry": {"type": "Point", "coordinates": [14.598368931985153, 40.75241567036497]}}], "price": 1.699, "ultima_rilevazione": "09/04/2022 08:58:19"}, {"Gestore": "SERVIZI & GESTIONI ITALIA srl", "Bandiera": "Q8", "Tipo impianto": "Altro", "Indirizzo": "LOC.MADONNA DELLE GRAZIE 143 80054", "Nome impianto": "GRAGNANO LOC.MADONNA DELLE GRAZIE 143", "Comune": "GRAGNANO", "idImpianto": 6703, "points": [{"type": "Feature", "properties": {}, "geometry": {"type": "Point", "coordinates": [14.50821713313519, 40.70968946774899]}}], "price": 1.769, "ultima_rilevazione": "11/04/2022 00:37:38"}, {"Gestore": "SERVIZI & GESTIONI ITALIA S.R.L.", "Bandiera": "Q8", "Tipo impianto": "Altro", "Indirizzo": "VIA MADONNA DELLE GRAZIE 238 80050", "Nome impianto": "SANTA MARIA LA CARITA'-VIA MADONNA DELLE GRAZIE 238", "Comune": "SANTA MARIA LA CARITA'", "idImpianto": 11728, "points": [{"type": "Feature", "properties": {}, "geometry": {"type": "Point", "coordinates": [14.50580728836053, 40.70934676337253]}}], "price": 1.819, "ultima_rilevazione": "11/04/2022 00:37:43"}, {"Gestore": "SERVIZI & GESTIONI ITALIA S.R.L.", "Bandiera": "Q8", "Tipo impianto": "Altro", "Indirizzo": "VIA DEI PASTAI  ", "Nome impianto": "GRAGNANO VIA DEI PASTAI", "Comune": "GRAGNANO", "idImpianto": 20818, "points": [{"type": "Feature", "properties": {}, "geometry": {"type": "Point", "coordinates": [14.514175396329849, 40.70174512517942]}}], "price": 1.769, "ultima_rilevazione": "11/04/2022 00:38:10"}, {"Gestore": "BORRELLI SALVATORE", "Bandiera": "Pompe Bianche", "Tipo impianto": "Altro", "Indirizzo": "VIA VITTORIO VENETO 94/B", "Nome impianto": "BORRELLI SALVATORE", "Comune": "TORRE ANNUNZIATA", "idImpianto": 17557, "points": [{"type": "Feature", "properties": {}, "geometry": {"type": "Point", "coordinates": [14.462860591757249, 40.753032252449216]}}], "price": 1.799, "ultima_rilevazione": "11/04/2022 17:21:49"}, {"Gestore": "ADINOLFI S.R.L.", "Bandiera": "Repsol", "Tipo impianto": "Altro", "Indirizzo": "VIA PROVINCIALE 133 84010", "Nome impianto": "ADINOLFI SRL STAZ. SERVIZIO IP", "Comune": "SAN VALENTINO TORIO", "idImpianto": 29345, "points": [{"type": "Feature", "properties": {}, "geometry": {"type": "Point", "coordinates": [14.62157833997844, 40.78672217336834]}}], "price": 1.739, "ultima_rilevazione": "12/04/2022 07:24:05"}, {"Gestore": "PETROLCHIMICA SUD - S.R.L.", "Bandiera": "Pompe Bianche", "Tipo impianto": "Altro", "Indirizzo": "VIA PROVINCIALE G. AMENDOLA SNC 84087", "Nome impianto": "SARNO", "Comune": "SARNO", "idImpianto": 20297, "points": [{"type": "Feature", "properties": {}, "geometry": {"type": "Point", "coordinates": [14.617112054027416, 40.806991418981085]}}], "price": 1.715, "ultima_rilevazione": "12/04/2022 10:02:42"}, {"Gestore": "AUTOSTAZIONE CARPENTIERI FILIPPO", "Bandiera": "Loro", "Tipo impianto": "Altro", "Indirizzo": "VIA VITTORIO VENETO 360 80058", "Nome impianto": "mercato libero", "Comune": "TORRE ANNUNZIATA", "idImpianto": 44061, "points": [{"type": "Feature", "properties": {}, "geometry": {"type": "Point", "coordinates": [14.452028495084278, 40.75903786248801]}}], "price": 1.689, "ultima_rilevazione": "12/04/2022 11:13:06"}, {"Gestore": "AR.CI PETROLI SAS DI CIVALE GIUSEPPE & C.", "Bandiera": "Repsol", "Tipo impianto": "Altro", "Indirizzo": "via Cardinal Prisco 83 80042", "Nome impianto": "AR.CI PETROLI SAS DI CIVALE GIUSEPPE & C.", "Comune": "BOSCOTRECASE", "idImpianto": 39975, "points": [{"type": "Feature", "properties": {}, "geometry": {"type": "Point", "coordinates": [14.46732119510648, 40.77272375051156]}}], "price": 1.739, "ultima_rilevazione": "12/04/2022 13:17:22"}, {"Gestore": "ALMA S.R.L.", "Bandiera": "Tamoil", "Tipo impianto": "Autostradale", "Indirizzo": "Autostrada A30 CASERTA-SALERNO, Km. 33+400, dir. Sud 80040", "Nome impianto": "ANGIOINA OVEST", "Comune": "STRIANO", "idImpianto": 3680, "points": [{"type": "Feature", "properties": {},