{"area_comune": "[{\"type\": \"Feature\", \"properties\": {}, \"geometry\": {\"type\": \"Polygon\", \"coordinates\": [[[14.155005652637279, 42.467873228612426], [14.160206216932345, 42.46583354874767], [14.171401563177845, 42.463545081741394], [14.17442482204528, 42.46318364910651], [14.184016990490502, 42.461420690957794], [14.1939919798312, 42.45847414704068], [14.194128827703723, 42.456347818100944], [14.180786961275757, 42.444223607767015], [14.176159451434307, 42.440328045731086], [14.171498441594032, 42.436645365069424], [14.165071476535521, 42.43279922148899], [14.163856949466648, 42.42454015366549], [14.158409860427312, 42.419141409914715], [14.157129503223945, 42.417385138714316], [14.156897367631917, 42.41681493959428], [14.156116490898853, 42.41707072653893], [14.15482371078058, 42.416530346767836], [14.14880447386914, 42.413209531204686], [14.14688431972059, 42.41123888100664], [14.146792545990023, 42.40989711567366], [14.145851237135602, 42.408602591528975], [14.145346205225035, 42.40818418956965], [14.13868345376127, 42.40563000438244], [14.136303610466198, 42.40545786098702], [14.125470148816566, 42.40518781243837], [14.124035437520785, 42.40528362955643], [14.11754887397824, 42.408603564244636], [14.114614452070441, 42.408968941527455], [14.113553711494024, 42.40918293999992], [14.112711051298088, 42.40957623078902], [14.112431707363614, 42.41017389822248], [14.11295758954794, 42.41260361911583], [14.114982003192319, 42.4165372774653], [14.11555024248923, 42.41929818854279], [14.113377253066284, 42.42252833877718], [14.109857276601833, 42.42652987298038], [14.10397341263669, 42.429002866585], [14.101436607041526, 42.42877849082215], [14.099606407930612, 42.429211247066334], [14.09502461186317, 42.42913194266196], [14.087173018353418, 42.437435494467444], [14.09291994462617, 42.44115432789527], [14.091414026556494, 42.451088387097776], [14.09206597005301, 42.453053451953984], [14.094327028012072, 42.45656730656073], [14.099047879930783, 42.457135567301755], [14.105887693528246, 42.45860380943957], [14.118453773512577, 42.46196252262072], [14.123266528063576, 42.46476282325535], [14.127453929180172, 42.46463359054542], [14.128228534937533, 42.464738384209866], [14.143050419737522, 42.46792111280655], [14.14978773938631, 42.46904020025417], [14.151583941148449, 42.46907179595295], [14.154804003798967, 42.46852601243497], [14.155005652637279, 42.467873228612426]]]}}]", "comune": "spoltore", "buffer_1": "[{\"type\": \"Feature\", \"properties\": {}, \"geometry\": {\"type\": \"Polygon\", \"coordinates\": [[[14.151331457245822, 42.476437733067065], [14.15248100117519, 42.47666277087276], [14.153654777094125, 42.47680346293862], [14.15484151812888, 42.476858459036485], [14.156029832863842, 42.47682723152674], [14.157208314827507, 42.47671008041968], [14.158365652121198, 42.47650813048196], [14.15949073613162, 42.476223320416864], [14.198618004743873, 42.464696144764225], [14.199684858618568, 42.46433648296899], [14.200699856295381, 42.46390228322794], [14.20165352623763, 42.46339759805959], [14.202536969922097, 42.462827137674225], [14.203341944902853, 42.462196225965684], [14.204060941720746, 42.46151075077681], [14.204687253940598, 42.46077710890469], [14.205215040663596, 42.460002146361326], [14.205639380933716, 42.45919309444938], [14.20595631953383, 42.458357502251104], [14.20616290374852, 42.4575031661624], [14.206257210755757, 42.45663805713032], [14.206238365397647, 42.45577024627435], [14.206106548170819, 42.45490782958531], [14.20586299336832, 42.45405885240489], [14.205509977396874, 42.45323123438968], [14.205050797384734, 42.45243269565903], [14.204489740285418, 42.451670684814324], [14.203832042770614, 42.45095230949963], [14.155046975659227, 42.40279297724656], [14.154327545568183, 42.40214707557536], [14.153530115956277, 42.40155361593808], [14.15266161391729, 42.40101775225275], [14.151729583186615, 42.40054413816095], [14.15074211864468, 42.400136886652355], [14.14970779605803, 42.39979953438176], [14.148635597666276, 42.39953501098713], [14.147534834258353, 42.39934561367358], [14.126227049189346, 42.39644530421558], [14.125103973222695, 42.396332242161186], [14.123971561399813, 42.39629739747857], [14.122839705929193, 42.396341074781915], [14.121718294222715, 42.396462892750996], [14.120617122632737, 42.396661787450235], [14.11954581097757, 42.39693602160343], [14.118513718597598, 42.397283199744365], [14.107190292946049, 42.40157519982831], [14.106166628651247, 42.402010960700174], [14.105204975625524, 42.40251842688367], [14.104314448108067, 42.40309278987118], [14.10350348706267, 42.403728607074136], [14.102779780178292, 42.4044198533458], [14.102150188974612, 42.40515997802746], [14.1016206837044, 42.40594196697968], [14.101196286671911, 42.40675840901321], [14.10088102450803, 42.407601566091614], [14.100677889858906, 42.408463446642344], [14.09852010615895, 42.421268230144996], [14.080570532800296, 42.429896362076086], [14.079569175729485, 42.43043315754957], [14.07864673383039, 42.43104264614612], [14.077812783521903, 42.4317185022874], [14.077075983635629, 42.43245371132304], [14.076443985484726, 42.43324064227321], [14.075923353347857, 42.43407112697585], [14.07551949619708, 42.43493654481932], [14.07523661138354, 42.43582791218412], [14.075077640872212, 42.43673597566718], [14.075044240487879, 42.43765130812273], [14.07513676250027, 42.43856440652371], [14.075354251738572, 42.43946579062832], [14.08024451099097, 42.4550843990344], [14.080554230957155, 42.455897509688654], [14.080965706342768, 42.45668548785161], [14.08147530353888, 42.45744136816493], [14.082078521100406, 42.45815846878014], [14.08277002944651, 42.458830450462266], [14.083543717905606, 42.45945137266969], [14.084392748691087, 42.46001574611262], [14.08530961733191, 42.460518581323925], [14.08628621902397, 42.460955432810835], [14.087313920314894, 42.46132243839533], [14.088383635486817, 42.461616353393985], [14.151331457245822, 42.476437733067065]]]}}]", "buffer_3": "[{\"type\": \"Feature\", \"properties\": {}, \"geometry\": {\"type\": \"Polygon\", \"coordinates\": [[[14.143980355056135, 42.493566525543926], [14.147429913963705, 42.49424177757131], [14.15095223723846, 42.49466392065236], [14.154513486103507, 42.494828901533936], [14.158079446994773, 42.49473513757831], [14.161615861527975, 42.49438353193636], [14.165088756880625, 42.493777464747524], [14.168464773354554, 42.49292276045631], [14.207600232201113, 42.48139205210714], [14.210801400968409, 42.4803127507774], [14.213846834180371, 42.47900980257794], [14.216708100840442, 42.47749537807506], [14.219358495830818, 42.47578362165523], [14.221773289458197, 42.47389051898705], [14.223929958267862, 42.471833747295726], [14.225808394969198, 42.46963250986791], [14.227391095522206, 42.46730735635329], [14.228663321658612, 42.46487999055892], [14.229613237350884, 42.46237306754807], [14.230232017994629, 42.45980998195159], [14.230513931332293, 42.457214649479084], [14.23045638941577, 42.4546112836767], [14.230059971179655, 42.45202417001838], [14.229328415473212, 42.44947743943874], [14.22826858467428, 42.446994843415894], [14.226890399280494, 42.444599532694944], [14.225206744139522, 42.44231384170451], [14.223233347238091, 42.44015908066263], [14.174443405517374, 42.392008340253874], [14.172285000928616, 42.39007099604336], [14.169892778869114, 42.38829097467253], [14.16728751827908, 42.38668372551059], [14.164491841834424, 42.385263197642296], [14.161530019754114, 42.38404171915071], [14.158427759524086, 42.38302989044493], [14.15521198334478, 42.38223649254422], [14.151910595208966, 42.381668411102844], [14.130608771682423, 42.37876860201262], [14.12724050030692, 42.378429461150695], [14.123844240319103, 42.37832490486099], [14.12044963435719, 42.378455847763206], [14.117086311193225, 42.3788211489985], [14.113783628108582, 42.37941762207832], [14.11057041557618, 42.38024006252394], [14.107474726437525, 42.38128129306231], [14.096153221660101, 42.38557209162256], [14.093082676708617, 42.38687902470917], [14.0901979806146, 42.38840105296424], [14.087526466133967, 42.39012376485397], [14.085093453557983, 42.39203084685991], [14.082922010815413, 42.39410423750953], [14.081032734608184, 42.39632429798737], [14.079443554662602, 42.398669997731695], [14.078169562970754, 42.40111911327861], [14.077222869670774, 42.40364843848775], [14.07661248697203, 42.40623400417331], [14.075851278959247, 42.41074125477272], [14.067370480569531, 42.41481668152264], [14.064366669608207, 42.41642667911133], [14.061599389787261, 42.41825475015923], [14.059097368432806, 42.42028193426357], [14.056886589057926, 42.422487203377415], [14.05499002128236, 42.424847679380164], [14.053427381639217, 42.427338870905444], [14.052214927781753, 42.429934926996204], [14.05136528827173, 42.43260890497859], [14.050887329775268, 42.43533304979502], [14.050786063114725, 42.438079081912], [14.051062589230385, 42.440818490824036], [14.051714085696188, 42.44352283111033], [14.056598957223283, 42.45914273961028], [14.057527316264474, 42.461582304367845], [14.058761062708019, 42.46394652009609], [14.060289319738954, 42.46621448080328], [14.062098601916658, 42.46836612966442], [14.064172933606592, 42.4703824367298], [14.066493989649805, 42.47224556759666], [14.069041257045487, 42.473939041535935], [14.071792216227717, 42.47544787765905], [14.074722540334875, 42.47675872781427], [14.077806310702297, 42.4778599950212], [14.081016246656292, 42.47874193637959], [14.143980355056135, 42.493566525543926]]]}}]", "buffer_5": "[{\"type\": \"Feature\", \"properties\": {}, \"geometry\": {\"type\": \"Polygon\", \"coordinates\": [[[14.053466624961255, 42.400115823246225], [14.049171064359678, 42.40241779695395], [14.044559008770845, 42.40546392447551], [14.040388690455398, 42.408841924316], [14.036703426842998, 42.41251677620585], [14.033541526624262, 42.41645037462559], [14.03093589003344, 42.42060192249866], [14.028913664245318, 42.42492835304425], [14.02749595758786, 42.42938477548075], [14.02669761569927, 42.43392494001126], [14.026527062146387, 42.438501717307986], [14.026986205375641, 42.44306758754653], [14.028070413193696, 42.44757513392375], [14.032949893223714, 42.46319634018904], [14.034495822391806, 42.467262668889035], [14.036550932247133, 42.47120349675354], [14.039097134892117, 42.47498396395574], [14.042111986200359, 42.47857062366334], [14.04556888207776, 42.48193173888158], [14.049437292126616, 42.48503756429321], [14.053683028700359, 42.48786061055652], [14.058268548999244, 42.49037588867608], [14.063153287539821, 42.49256113223542], [14.068294016036951, 42.49439699547923], [14.073645227469875, 42.49586722544779], [14.136625633572082, 42.51069502872203], [14.14237644477628, 42.51182068014991], [14.148248644174608, 42.5125243636668], [14.154185770091688, 42.51279931954766], [14.160130734259633, 42.51264291052294], [14.16602637428952, 42.51205664705042], [14.171816006812492, 42.51104617244859], [14.177443975802452, 42.5096212080487], [14.216587629073276, 42.498086963782384], [14.2219239226262, 42.496287601193174], [14.227000378209693, 42.494115438763224], [14.231769583524793, 42.49159078250156], [14.236187014170666, 42.48873722935647], [14.240211450141198, 42.48558144545945], [14.243805360651466, 42.482152915709094], [14.246935253694982, 42.47848366709236], [14.24957198709341, 42.47460796838444], [14.251691038190899, 42.47056200908479], [14.253272729759752, 42.46638356063536], [14.254302410118385, 42.46211162312412], [14.254770585911249, 42.45778606080361], [14.254673006458656, 42.45344722984799], [14.254010699047203, 42.449135601833], [14.252789954994444, 42.44489138645182], [14.251022266779625, 42.44075415697503], [14.248724216981959, 42.43676248192611], [14.24591732020477, 42.43295356637582], [14.242627819584484, 42.42936290616004], [14.193833022778986, 42.38122075664126], [14.190235492530118, 42.377992450821154], [14.186248568056609, 42.375026344161604], [14.181906876946055, 42.372348165000126], [14.177248109389918, 42.369981142115016], [14.172312691694902, 42.36794580420988], [14.167143436658733, 42.36625980275017], [14.16178517379314, 42.364937759650466], [14.15628436253207, 42.3639911411005], [14.134988495581359, 42.36109183138839], [14.129376302781804, 42.36052667192408], [14.123717493799175, 42.360352374308995], [14.118061416499971, 42.36057046420925], [14.112457396511186, 42.36117904535553], [14.106954309777809, 42.362172815778386], [14.101600158868086, 42.36354311356738], [14.096441656609926, 42.365277991773674], [14.0851220723479, 42.36956758984132], [14.080005244041427, 42.37174522957771], [14.075197856021003, 42.37428132660848], [14.07074544623505, 42.37715188497978], [14.066690210759706, 42.38032973920007], [14.063070604143006, 42.383784810064995], [14.059920974337983, 42.38748438813281], [14.057271235705215, 42.391393442224945], [14.055146583236407, 42.395474950086], [14.053567250790577, 42.39969024812182], [14.053466624961255, 42.400115823246225]]]}}]", "centroid": "[{\"type\": \"Feature\", \"properties\": {}, \"geometry\": {\"type\": \"Point\", \"coordinates\": [14.138505634007133, 42.439640394561124]}}]", "Diesel High Quality": {"1": [{"Gestore": "PETROLIFERA ADRIATICA S.P.A.", "Bandiera": "Esso", "Tipo impianto": "Altro", "Indirizzo": "VIA MARE ADRIATICO 117 65010", "Nome impianto": "ESSO - SPOLTORE VIA MARE ADRIATICO", "Comune": "SPOLTORE", "idImpianto": 49208, "points": [{"type": "Feature", "properties": {}, "geometry": {"type": "Point", "coordinates": [14.17350522453694, 42.44263202065476]}}], "price": 2.197, "ultima_rilevazione": "06/07/2022 11:01:37"}], "3": [{"Gestore": "ENERGIA S.N.C. DI AMBROSINI ALESSANDRO & C.", "Bandiera": "Q8", "Tipo impianto": "Altro", "Indirizzo": "via Nazionale snc 65012", "Nome impianto": "Energia", "Comune": "CEPAGATTI", "idImpianto": 41203, "points": [{"type": "Feature", "properties": {}, "geometry": {"type": "Point", "coordinates": [14.13216233253479, 42.39013063478537]}}], "price": 2.099, "ultima_rilevazione": "02/07/2022 11:09:43"}, {"Gestore": "AMBROSINI NICOLA E FIGLIO - S.N.C.", "Bandiera": "Q8", "Tipo impianto": "Altro", "Indirizzo": "VIALE UNITA' D'ITALIA, 66100  ", "Nome impianto": "q8", "Comune": "CHIETI", "idImpianto": 9569, "points": [{"type": "Feature", "properties": {}, "geometry": {"type": "Point", "coordinates": [14.159298241138458, 42.39005496060944]}}], "price": 2.099, "ultima_rilevazione": "04/07/2022 18:51:38"}, {"Gestore": "PETROL FUEL S.P.A.", "Bandiera": "Q8", "Tipo impianto": "Altro", "Indirizzo": "VIA GUGLIELMO MARCONI 200 65126", "Nome impianto": "PV. G.Marconi 196", "Comune": "PESCARA", "idImpianto": 50390, "points": [{"type": "Feature", "properties": {}, "geometry": {"type": "Point", "coordinates": [14.220650401039498, 42.457713998418726]}}], "price": 2.179, "ultima_rilevazione": "06/07/2022 10:29:02"}, {"Gestore": "IP SERVICES S.R.L.", "Bandiera": "Api-Ip", "Tipo impianto": "Altro", "Indirizzo": "Via Tiburtina Valeria 386 65128", "Nome impianto": "PESCARA", "Comune": "PESCARA", "idImpianto": 5536, "points": [{"type": "Feature", "properties": {}, "geometry": {"type": "Point", "coordinates": [14.185954084655805, 42.42911187863528]}}], "price": 1.964, "ultima_rilevazione": "06/07/2022 13:08:40"}], "5": []}, "Blue Diesel": {"1": [{"Gestore": "COSTANTINI CARBURANTI DI GIUSEPPE COSTANTINI S.A.S.", "Bandiera": "Agip Eni", "Tipo impianto": "Altro", "Indirizzo": "STRADA PRATI 80 65125", "Nome impianto": "ENI - COSTANTINI CARBURANTI SAS PV26864", "Comune": "PESCARA", "idImpianto": 51362, "points": [{"type": "Feature", "properties": {}, "geometry": {"type": "Point", "coordinates": [14.17802886549603, 42.46422821157537]}}], "price": 2.184, "ultima_rilevazione": "29/06/2022 08:39:35"}, {"Gestore": "COSTANTINI CARBURANTI DI GIUSEPPE COSTANTINI S.A.S.", "Bandiera": "Agip Eni", "Tipo impianto": "Altro", "Indirizzo": "STRADA PRATI 80 65125", "Nome impianto": "ENI - COSTANTINI CARBURANTI SAS PV26864", "Comune": "PESCARA", "idImpianto": 51362, "points": [{"type": "Feature", "properties": {}, "geometry": {"type": "Point", "coordinates": [14.17802886549603, 42.46422821157537]}}], "price": 2.114, "ultima_rilevazione": "29/06/2022 08:39:35"}, {"Gestore": "GIAMMARINO MARCO", "Bandiera": "Agip Eni", "Tipo impianto": "Altro", "Indirizzo": "SS 151 KM 17.750 65010", "Nome impianto": "MARCO GIAMMARINO", "Comune": "MOSCUFO", "idImpianto": 45361, "points": [{"type": "Feature", "properties": {}, "geometry": {"type": "Point", "coordinates": [14.08078670501709, 42.456021032669256]}}], "price": 2.209, "ultima_rilevazione": "02/07/2022 09:48:48"}, {"Gestore": "GIAMMARINO MARCO", "Bandiera": "Agip Eni", "Tipo impianto": "Altro", "Indirizzo": "SS 151 KM 17.750 65010", "Nome impianto": "MARCO GIAMMARINO", "Comune": "MOSCUFO", "idImpianto": 45361, "points": [{"type": "Feature", "properties": {}, "geometry": {"type": "Point", "coordinates": [14.08078670501709, 42.456021032669256]}}], "price": 2.089, "ultima_rilevazione": "02/07/2022 09:48:48"}, {"Gestore": "DI CECCO ROBERTO", "Bandiera": "Agip Eni", "Tipo impianto": "Altro", "Indirizzo": "VIA RAIALE  65128", "Nome impianto": "DI CECCO ROBERTO", "Comune": "PESCARA", "idImpianto": 46265, "points": [{"type": "Feature", "properties": {}, "geometry": {"type": "Point", "coordinates": [14.19291839003563, 42.45343253767108]}}], "price": 2.069, "ultima_rilevazione": "04/07/2022 09:16:47"}, {"Gestore": "COSTANTINI CARBURANTI DI GIUSEPPE COSTANTINI S.A.S.", "Bandiera": "Agip Eni", "Tipo impianto": "Altro", "Indirizzo": "via aterno snc 66020", "Nome impianto": "26700Costantini Carburanti Sas di Giuseppe Costantini", "Comune": "SAN GIOVANNI TEATINO", "idImpianto": 42320, "points": [{"type": "Feature", "properties": {}, "geometry": {"type": "Point", "coordinates": [14.165290296077728, 42.42197866512996]}}], "price": 2.134, "ultima_rilevazione": "06/07/2022 11:47:28"}, {"Gestore": "COSTANTINI CARBURANTI DI GIUSEPPE COSTANTINI S.A.S.", "Bandiera": "Agip Eni", "Tipo impianto": "Altro", "Indirizzo": "LOCALITA' VILLA SANTA MARIA SNC 65010", "Nome impianto": "ENI DI COSTANTINI CARBURANTI SAS", "Comune": "SPOLTORE", "idImpianto": 42357, "points": [{"type": "Feature", "properties": {}, "geometry": {"type": "Point", "coordinates": [14.116366133093834, 42.45884389043248]}}], "price": 2.114, "ultima_rilevazione": "06/07/2022 13:02:03"}, {"Gestore": "COSTANTINI CARBURANTI DI GIUSEPPE COSTANTINI S.A.S.", "Bandiera": "Agip Eni", "Tipo impianto": "Altro", "Indirizzo": "LOCALITA' VILLA SANTA MARIA SNC 65010", "Nome impianto": "ENI DI COSTANTINI CARBURANTI SAS", "Comune": "SPOLTORE", "idImpianto": 42357, "points": [{"type": "Feature", "properties": {}, "geometry": {"type": "Point", "coordinates": [14.116366133093834, 42.45884389043248]}}], "price": 2.114, "ultima_rilevazione": "06/07/2022 13:02:03"}, {"Gestore": "PETROLBITUMI - SOCIETA A RESPONSABILITA LIMITATA", "Bandiera": "Agip Eni", "Tipo impianto": "Altro", "Indirizzo": " COLLE FLORIDO SNC 65019", "Nome impianto": "Eni", "Comune": "PIANELLA", "idImpianto": 9672, "points": [{"type": "Feature", "properties": {}, "geometry": {"type": "Point", "coordinates": [14.106577218981895, 42.42603770480892]}}], "price": 2.094, "ultima_rilevazione": "07/07/2022 00:06:08"}, {"Gestore": "GESTIONI INNOVATIVE ITALIA S.R.L.", "Bandiera": "Agip Eni", "Tipo impianto": "Altro", "Indirizzo": "VIA DEL CIRCUITO KM.1+637 136 65121", "Nome impianto": "PV 6861", "Comune": "PESCARA", "idImpianto": 29329, "points": [{"type": "Feature", "properties": {}, "geometry": {"type": "Point", "coordinates": [14.201862215995789, 42.4631099112261]}}], "price": 2.034, "ultima_rilevazione": "07/07/2022 06:04:03"}, {"Gestore": "GESTIONI INNOVATIVE ITALIA S.R.L.", "Bandiera": "Agip Eni", "Tipo impianto": "Altro", "Indirizzo": "via maiella  16 65010", "Nome impianto": "16876", "Comune": "SPOLTORE", "idImpianto": 48091, "points": [{"type": "Feature", "properties": {}, "geometry": {"type": "Point", "coordinates": [14.156715859465118, 42.42062887098436]}}], "price": 2.034, "ultima_rilevazione": "07/07/2022 06:04:09"}], "3": [{"Gestore": "D'ALESSANDRO ANTONIO", "Bandiera": "Agip Eni", "Tipo impianto": "Altro", "Indirizzo": "VIA TIBURTINA 2 65128", "Nome impianto": "ENI D'ALESSANDRO", "Comune": "PESCARA", "idImpianto": 30131, "points": [{"type": "Feature", "properties": {}, "geometry": {"type": "Point", "coordinates": [14.210392252045494, 42.458752274378696]}}], "price": 2.214, "ultima_rilevazione": "22/06/2022 11:58:59"}, {"Gestore": "D'ALESSANDRO ANTONIO", "Bandiera": "Agip Eni", "Tipo impianto": "Altro", "Indirizzo": "VIA TIBURTINA 2 65128", "Nome impianto": "ENI D'ALESSANDRO", "Comune": "PESCARA", "idImpianto": 30131, "points": [{"type": "Feature", "properties": {}, "geometry": {"type": "Point", "coordinates": [14.210392252045494, 42.458752274378696]}}], "price": 2.124, "ultima_rilevazione": "22/06/2022 11:58:59"}, {"Gestore": "DI CECCO ROBERTO", "Bandiera": "Agip Eni", "Tipo impianto": "Altro", "Indirizzo": "VIA TIBURTINA VALERIA 362 65128", "Nome impianto": "STAZIONE ENI DI CECCO ROBERTO", "Comune": "PESCARA", "idImpianto": 46263, "points": [{"type": "Feature", "properties": {}, "geometry": {"type": "Point", "coordinates": [14.196078944680153, 42.43971492681314]}}], "price": 2.069, "ultima_rilevazione": "04/07/2022 09:15:34"}, {"Gestore": "DI CECCO ROBERTO", "Bandiera": "Agip Eni", "Tipo impianto": "Altro", "Indirizzo": "VIA TIBURTINA VALERIA 362 65128", "Nome impianto": "STAZIONE ENI DI CECCO ROBERTO", "Comune": "PESCARA", "idImpianto": 46263, "points": [{"type": "Feature", "properties": {}, "geometry": {"type": "Point", "coordinates": [14.196078944680153, 42.43971492681314]}}], "price": 2.159, "ultima_rilevazione": "04/07/2022 09:15:34"}, {"Gestore": "DRAGONARA SERVICE SNC DI SANTOLERI CARLO & C.", "Bandiera": "Agip Eni", "Tipo impianto": "Altro", "Indirizzo": "VIA PIETRO NENNI SNC 66020", "Nome impianto": "eni station dragonara", "Comune": "SAN GIOVANNI TEATINO", "idImpianto": 9724, "points": [{"type": "Feature", "properties": {}, "geometry": {"type": "Point", "coordinates": [14.167411923408508, 42.40156394269239]}}], "price": 2.074, "ultima_rilevazione": "04/07/2022 19:45:27"}, {"Gestore": "DRAGONARA SERVICE SNC DI SANTOLERI CARLO & C.", "Bandiera": "Agip Eni", "Tipo impianto": "Altro", "Indirizzo": "VIA PIETRO NENNI SNC 66020", "Nome impianto": "eni station dragonara", "Comune": "SAN GIOVANNI TEATINO", "idImpianto": 9724, "points": [{"type": "Feature", "properties": {}, "geometry": {"type": "Point", "coordinates": [14.167411923408508, 42.40156394269239]}}], "price": 2.194, "ultima_rilevazione": "04/07/2022 19:45:27"}, {"Gestore": "CIALINI GIACOMO", "Bandiera": "Agip Eni", "Tipo impianto": "Altro", "Indirizzo": "VIA VALLE ROVETO 29 65124", "Nome impianto": "Eni di Cialini Giacomo", "Comune": "PESCARA", "idImpianto": 43695, "points": [{"type": "Feature", "properties": {}, "geometry": {"type": "Point", "coordinates": [14.20441221586907, 42.46239537001048]}}], "price": 2.199, "ultima_rilevazione": "05/07/2022 12:10:06"}, {"Gestore": "PETROLBITUMI - SOCIETA A RESPONSABILITA LIMITATA", "Bandiera": "Agip Eni", "Tipo impianto": "Altro", "Indirizzo": "RIO SPARTO 12 65129", "Nome impianto": "Eni", "Comune": "PESCARA", "idImpianto": 9670, "points": [{"type": "Feature", "properties": {}, "geometry": {"type": "Point", "coordinates": [14.211847041317014, 42.4463872619189]}}], "price": 2.104, "ultima_rilevazione": "07/07/2022 00:10:15"}, {"Gestore": "GESTIONI INNOVATIVE ITALIA S.R.L.", "Bandiera": "Agip Eni", "Tipo impianto": "Altro", "Indirizzo": "VIA MARCONI ANGOLO VIA PINDARO 356, 65126  ", "Nome impianto": "PV 6896", "Comune": "PESCARA", "idImpianto": 25393, "points": [{"type": "Feature", "properties": {}, "geometry": {"type": "Point", "coordinates": [14.2270427942276, 42.452310432328886]}}], "price": 2.034, "ultima_rilevazione": "07/07/2022 07:34:09"}, {"Gestore": "GESTIONI INNOVATIVE ITALIA S.R.L.", "Bandiera": "Agip Eni", "Tipo impianto": "Altro", "Indirizzo": "viale G. Bovio  414 65123", "Nome impianto": "54443", "Comune": "PESCARA", "idImpianto": 46087, "points": [{"type": "Feature", "properties": {}, "geometry": {"type": "Point", "coordinates": [14.194619000123, 42.479842000123]}}], "price": 2.034, "ultima_rilevazione": "07/07/2022 06:04:03"}, {"Gestore": "FLORIO RAFFAELE", "Bandiera": "Agip Eni", "Tipo impianto": "Altro", "Indirizzo": "VIA MAZZINI 60 66020", "Nome impianto": "Eni PV 26622 Florio Raffaele", "Comune": "SAN GIOVANNI TEATINO", "idImpianto": 23499, "points": [{"type": "Feature", "properties": {}, "geometry": {"type": "Point", "coordinates": [14.183899084655764, 42.41960091672077]}}], "price": 2.064, "ultima_rilevazione": "07/07/2022 07:37:08"}], "5": [{"Gestore": "DI MATTEO ALESSIO", "Bandiera": "Agip Eni", "Tipo impianto": "Altro", "Indirizzo": "VIA ALDO MORO 68 65019", "Nome impianto": "Eni", "Comune": "PIANELLA", "idImpianto": 36610, "points": [{"type": "Feature", "properties": {}, "geometry": {"type": "Point", "coordinates": [14.053228944540024, 42.401838459475954]}}], "price": 2.089, "ultima_rilevazione": "04/07/2022 07:24:40"}, {"Gestore": "IMPIANTI CARBURANTI S.N.C. DI SANTOLERI C. & C.", "Bandiera": "Agip Eni", "Tipo impianto": "Altro", "Indirizzo": "VIALE BENEDETTO CROCE 270/B 66013", "Nome impianto": "eni station", "Comune": "CHIETI", "idImpianto": 16074, "points": [{"type": "Feature", "properties": {}, "geometry": {"type": "Point", "coordinates": [14.141329685319532, 42.364167400000014]}}], "price": 2.069, "ultima_rilevazione": "04/07/2022 08:10:59"}, {"Gestore": "P.D.G. SERVICES S.A.S. DI PACE GIULIO & C", "Bandiera": "Agip Eni", "Tipo impianto": "Altro", "Indirizzo": " S.S. 656 KM. 1-896   66100", "Nome impianto": "STAZIONE SERVIZIO ENI", "Comune": "CHIETI", "idImpianto": 23455, "points": [{"type": "Feature", "properties": {}, "geometry": {"type": "Point", "coordinates": [14.154309332370758, 42.375511507222924]}}], "price": 2.074, "ultima_rilevazione": "04/07/2022 09:27:22"}, {"Gestore": "P.D.G. SERVICES S.A.S. DI PACE GIULIO & C", "Bandiera": "Agip Eni", "Tipo impianto": "Altro", "Indirizzo": " S.S. 656 KM. 1-896   66100", "Nome impianto": "STAZIONE SERVIZIO ENI", "Comune": "CHIETI", "idImpianto": 23455, "points": [{"type": "Feature", "properties": {}, "geometry": {"type": "Point", "coordinates": [14.154309332370758, 42.375511507222924]}}], "price": 2.194, "ultima_rilevazione": "04/07/2022 09:27:22"}, {"Gestore": "AREA DI SERVIZIO DAVIDE STARINIERI E ANTONIO BELLANTE S.N.C.", "Bandiera": "Agip Eni", "Tipo impianto": "Altro", "Indirizzo": "VIA GIUSEPPE VERROTTI 21 65015", "Nome impianto": "AREA DI SERVIZIO D. STARINIERI E A. Bellante S.N.C", "Comune": "MONTESILVANO", "idImpianto": 33984, "points": [{"type": "Feature", "properties": {}, "geometry": {"type": "Point", "coordinates": [14.162255121965018, 42.504493504668616]}}], "price": 2.094, "ultima_rilevazione": "06/07/2022 17:23:14"}, {"Gestore": "PETROLBITUMI - SOCIETA A RESPONSABILITA LIMITATA", "Bandiera": "Agip Eni", "Tipo impianto": "Altro", "Indirizzo": " CORSO UMBERTO I 243 65015", "Nome impianto": "Eni", "Comune": "MONTESILVANO", "idImpianto": 9669, "points": [{"type": "Feature", "properties": {}, "geometry": {"type": "Point", "coordinates": [14.15574354113926, 42.51203970073024]}}], "price": 2.094, "ultima_rilevazione": "07/07/2022 00:10:19"}, {"Gestore": "PETROLBITUMI - SOCIETA A RESPONSABILITA LIMITATA", "Bandiera": "Agip Eni", "Tipo impianto": "Altro", "Indirizzo": " CORSO UMBERTO I 243 65015", "Nome impianto": "Eni", "Comune": "MONTESILVANO", "idImpianto": 9669, "points": [{"type": "Feature", "properties": {}, "geometry": {"type": "Point", "coordinates": [14.15574354113926, 42.51203970073024]}}], "price": 2.114, "ultima_rilevazione": "07/07/2022 00:10:19"}, {"Gestore": "ENI FUEL S.P.A.", "Bandiera": "Agip Eni", "Tipo impianto": "Altro", "Indirizzo": "VIA TOGLIATTI/VIA FORESTE 13 65015", "Nome impianto": "26874 PESCARA MONTESILVANO", "Comune": "MONTESILVANO", "idImpianto": 26098, "points": [{"type": "Feature", "properties": {}, "geometry": {"type": "Point", "coordinates": [14.13714051246643, 42.50167907701153]}}], "price": 2.074, "ultima_rilevazione": "07/07/2022 00:16:08"}]}, "Gasolio High Quality": {"1": [], "3": [], "5": []}, "Benzina": {"1": [{"Gestore": "DITTA SOZIO DI PASQUALE & INNOCENZO SOZIO S.N.C.", "Bandiera": "Pompe Bianche", "Tipo impianto": "Altro", "Indirizzo": "Viale Europa 97 65010", "Nome impianto": "Sozio Carburanti", "Comune": "SPOLTORE", "idImpianto": 31830, "points": [{"type": "Feature", "properties": {}, "geometry": {"type": "Point", "coordinates": [14.186382694442727, 42.4518995351078]}}], "price": 1.997, "ultima_rilevazione": "06/06/2022 07:04:31"}, {"Gestore": "COSTANTINI CARBURANTI DI GIUSEPPE COSTANTINI S.A.S.", "Bandiera": "Agip Eni", "Tipo impianto": "Altro", "Indirizzo": "STRADA PRATI 80 65125", "Nome impianto": "ENI - COSTANTINI CARBURANTI SAS PV26864", "Comune": "PESCARA", "idImpianto": 51362, "points": [{"type": "Feature", "properties": {}, "geometry": {"type": "Point", "coordinates": [14.17802886549603, 42.46422821157537]}}], "price": 2.084, "ultima_rilevazione": "29/06/2022 08:39:35"}, {"Gestore": "SERVIZI & GESTIONI ITALIA S.R.L.", "Bandiera": "Q8", "Tipo impianto": "Altro", "Indirizzo": " VIA F.FELLINI 8 65010", "Nome impianto": "SPOLTORE- VIA F.FELLINI 8", "Comune": "SPOLTORE", "idImpianto": 11760, "points": [{"type": "Feature", "properties": {}, "geometry": {"type": "Point", "coordinates": [14.181535626983646, 42.45335145419278]}}], "price": 2.027, "ultima_rilevazione": "02/07/2022 00:32:01"}, {"Gestore": "GIAMMARINO MARCO", "Bandiera": "Agip Eni", "Tipo impianto": "Altro", "Indirizzo": "SS 151 KM 17.750 65010", "Nome impianto": "MARCO GIAMMARINO", "Comune": "MOSCUFO", "idImpianto": 45361, "points": [{"type": "Feature", "properties": {}, "geometry": {"type": "Point", "coordinates": [14.08078670501709, 42.456021032669256]}}], "price": 2.059, "ultima_rilevazione": "02/07/2022 09:48:48"}, {"Gestore": "DI CECCO ROBERTO", "Bandiera": "Agip Eni", "Tipo impianto": "Altro", "Indirizzo": "VIA RAIALE  65128", "Nome impianto": "DI CECCO ROBERTO", "Comune": "PESCARA", "idImpianto": 46265, "points": [{"type": "Feature", "properties": {}, "geometry": {"type": "Point", "coordinates": [14.19291839003563, 42.45343253767108]}}], "price": 2.019, "ultima_rilevazione": "04/07/2022 09:16:47"}, {"Gestore": "SO.PE.A. - SOCIETA' PETROLI ABRUZZO - DI PARTENZA PAOLA & C. S.A.S.", "Bandiera": "Pompe Bianche", "Tipo impianto": "Altro", "Indirizzo": "STRADA PROVINCIALE 602 KM 6.000    65013", "Nome impianto": "SOPEA CARBURANTI", "Comune": "CEPAGATTI", "idImpianto": 10898, "points": [{"type": "Feature", "properties": {}, "geometry": {"type": "Point", "coordinates": [14.151050448417664, 42.41293734429773]}}], "price": 2.027, "ultima_rilevazione": "04/07/2022 09:31:03"}, {"Gestore": "SBORGIA LUCIO", "Bandiera": "Api-Ip", "Tipo impianto": "Strada Statale", "Indirizzo": "Statale 602 di Forca di Penne, Km. 4+325, dir. pescara 65010", "Nome impianto": "IP STAZ.SERVIZIO SBORGIA", "Comune": "SPOLTORE", "idImpianto": 33985, "points": [{"type": "Feature", "properties": {}, "geometry": {"type": "Point", "coordinates": [14.159451127052307, 42.42611949543363]}}], "price": 2.019, "ultima_rilevazione": "05/07/2022 16:51:37"}, {"Gestore": "PETROLIFERA ADRIATICA S.P.A.", "Bandiera": "Esso", "Tipo impianto": "Altro", "Indirizzo": "VIA MARE ADRIATICO 117 65010", "Nome impianto": "ESSO - SPOLTORE VIA MARE ADRIATICO", "Comune": "SPOLTORE", "idImpianto": 49208, "points": [{"type": "Feature", "properties": {}, "geometry": {"type": "Point", "coordinates": [14.17350522453694, 42.44263202065476]}}], "price": 2.027, "ultima_rilevazione": "06/07/2022 11:01:37"}, {"Gestore": "PETROLIFERA ADRIATICA S.P.A.", "Bandiera": "PAD", "Tipo impianto": "Altro", "Indirizzo": "V.le Europa  65010", "Nome impianto": "PAD SPOLTORE - V.LE EUROPA", "Comune": "SPOLTORE", "idImpianto": 47216, "points": [{"type": "Feature", "properties": {}, "geometry": {"type": "Point", "coordinates": [14.180174000123, 42.447726000123]}}], "price": 2.027, "ultima_rilevazione": "06/07/2022 11:03:38"}, {"Gestore": "COSTANTINI CARBURANTI DI GIUSEPPE COSTANTINI S.A.S.", "Bandiera": "Agip Eni", "Tipo impianto": "Altro", "Indirizzo": "via aterno snc 66020", "Nome impianto": "26700Costantini Carburanti Sas di Giuseppe Costantini", "Comune": "SAN GIOVANNI TEATINO", "idImpianto": 42320, "points": [{"type": "Feature", "properties": {}, "geometry": {"type": "Point", "coordinates": [14.165290296077728, 42.42197866512996]}}], "price": 2.014, "ultima_rilevazione": "06/07/2022 11:47:28"}, {"Gestore": "LAURETI OIL SRL", "Bandiera": "Pompe Bianche", "Tipo impianto": "Altro", "Indirizzo": "VIALE EUROPA 74 65010", "Nome impianto": "P.V. SPOLTORE", "Comune": "SPOLTORE", "idImpianto": 49581, "points": [{"type": "Feature", "properties": {}, "geometry": {"type": "Point", "coordinates": [14.188851498041284, 42.45412431357234]}}], "price": 2.027, "ultima_rilevazione": "06/07/2022 11:53:18"}, {"Gestore": "COSTANTINI CARBURANTI DI GIUSEPPE COSTANTINI S.A.S.", "Bandiera": "Agip Eni", "Tipo impianto": "Altro", "Indirizzo": "LOCALITA' VILLA SANTA MARIA SNC 65010", "Nome impianto": "ENI DI COSTANTINI CARBURANTI SAS", "Comune": "SPOLTORE", "idImpianto": 42357, "points": [{"type": "Feature", "properties": {}, "geometry": {"type": "Point", "coordinates": [14.116366133093834, 42.45884389043248]}}], "price": 2.014, "ultima_rilevazione": "06/07/2022 13:02:03"}, {"Gestore": "IPERSTAROIL S.R.L.", "Bandiera": "Auchan", "Tipo impianto": "Altro", "Indirizzo": "VIA S.P. 602 VIA MAIELLA SNC ", "Nome impianto": "Spoltore", "Comune": "SPOLTORE", "idImpianto": 50295, "points": [{"type": "Feature", "properties": {}, "geometry": {"type": "Point", "coordinates": [14.154336020488088, 42.41729085603188]}}], "price": 1.989, "ultima_rilevazione": "06/07/2022 15:54:09"}, {"Gestore": "PETROLBITUMI - SOCIETA A RESPONSABILITA LIMITATA", "Bandiera": "Agip Eni", "Tipo impianto": "Altro", "Indirizzo": " COLLE FLORIDO SNC 65019", "Nome impianto": "Eni", "Comune": "PIANELLA", "idImpianto": 9672, "points": [{"type": "Feature", "properties": {}, "geometry": {"type": "Point", "coordinates": [14.106577218981895, 42.42603770480892]}}], "price": 2.014, "ultima_rilevazione": "07/07/2022 00:06:08"}, {"Gestore": "PETROLBITUMI - SOCIETA A RESPONSABILITA LIMITATA", "Bandiera": "Q8", "Tipo impianto": "Strada Statale", "Indirizzo": "Statale 16 bis Adriatica, Km. 448 + 4, dir. Nord 65010", "Nome impianto": "Q8", "Comune": "SPOLTORE", "idImpianto": 6297, "points": [{"type": "Feature", "properties": {}, "geometry": {"type": "Point", "coordinates": [14.176399612716637, 42.45435216632234]}}], "price": 2.014, "ultima_rilevazione": "07/07/2022 00:08:12"}, {"Gestore": "GESTIONI INNOVATIVE ITALIA S.R.L.", "Bandiera": "Agip Eni", "Tipo impianto": "Altro", "Indirizzo": "VIA DEL CIRCUITO KM.1+637 136 65121", "Nome impianto": "PV 6861", "Comune": "PESCARA", "idImpianto": 29329, "points": [{"type": "Feature", "properties": {}, "geometry": {"type": "Point", "coordinates": [14.201862215995789, 42.4631099112261]}}], "price": 1.984, "ultima_rilevazione": "07/07/2022 06:04:03"}, {"Gestore": "GESTIONI INNOVATIVE ITALIA S.R.L.", "Bandiera": "Agip Eni", "Tipo impianto": "Altro", "Indirizzo": "via maiella  16 65010", "Nome impianto": "16876", "Comune": "SPOLTORE", "idImpianto": 48091, "points": [{"type": "Feature", "properties": {}, "geometry": {"type": "Point", "coordinates": [14.156715859465118, 42.42062887098436]}}], "price": 1.984, "ultima_rilevazione": "07/07/2022 06:04:09"}], "3": [{"Gestore": "FABIO CAR WASH - DI DI GIAMBATTISTA FABIO", "Bandiera": "Api-Ip", "Tipo impianto": "Altro", "Indirizzo": "VIA BARDET 88 65126", "Nome impianto": "IP - Italiana Petroli", "Comune": "PESCARA", "idImpianto": 45482, "points": [{"type": "Feature", "properties": {}, "geometry": {"type": "Point", "coordinates": [14.222893964633728, 42.46166429131082]}}], "price": 1.799, "ultima_rilevazione": "27/12/2021 07:55:48"}, {"Gestore": "LAURETI OIL SRL", "Bandiera": "Pompe Bianche", "Tipo impianto": "Altro", "Indirizzo": "VIA D'ANNUNZIO-LOC.CONGIUNTI 49 65010", "Nome impianto": "P.V. CONGIUNTI", "Comune": "COLLECORVINO", "idImpianto": 49578, "points": [{"type": "Feature", "properties": {}, "geometry": {"type": "Point", "coordinates": [14.082596368867897, 42.47327195266131]}}], "price": 1.729, "ultima_rilevazione": "28/02/2022 08:02:07"}, {"Gestore": "PETROL VESTINA SOCIETA' A RESPONSABILITA' LIMITATA SEMPLIFICATA", "Bandiera": "Pompe Bianche", "Tipo impianto": "Altro", "Indirizzo": "VIA VESTINA 431 65015", "Nome impianto": "VESTINA CARBURANTI", "Comune": "MONTESILVANO", "idImpianto": 38895, "points": [{"type": "Feature", "properties": {}, "geometry": {"type": "Point", "coordinates": [14.120869573872028, 42.4880696700691]}}], "price": 2.057, "ultima_rilevazione": "16/06/2022 11:41:59"}, {"Gestore": "D'ALESSANDRO ANTONIO", "Bandiera": "Agip Eni", "Tipo impianto": "Altro", "Indirizzo": "VIA TIBURTINA 2 65128", "Nome impianto": "ENI D'ALESSANDRO", "Comune": "PESCARA", "idImpianto": 30131, "points": [{"type": "Feature", "properties": {}, "geometry": {"type": "Point", "coordinates": [14.210392252045494, 42.458752274378696]}}], "price": 2.064, "ultima_rilevazione": "22/06/2022 11:58:59"}, {"Gestore": "BRATTELLI SERGIO", "Bandiera": "Api-Ip", "Tipo impianto": "Altro", "Indirizzo": "VIA TIBURTINA 134 65100", "Nome impianto": "IP  API anonima petroli italiana", "Comune": "PESCARA", "idImpianto": 41661, "points": [{"type": "Feature", "properties": {}, "geometry": {"type": "Point", "coordinates": [14.206780046224594, 42.45382536875599]}}], "price": 2.059, "ultima_rilevazione": "27/06/2022 14:29:02"}, {"Gestore": "CORRADETTI BRUNO EREDI S.N.C. DI CORRADETTI GIANNI E MAURIZIO", "Bandiera": "Esso", "Tipo impianto": "Strada Statale", "Indirizzo": "Statale 5 Via Tiburtina Valeria, Km. civico 152, dir. mare/monti 65128", "Nome impianto": "ESSO 5622", "Comune": "PESCARA", "idImpianto": 16572, "points": [{"type": "Feature", "properties": {}, "geometry": {"type": "Point", "coordinates": [14.205658882856367, 42.45252139759592]}}], "price": 2.049, "ultima_rilevazione": "28/06/2022 06:45:42"}, {"Gestore": "FLORINDI S.A.S. DI FLORINDI GABRIELE & C.", "Bandiera": "Q8", "Tipo impianto": "Altro", "Indirizzo": "VIA DEL CIRCUITO 107 65124", "Nome impianto": "Q8", "Comune": "PESCARA", "idImpianto": 48021, "points": [{"type": "Feature", "properties": {}, "geometry": {"type": "Point", "coordinates": [14.2030946032928, 42.46339696475847]}}], "price": 2.059, "ultima_rilevazione": "30/06/2022 15:26:56"}, {"Gestore": "F.C. TRASPORTI S.R.L.", "Bandiera": "PAD", "Tipo impianto": "Altro", "Indirizzo": "VIA CAVOUR 24 66020", "Nome impianto": "PAD ", "Comune": "SAN GIOVANNI TEATINO", "idImpianto": 50436, "points": [{"type": "Feature", "properties": {}, "geometry": {"type": "Point", "coordinates": [14.192844088400683, 42.42560297474558]}}], "price": 2.027, "ultima_rilevazione": "30/06/2022 20:41:08"}, {"Gestore": "DITTA SOZIO DI PASQUALE & INNOCENZO SOZIO S.N.C.", "Bandiera": "Pompe Bianche", "Tipo impianto": "Altro", "Indirizzo": "VIA BOLZANO S.N.C. 66020", "Nome impianto": "Sozio Carburanti", "Comune": "SAN GIOVANNI TEATINO", "idImpianto": 10692, "points": [{"type": "Feature", "properties": {}, "geometry": {"type": "Point", "coordinates": [14.193034513630664, 42.42990119836992]}}], "price": 2.027, "ultima_rilevazione": "01/07/2022 13:45:11"}, {"Gestore": "D'AMBROSIO CARBURANTI DI D'AMBROSIO MARCO", "Bandiera": "Api-Ip", "Tipo impianto": "Altro", "Indirizzo": "VIA DEL SANTUARIO 188 65125", "Nome impianto": "DAMBROSIO CARBURANTI ", "Comune": "PESCARA", "idImpianto": 14991, "points": [{"type": "Feature", "properties": {}, "geometry": {"type": "Point", "coordinates": [14.192322655155976, 42.46917516983961]}}], "price": 2.039, "ultima_rilevazione": "02/07/2022 09:57:25"}, {"Gestore": "ENERGIA S.N.C. DI AMBROSINI ALESSANDRO & C.", "Bandiera": "Q8", "Tipo impianto": "Altro", "Indirizzo": "via Nazionale snc 65012", "Nome impianto": "Energia", "Comune": "CEPAGATTI", "idImpianto": 41203, "points": [{"type": "Feature", "properties": {}, "geometry": {"type": "Point", "coordinates": [14.13216233253479, 42.39013063478537]}}], "price": 2.027, "ultima_rilevazione": "02/07/2022 11:09:43"}, {"Gestore": "SERVIZI & GESTIONI ITALIA srl", "Bandiera": "Q8", "Tipo impianto": "Altro", "Indirizzo": "S.P. 656 VALPESCARA-CHIETI KM 0+295 SNC 66100", "Nome impianto": "CHIETI S.P. 656 VALPESCARA-CHIETI KM 0+295", "Comune": "CHIETI", "idImpianto": 6667, "points": [{"type": "Feature", "properties": {}, "geometry": {"type": "Point", "coordinates": [14.15877079325412, 42.388735458858186]}}], "price": 2.019, "ultima_rilevazione": "04/07/2022 00:36:01"}, {"Gestore": "SERVIZI & GESTIONI ITALIA srl", "Bandiera": "Q8", "Tipo impianto": "Altro", "Indirizzo": "VIA  TIRINO SNC 65100", "Nome impianto": "PESCARA VIA  TIRINO", "Comune": "PESCARA", "idImpianto": 6674, "points": [{"type": "Feature", "properties": {}, "geometry": {"type": "Point", "coordinates": [14.215495662565672, 42.44459174860404]}}], "price": 2.029, "ultima_rilevazione": "04/07/2022 00:36:02"}, {"Gestore": "D'ORAZIO GABRIELE", "Bandiera": "Pompe Bianche", "Tipo impianto": "Altro", "Indirizzo": "VIA GIOACCHINO DA FIORE SNC 65127", "Nome impianto": "SMART OIL", "Comune": "PESCARA", "idImpianto": 42718, "points": [{"type": "Feature", "properties": {}, "geometry": {"type": "Point", "coordinates": [14.218355418297506, 42.45181531301959]}}], "price": 2.049, "ultima_rilevazione": "04/07/2022 06:39:35"}, {"Gestore": "DI FEDERICO VINCENZO", "Bandiera": "Esso", "Tipo impianto": "Altro", "Indirizzo": "VIA Dei platani 42 65019", "Nome impianto": "Stazione servizio ENI Di Federico Vincenzo", "Comune": "PIANELLA", "idImpianto": 26800, "points": [{"type": "Feature", "properties": {}, "geometry": {"type": "Point", "coordinates": [14.106832198804112, 42.39036931216416]}}], "price": 2.029, "ultima_rilevazione": "04/07/2022 07:21:08"}, {"Gestore": "DI CECCO ROBERTO", "Bandiera": "Agip Eni", "Tipo impianto": "Altro", "Indirizzo": "VIA TIBURTINA VALERIA 362 65128", "Nome impianto": "STAZIONE ENI DI CECCO ROBERTO", "Comune": "PESCARA", "idImpianto": 46263, "points": [{"type": "Feature", "properties": {}, "geometry": {"type": "Point", "coordinates": [14.196078944680153, 42.43971492681314]}}], "price": 2.019, "ultima_rilevazione": "04/07/2022 09:15:34"}, {"Gestore": "DESIDERIO LORELLA", "Bandiera": "Api-Ip", "Tipo impianto": "Altro", "Indirizzo": "VIA DI SOTTO 124/8 65125", "Nome impianto": "STAZIONE DI SERVIZIO IP", "Comune": "PESCARA", "idImpianto": 45048, "points": [{"type": "Feature", "properties": {}, "geometry": {"type": "Point", "coordinates": [14.170490503311155, 42.477172138298776]}}], "price": 2.099, "ultima_rilevazione": "04/07/2022 10:13:43"}, {"Gestore": "FEA S.R.L.", "Bandiera": "Pompe Bianche", "Tipo impianto": "Strada Statale", "Indirizzo": "16 Adriatica, Km. 14+150, nord 65015", "Nome impianto": "OK MONTESILVANO", "Comune": "MONTESILVANO", "idImpianto": 48911, "points": [{"type": "Feature", "properties": {}, "geometry": {"type": "Point", "coordinates": [14.115263898147598, 42.48166389747176]}}], "price": 2.029, "ultima_rilevazione": "04/07/2022 14:00:04"}, {"Gestore": "AMBROSINI NICOLA E FIGLIO - S.N.C.", "Bandiera": "Q8", "Tipo impianto": "Altro", "Indirizzo": "VIALE UNITA' D'ITALIA, 66100  ", "Nome impianto": "q8", "Comune": "CHIETI", "idImpianto": 9569, "points": [{"type": "Feature", "properties": {}, "geometry": {"type": "Point", "coordinates": [14.159298241138458, 42.39005496060944]}}], "price": 2.029, "ultima_rilevazione": "04/07/2022 18:51:38"}, {"Gestore": "DRAGONARA SERVICE SNC DI SANTOLERI CARLO & C.", "Bandiera": "Agip Eni", "Tipo impianto": "Altro", "Indirizzo": "VIA PIETRO NENNI SNC 66020", "Nome impianto": "eni station dragonara", "Comune": "SAN GIOVANNI TEATINO", "idImpianto": 9724, "points": [{"type": "Feature", "properties": {}, "geometry": {"type": "Point", "coordinates": [14.167411923408508, 42.40156394269239]}}], "price": 2.044, "ultima_rilevazione": "04/07/2022 19:45:27"}, {"Gestore": "SAMBENEDETTO MARIO", "Bandiera": "Api-Ip", "Tipo impianto": "Altro", "Indirizzo": "VIA ENZO FERRARI S. 65124", "Nome impianto": "API", "Comune": "PESCARA", "idImpianto": 42057, "points": [{"type": "Feature", "properties": {}, "geometry": {"type": "Point", "coordinates": [14.202182932540836, 42.4690573969664]}}], "price": 2.029, "ultima_rilevazione": "05/07/2022 09:21:14"}, {"Gestore": "CIALINI GIACOMO", "Bandiera": "Api-Ip", "Tipo impianto": "Altro", "Indirizzo": " PAOLUCCI MOLO NORD SNC 65121", "Nome impianto": "IP", "Comune": "PESCARA", "idImpianto": 32382, "points": [{"type": "Feature", "properties": {}, "geometry": {"type": "Point", "coordinates": [14.222286567091942, 42.46662121062956]}}], "price": 2.049, "ultima_rilevazione": "05/07/2022 12:10:01"}, {"Gestore": "CIALINI GIACOMO", "Bandiera": "Agip Eni", "Tipo impianto": "Altro", "Indirizzo": "VIA VALLE ROVETO 29 65124", "Nome impianto": "Eni di Cialini Giacomo", "Comune": "PESCARA", "idImpianto": 43695, "points": [{"type": "Feature", "properties": {}, "geometry": {"type": "Point", "coordinates": [14.20441221586907, 42.46239537001048]}}], "price": 2.159, "ultima_rilevazione": "05/07/2022 12:10:06"}, {"Gestore": "DI IULIO GIUSEPPE", "Bandiera": "Api-Ip", "Tipo impianto": "Altro", "Indirizzo": "Piazza Ovidio 1.2  65100", "Nome impianto": "Ip", "Comune": "PESCARA", "idImpianto": 49242, "points": [{"type": "Feature", "properties": {}, "geometry": {"type": "Point", "coordinates": [14.220435181971752, 42.45306172115843]}}], "price": 2.029, "ultima_rilevazione": "05/07/2022 14:42:27"}, {"Gestore": "DI FELICE GIANCARLO & C. S.N.C.", "Bandiera": "Pompe Bianche", "Tipo impianto": "Altro", "Indirizzo": "VIA E. FERRARI  65124", "Nome impianto": "TIBER PESCARA", "Comune": "PESCARA", "idImpianto": 18374, "points": [{"type": "Feature", "properties": {}, "geometry": {"type": "Point", "coordinates": [14.201663732528688, 42.4695921867424]}}], "price": 2.079, "ultima_rilevazione": "05/07/2022 15:09:40"}, {"Gestore": "IP SERVICES S.R.L.", "Bandiera": "Api-Ip", "Tipo impianto": "Altro", "Indirizzo": "VIALE BOVIO 334 65100", "Nome impianto": "PESCARA - BOVIO 334", "Comune": "PESCARA", "idImpianto": 31028, "points": [{"type": "Feature", "properties": {}, "geometry": {"type": "Point", "coordinates": [14.19662904218842, 42.47814842301728]}}], "price": 2.019, "ultima_rilevazione": "06/07/2022 13:02:14"}, {"Gestore": "IP SERVICES S.R.L.", "Bandiera": "Api-Ip", "Tipo impianto": "Altro", "Indirizzo": "Via Tiburtina Valeria 386 65128", "Nome impianto": "PESCARA", "Comune": "PESCARA", "idImpianto": 5536, "points": [{"type": "Feature", "properties": {}, "geometry": {"type": "Point", "coordinates": [14.185954084655805, 42.42911187863528]}}], "price": 2.019, "ultima_rilevazione": "06/07/2022 13:08:40"}, {"Gestore": "PETROL FUEL S.P.A.", "Bandiera": "Q8", "Tipo impianto": "Altro", "Indirizzo": "VIA GUGLIELMO MARCONI 200 65126", "Nome impianto": "PV. G.Marconi 196", "Comune": "PESCARA", "idImpianto": 50390, "points": [{"type": "Feature", "properties": {}, "geometry": {"type": "Point", "coordinates": [14.220650401039498, 42.457713998418726]}}], "price": 2.049, "ultima_rilevazione": "06/07/2022 10:29:02"}, {"Gestore": "DITTA SOZIO DI PASQUALE & INNOCENZO SOZIO S.N.C.", "Bandiera": "Pompe Bianche", "Tipo impianto": "Altro", "Indirizzo": "s.s.5 KM 223+900   66100", "Nome impianto": "SOZIO CARBURANTI s.martino", "Comune": "CHIETI", "idImpianto": 40039, "points": [{"type": "Feature", "properties": {}, "geometry": {"type": "Point", "coordinates": [14.159743576690744, 42.39110191328736]}}], "price": 2.027, "ultima_rilevazione": "06/07/2022 10:36:03"}, {"Gestore": "DITTA SOZIO DI PASQUALE & INNOCENZO SOZIO S.N.C.", "Bandiera": "Pompe Bianche", "Tipo impianto": "Altro", "Indirizzo": "via tiburtina Valeria 125 65125", "Nome impianto": "SOZIO CARBURANTI", "Comune": "PESCARA", "idImpianto": 40712, "points": [{"type": "Feature", "properties": {}, "geometry": {"type": "Point", "coordinates": [14.206822961568832, 42.45348893932121]}}], "price": 2.027, "ultima_rilevazione": "06/07/2022 10:36:42"}, {"Gestore": "PETROLIFERA ADRIATICA S.P.A.", "Bandiera": "Q8", "Tipo impianto": "Altro", "Indirizzo": "Via Tiburtina KM229+ 840 Angolo Fontanelle 386 65129", "Nome impianto": "Q8 PESCARA - TIBURTINA ANG. FONTANELLE", "Comune": "PESCARA", "idImpianto": 46037, "points": [{"type": "Feature", "properties": {}, "geometry": {"type": "Point", "coordinates": [14.194991000123, 42.437580000123]}}], "price": 2.029, "ultima_rilevazione": "06/07/2022 11:03:35"}, {"Gestore": "T.D.M. S.R.L.", "Bandiera": "Tamoil", "Tipo impianto": "Altro", "Indirizzo": "via Rigopiano 61 65124", "Nome impianto": "3862", "Comune": "PESCARA", "idImpianto": 27778, "points": [{"type": "Feature", "properties": {}, "geometry": {"type": "Point", "coordinates": [14.201256993254106, 42.46511008072824]}}], "price": 2.019, "ultima_rilevazione": "06/07/2022 11:16:11"}, {"Gestore": "MED OIL - SOCIETA' A RESPONSABILITA' LIMITATA", "Bandiera": "Api-Ip", "Tipo impianto": "Altro", "Indirizzo": "VIA PO 1 66020", "Nome impianto": "MED OIL 48031 Ipercoop", "Comune": "SAN GIOVANNI TEATINO", "idImpianto": 30065, "points": [{"type": "Feature", "properties": {}, "geometry": {"type": "Point", "coordinates": [14.170339554548264, 42.41612195459429]}}], "price": 2.019, "ultima_rilevazione": "06/07/2022 11:37:18"}, {"Gestore": "LAURETI OIL SRL", "Bandiera": "Pompe Bianche", "Tipo impianto": "Altro", "Indirizzo": "VIA CAVOUR 110 66020", "Nome impianto": "P.V. SAMBUCETO", "Comune": "SAN GIOVANNI TEATINO", "idImpianto": 49580, "points": [{"type": "Feature", "properties": {}, "geometry": {"type": "Point", "coordinates": [14.197054203735192, 42.42887530772557]}}], "price": 2.027, "ultima_rilevazione": "06/07/2022 11:52:49"}, {"Gestore": "SYNERGY S.R.L.", "Bandiera": "Pompe Bianche", "Tipo impianto": "Altro", "Indirizzo": "PIAZZA DUCA DEGLI ABRUZZI  34/36 65124", "Nome impianto": "PESCARA ", "Comune": "PESCARA", "idImpianto": 47416, "points": [{"type": "Feature", "properties": {}, "geometry": {"type": "Point", "coordinates": [14.192089578022328, 42.48159710341432]}}], "price": 2.035, "ultima_rilevazione": "06/07/2022 12:09:40"}, {"Gestore": "PETROLBITUMI - SOCIETA A RESPONSABILITA LIMITATA", "Bandiera": "Agip Eni", "Tipo impianto": "Altro", "Indirizzo": "RIO SPARTO 12 65129", "Nome impianto": "Eni", "Comune": "PESCARA", "idImpianto": 9670, "points": [{"type": "Feature", "properties": {}, "geometry": {"type": "Point", "coordinates": [14.211847041317014, 42.4463872619189]}}], "price": 2.044, "ultima_rilevazione": "07/07/2022 00:10:15"}, {"Gestore": "GESTIONI INNOVATIVE ITALIA S.R.L.", "Bandiera": "Agip Eni", "Tipo impianto": "Altro", "Indirizzo": "VIA MARCONI ANGOLO VIA PINDARO 356, 65126  ", "Nome impianto": "PV 6896", "Comune": "PESCARA", "idImpianto": 25393, "points": [{"type": "Feature", "properties": {}, "geometry": {"type": "Point", "coordinates": [14.2270427942276, 42.452310432328886]}}], "price": 1.984, "ultima_rilevazione": "07/07/2022 07:34:09"}, {"Gestore": "GESTIONI INNOVATIVE ITALIA S.R.L.", "Bandiera": "Agip Eni", "Tipo impianto": "Altro", "Indirizzo": "viale G. Bovio  414 65123", "Nome impianto": "54443", "Comune": "PESCARA", "idImpianto": 46087, "points": [{"type": "Feature", "properties": {}, "geometry": {"type": "Point", "coordinates": [14.194619000123, 42.479842000123]}}], "price": 1.984, "ultima_rilevazione": "07/07/2022 06:04:03"}, {"Gestore": "FLORIO RAFFAELE", "Bandiera": "Agip Eni", "Tipo impianto": "Altro", "Indirizzo": "VIA MAZZINI 60 66020", "Nome impianto": "Eni PV 26622 Florio Raffaele", "Comune": "SAN GIOVANNI TEATINO", "idImpianto": 23499, "points": [{"type": "Feature", "properties": {}, "geometry": {"type": "Point", "coordinates": [14.183899084655764, 42.41960091672077]}}], "price": 2.024, "ultima_rilevazione": "07/07/2022 07:37:08"}], "5": [{"Gestore": "PETROL VESTINA SOCIETA' A RESPONSABILITA' LIMITATA", "Bandiera": "Pompe Bianche", "Tipo impianto": "Altro", "Indirizzo": "VIA NAZIONALE ADRIATICA NORD 385 65152", "Nome impianto": "LOTOGAS", "Comune": "PESCARA", "idImpianto": 42918, "points": [{"type": "Feature", "properties": {}, "geometry": {"type": "Point", "coordinates": [14.180217728836055, 42.491390044391714]}}], "price": 2.007, "ultima_rilevazione": "13/06/2022 12:34:16"}, {"Gestore": "EVANGELISTA F. & STARINIERI F. S.N.C.", "Bandiera": "Api-Ip", "Tipo impianto": "Altro", "Indirizzo": "VIA CHIARINI sn 65015", "Nome impianto": "SELF AREA IP", "Comune": "MONTESILVANO", "idImpianto": 32464, "points": [{"type": "Feature", "properties": {}, "geometry": {"type": "Point", "coordinates": [14.142814055085182, 42.50497623824829]}}], "price": 2.059, "ultima_rilevazione": "22/06/2022 16:26:43"}, {"Gestore": "AL-GEDI S.R.L.", "Bandiera": "Api-Ip", "Tipo impianto": "Altro", "Indirizzo": "via verrotti 58 65015", "Nome impianto": "IP Montesilvano", "Comune": "MONTESILVANO", "idImpianto": 51038, "points": [{"type": "Feature", "properties": {}, "geometry": {"type": "Point", "coordinates": [14.157444238662714, 42.50716714202031]}}], "price": 2.059, "ultima_rilevazione": "07/07/2022 07:52:24"}, {"Gestore": "SERVIZI & GESTIONI ITALIA S.R.L.", "Bandiera": "Q8", "Tipo impianto": "Altro", "Indirizzo": "VIA ERASMO PIAGGIO  66100", "Nome impianto": "CHIETI VIA ERASMO PIAGGIO", "Comune": "CHIETI", "idImpianto": 10503, "points": [{"type": "Feature", "properties": {}, "geometry": {"type": "Point", "coordinates": [14.13637817116387, 42.36272959706732]}}], "price": 2.019, "ultima_rilevazione": "04/07/2022 00:36:01"}, {"Gestore": "DI MATTEO ALESSIO", "Bandiera": "Agip Eni", "Tipo impianto": "Altro", "Indirizzo": "VIA ALDO MORO 68 65019", "Nome impianto": "Eni", "Comune": "PIANELLA", "idImpianto": 36610, "points": [{"type": "Feature", "properties": {}, "geometry": {"type": "Point", "coordinates": [14.053228944540024, 42.401838459475954]}}], "price": 2.059, "ultima_rilevazione": "04/07/2022 07:24:40"}, {"Gestore": "IMPIANTI CARBURANTI S.N.C. DI SANTOLERI C. & C.", "Bandiera": "Agip Eni", "Tipo impianto": "Altro", "Indirizzo": "VIALE BENEDETTO CROCE 270/B 66013", "Nome impianto": "eni station", "Comune": "CHIETI", "idImpianto": 16074, "points": [{"type": "Feature", "properties": {}, "geometry": {"type": "Point", "coordinates": [14.141329685319532, 42.364167400000014]}}], "price": 2.039, "ultima_rilevazione": "04/07/2022 08:10:59"}, {"Gestore": "P.D.G. SERVICES S.A.S. DI PACE GIULIO & C", "Bandiera": "Agip Eni", "Tipo impianto": "Altro", "Indirizzo": " S.S. 656 KM. 1-896   66100", "Nome impianto": "STAZIONE SERVIZIO ENI", "Comune": "CHIETI", "idImpianto": 23455, "points": [{"type": "Feature", "properties": {}, "geometry": {"type": "Point", "coordinates": [14.154309332370758, 42.375511507222924]}}], "price": 2.044, "ultima_rilevazione": "04/07/2022 09:27:22"}, {"Gestore": "AMBROSINI NICOLA E FIGLIO - S.N.C.", "Bandiera": "Agip Eni", "Tipo impianto": "Altro", "Indirizzo": "VIA MARVIN GELBER SNC, 66100  66100", "Nome impianto": "q8 gelber", "Comune": "CHIETI", "idImpianto": 9570, "points": [{"type": "Feature", "properties": {}, "geometry": {"type": "Point", "coordinates": [14.137620627880096, 42.36296441411552]}}], "price": 1.999, "ultima_rilevazione": "04/07/2022 18:51:18"}, {"Gestore": "DI FELICE GIANCARLO & C. S.N.C.", "Bandiera": "Pompe Bianche", "Tipo impianto": "Altro", "Indirizzo": "VIA ALDO MORO SNC 65015", "Nome impianto": "TIBER MONTESILVANO", "Comune": "MONTESILVANO", "idImpianto": 38433, "points": [{"type": "Feature", "properties": {}, "geometry": {"type": "Point", "coordinates": [14.184498265385628, 42.49432578518668]}}], "price": 2.029, "ultima_rilevazione": "05/07/2022 15:09:53"}, {"Gestore": "PETROL GAMMA S.R.L.", "Bandiera": "Petrol Gamma", "Tipo impianto": "Altro", "Indirizzo": "Strada statale 151 della Valle del Tavo, Km. 12+450 sn 65010", "Nome impianto": "Petrol Gamma collecorvino", "Comune": "COLLECORVINO", "idImpianto": 49065, "points": [{"type": "Feature", "properties": {}, "geometry": {"type": "Point", "coordinates": [14.036095738410944, 42.43639892443602]}}], "price": 1.997, "ultima_rilevazione": "05/07/2022 17:21:42"}, {"Gestore": "IP SERVICES S.R.L.", "Bandiera": "Api-Ip", "Tipo impianto": "Altro", "Indirizzo": "S.S. 16 KM. 442,620 - GEST COMUNE  65015", "Nome impianto": "MONTESILVANO - MAZZOCCA", "Comune": "MONTESILVANO", "idImpianto": 32291, "points": [{"type": "Feature", "properties": {}, "geometry": {"type": "Point", "coordinates": [14.17089463558193, 42.49906044877983]}}], "price": 2.029, "ultima_rilevazione": "06/07/2022 13:02:12"}, {"Gestore": "IP SERVICES S.R.L.", "Bandiera": "Api-Ip", "Tipo impianto": "Altro", "Indirizzo": "VIA VESTINA - S.S. 16 BIS KM. 18,071  65015", "Nome impianto": "MONTESILVANO - SS 16 BIS", "Comune": "MONTESILVANO", "idImpianto": 34232, "points": [{"type": "Feature", "properties": {}, "geometry": {"type": "Point", "coordinates": [14.143002682209044, 42.5098583280203]}}], "price": 2.019, "ultima_rilevazione": "06/07/2022 13:02:15"}, {"Gestore": "IP SERVICES S.R.L.", "Bandiera": "Api-Ip", "Tipo impianto": "Altro", "Indirizzo": "VIA DELLA PINETA 24 65100", "Nome impianto": "PESCARA - PINETA", "Comune": "PESCARA", "idImpianto": 31491, "points": [{"type": "Feature", "properties": {}, "geometry": {"type": "Point", "coordinates": [14.22998256564142, 42.45159901046903]}}], "price": 2.019, "ultima_rilevazione": "06/07/2022 13:02:15"}, {"Gestore": "AG CARBURANTI DI CORE ANNA GIOIA", "Bandiera": "Api-Ip", "Tipo impianto": "Altro", "Indirizzo": "Via Verrotti 168 65015", "Nome impianto": "TOTALERG", "Comune": "MONTESILVANO", "idImpianto": 37941, "points": [{"type": "Feature", "properties": {}, "geometry": {"type": "Point", "coordinates": [14.168175190643524, 42.498376732014776]}}], "price": 2.029, "ultima_rilevazione": "06/07/2022 10:43:31"}, {"Gestore": "PERSEFONE S.R.L.", "Bandiera": "Pompe Bianche", "Tipo impianto": "Altro", "Indirizzo": "VIA VESTINA 276 65015", "Nome impianto": "LOTOGAS", "Comune": "MONTESILVANO", "idImpianto": 45661, "points": [{"type": "Feature", "properties": {}, "geometry": {"type": "Point", "coordinates": [14.139225000123, 42.506859000123]}}], "price": 1.997, "ultima_rilevazione": "06/07/2022 12:51:31"}, {"Gestore": "TIBER S.R.L.", "Bandiera": "Pompe Bianche", "Tipo impianto": "Altro", "Indirizzo": "VIALE RIVIERA 256 65015", "Nome impianto": "Montesilvano Tiber", "Comune": "MONTESILVANO", "idImpianto": 51168, "points": [{"type": "Feature", "properties": {}, "geometry": {"type": "Point", "coordinates": [14.18448894961099, 42.49433228794628]}}], "price": 2.029, "ultima_rilevazione": "06/07/2022 17:16:05"}, {"Gestore": "AREA DI SERVIZIO DAVIDE STARINIERI E ANTONIO BELLANTE S.N.C.", "Bandiera": "Agip Eni", "Tipo impianto": "Altro", "Indirizzo": "VIA GIUSEPPE VERROTTI 21 65015", "Nome impianto": "AREA DI SERVIZIO D. STARINIERI E A. Bellante S.N.C", "Comune": "MONTESILVANO", "idImpianto": 33984, "points": [{"type": "Feature", "properties": {}, "geometry": {"type": "Point", "coordinates": [14.162255121965018, 42.504493504668616]}}], "price": 2.014, "ultima_rilevazione": "06/07/2022 17:23:14"}, {"Gestore": "D.A.M. DI BOCCANERA GIOVANNI & C. S.A.S.", "Bandiera": "Pompe Bianche", "Tipo impianto": "Altro", "Indirizzo": "VIA CERVINO 1 65015", "Nome impianto": "DAM CARBURANTI", "Comune": "MONTESILVANO", "idImpianto": 4825, "points": [{"type": "Feature", "properties": {}, "geometry": {"type": "Point", "coordinates": [14.173233500552328, 42.491865835349095]}}], "price": 1.977, "ultima_rilevazione": "06/07/2022 18:28:19"}, {"Gestore": "PETROLBITUMI - SOCIETA A RESPONSABILITA LIMITATA", "Bandiera": "Agip Eni", "Tipo impianto": "Altro", "Indirizzo": " CORSO UMBERTO I 243 65015", "Nome impianto": "Eni", "Comune": "MONTESILVANO", "idImpianto": 9669, "points": [{"type": "Feature", "properties": {}, "geometry": {"type": "Point", "coordinates": [14.15574354113926, 42.51203970073024]}}], "price": 2.014, "ultima_rilevazione": "07/07/2022 00:10:19"}, {"Gestore": "ENI FUEL S.P.A.", "Bandiera": "Agip Eni", "Tipo impianto": "Altro", "Indirizzo": "VIA TOGLIATTI/VIA FORESTE 13 65015", "Nome impianto": "26874 PESCARA MONTESILVANO", "Comune": "MONTESILVANO", "idImpianto": 26098, "points": [{"type": "Feature", "properties": {}, "geometry": {"type": "Point", "coordinates": [14.13714051246643, 42.50167907701153]}}], "price": 2.024, "ultima_rilevazione": "07/07/2022 00:16:08"}]}, "null": {}, "GPL": {"1": [{"Gestore": "SO.PE.A. - SOCIETA' PETROLI ABRUZZO - DI PARTENZA PAOLA & C. S.A.S.", "Bandiera": "Pompe Bianche", "Tipo impianto": "Altro", "Indirizzo": "STRADA PROVINCIALE 602 KM 6.000    65013", "Nome impianto": "SOPEA CARBURANTI", "Comune": "CEPAGATTI", "idImpianto": 10898, "points": [{"type": "Feature", "properties": {}, "geometry": {"type": "Point", "coordinates": [14.151050448417664, 42.41293734429773]}}], "price": 0.847, "ultima_rilevazione": "04/07/2022 09:31:03"}], "3": [{"Gestore": "DITTA SOZIO DI PASQUALE & INNOCENZO SOZIO S.N.C.", "Bandiera": "Pompe Bianche", "Tipo impianto": "Altro", "Indirizzo": "VIA BOLZANO S.N.C. 66020", "Nome impianto": "Sozio Carburanti", "Comune": "SAN GIOVANNI TEATINO", "idImpianto": 10692, "points": [{"type": "Feature", "properties": {}, "geometry": {"type": "Point", "coordinates": [14.193034513630664, 42.42990119836992]}}], "price": 0.847, "ultima_rilevazione": "01/07/2022 13:45:11"}, {"Gestore": "ENERGIA S.N.C. DI AMBROSINI ALESSANDRO & C.", "Bandiera": "Q8", "Tipo impianto": "Altro", "Indirizzo": "via Nazionale snc 65012", "Nome impianto": "Energia", "Comune": "CEPAGATTI", "idImpianto": 41203, "points": [{"type": "Feature", "properties": {}, "geometry": {"type": "Point", "coordinates": [14.13216233253479, 42.39013063478537]}}], "price": 0.847, "ultima_rilevazione": "02/07/2022 11:09:43"}, {"Gestore": "AMBROSINI NICOLA E FIGLIO - S.N.C.", "Bandiera": "Q8", "Tipo impianto": "Altro", "Indirizzo": "VIALE UNITA' D'ITALIA, 66100  ", "Nome impianto": "q8", "Comune": "CHIETI", "idImpianto": 9569, "points": [{"type": "Feature", "properties": {}, "geometry": {"type": "Point", "coordinates": [14.159298241138458, 42.39005496060944]}}], "price": 0.847, "ultima_rilevazione": "04/07/2022 18:51:38"}, {"Gestore": "ORLANDO ZOPITO", "Bandiera": "Api-Ip", "Tipo impianto": "Altro", "Indirizzo": "STRADA PROVINCIALE VARIANTE SOTTO CAPPELLE  65010", "Nome impianto": "dist. totalerg-goldengas", "Comune": "CAPPELLE SUL TAVO", "idImpianto": 22691, "points": [{"type": "Feature", "properties": {}, "geometry": {"type": "Point", "coordinates": [14.094767255744252, 42.46660789680314]}}], "price": 0.839, "ultima_rilevazione": "05/07/2022 07:37:15"}, {"Gestore": "CIALINI GIACOMO", "Bandiera": "Agip Eni", "Tipo impianto": "Altro", "Indirizzo": "VIA VALLE ROVETO 29 65124", "Nome impianto": "Eni di Cialini Giacomo", "Comune": "PESCARA", "idImpianto": 43695, "points": [{"type": "Feature", "properties": {}, "geometry": {"type": "Point", "coordinates": [14.20441221586907, 42.46239537001048]}}], "price": 0.857, "ultima_rilevazione": "05/07/2022 12:10:06"}, {"Gestore": "DITTA SOZIO DI PASQUALE & INNOCENZO SOZIO S.N.C.", "Bandiera": "Pompe Bianche", "Tipo impianto": "Altro", "Indirizzo": "s.s.5 KM 223+900   66100", "Nome impianto": "SOZIO CARBURANTI s.martino", "Comune": "CHIETI", "idImpianto": 40039, "points": [{"type": "Feature", "properties": {}, "geometry": {"type": "Point", "coordinates": [14.159743576690744, 42.39110191328736]}}], "price": 0.847, "ultima_rilevazione": "06/07/2022 10:36:03"}], "5": []}, "Gasolio": {"1": [{"Gestore": "DITTA SOZIO DI PASQUALE & INNOCENZO SOZIO S.N.C.", "Bandiera": "Pompe Bianche", "Tipo impianto": "Altro", "Indirizzo": "Viale Europa 97 65010", "Nome impianto": "Sozio Carburanti", "Comune": "SPOLTORE", "idImpianto": 31830, "points": [{"type": "Feature", "properties": {}, "geometry": {"type": "Point", "coordinates": [14.186382694442727, 42.4518995351078]}}], "price": 1.897, "ultima_rilevazione": "06/06/2022 07:04:31"}, {"Gestore": "COSTANTINI CARBURANTI DI GIUSEPPE COSTANTINI S.A.S.", "Bandiera": "Agip Eni", "Tipo impianto": "Altro", "Indirizzo": "STRADA PRATI 80 65125", "Nome impianto": "ENI - COSTANTINI CARBURANTI SAS PV26864", "Comune": "PESCARA", "idImpianto": 51362, "points": [{"type": "Feature", "properties": {}, "geometry": {"type": "Point", "coordinates": [14.17802886549603, 42.46422821157537]}}], "price": 2.014, "ultima_rilevazione": "29/06/2022 08:39:35"}, {"Gestore": "SERVIZI & GESTIONI ITALIA S.R.L.", "Bandiera": "Q8", "Tipo impianto": "Altro", "Indirizzo": " VIA F.FELLINI 8 65010", "Nome impianto": "SPOLTORE- VIA F.FELLINI 8", "Comune": "SPOLTORE", "idImpianto": 11760, "points": [{"type": "Feature", "properties": {}, "geometry": {"type": "Point", "coordinates": [14.181535626983646, 42.45335145419278]}}], "price": 1.997, "ultima_rilevazione": "02/07/2022 00:32:01"}, {"Gestore": "GIAMMARINO MARCO", "Bandiera": "Agip Eni", "Tipo impianto": "Altro", "Indirizzo": "SS 151 KM 17.750 65010", "Nome impianto": "MARCO GIAMMARINO", "Comune": "MOSCUFO", "idImpianto": 45361, "points": [{"type": "Feature", "properties": {}, "geometry": {"type": "Point", "coordinates": [14.08078670501709, 42.456021032669256]}}], "price": 1.989, "ultima_rilevazione": "02/07/2022 09:48:48"}, {"Gestore": "DI CECCO ROBERTO", "Bandiera": "Agip Eni", "Tipo impianto": "Altro", "Indirizzo": "VIA RAIALE  65128", "Nome impianto": "DI CECCO ROBERTO", "Comune": "PESCARA", "idImpianto": 46265, "points": [{"type": "Feature", "properties": {}, "geometry": {"type": "Point", "coordinates": [14.19291839003563, 42.45343253767108]}}], "price": 1.969, "ultima_rilevazione": "04/07/2022 09:16:47"}, {"Gestore": "SO.PE.A. - SOCIETA' PETROLI ABRUZZO - DI PARTENZA PAOLA & C. S.A.S.", "Bandiera": "Pompe Bianche", "Tipo impianto": "Altro", "Indirizzo": "STRADA PROVINCIALE 602 KM 6.000    65013", "Nome impianto": "SOPEA CARBURANTI", "Comune": "CEPAGATTI", "idImpianto": 10898, "points": [{"type": "Feature", "properties": {}, "geometry": {"type": "Point", "coordinates": [14.151050448417664, 42.41293734429773]}}], "price": 1.997, "ultima_rilevazione": "04/07/2022 09:31:03"}, {"Gestore": "SBORGIA LUCIO", "Bandiera": "Api-Ip", "Tipo impianto": "Strada Statale", "Indirizzo": "Statale 602 di Forca di Penne, Km. 4+325, dir. pescara 65010", "Nome impianto": "IP STAZ.SERVIZIO SBORGIA", "Comune": "SPOLTORE", "idImpianto": 33985, "points": [{"type": "Feature", "properties": {}, "geometry": {"type": "Point", "coordinates": [14.159451127052307, 42.42611949543363]}}], "price": 1.999, "ultima_rilevazione": "05/07/2022 16:51:37"}, {"Gestore": "PETROLIFERA ADRIATICA S.P.A.", "Bandiera": "Esso", "Tipo impianto": "Altro", "Indirizzo": "VIA MARE ADRIATICO 117 65010", "Nome impianto": "ESSO - SPOLTORE VIA MARE ADRIATICO", "Comune": "SPOLTORE", "idImpianto": 49208, "points": [{"type": "Feature", "properties": {}, "geometry": {"type": "Point", "coordinates": [14.17350522453694, 42.44263202065476]}}], "price": 1.997, "ultima_rilevazione": "06/07/2022 11:01:37"}, {"Gestore": "PETROLIFERA ADRIATICA S.P.A.", "Bandiera": "PAD", "Tipo impianto": "Altro", "Indirizzo": "V.le Europa  65010", "Nome impianto": "PAD SPOLTORE - V.LE EUROPA", "Comune": "SPOLTORE", "idImpianto": 47216, "points": [{"type": "Feature", "properties": {}, "geometry": {"type": "Point", "coordinates": [14.180174000123, 42.447726000123]}}], "price": 1.997, "ultima_rilevazione": "06/07/2022 11:03:38"}, {"Gestore": "COSTANTINI CARBURANTI DI GIUSEPPE COSTANTINI S.A.S.", "Bandiera": "Agip Eni", "Tipo impianto": "Altro", "Indirizzo": "via aterno snc 66020", "Nome impianto": "26700Costantini Carburanti Sas di Giuseppe Costantini", "Comune": "SAN GIOVANNI TEATINO", "idImpianto": 42320, "points": [{"type": "Feature", "properties": {}, "geometry": {"type": "Point", "coordinates": [14.165290296077728, 42.42197866512996]}}], "price": 2.014, "ultima_rilevazione": "06/07/2022 11:47:28"}, {"Gestore": "LAURETI OIL SRL", "Bandiera": "Pompe Bianche", "Tipo impianto": "Altro", "Indirizzo": "VIALE EUROPA 74 65010", "Nome impianto": "P.V. SPOLTORE", "Comune": "SPOLTORE", "idImpianto": 49581, "points": [{"type": "Feature", "properties": {}, "geometry": {"type": "Point", "coordinates": [14.188851498041284, 42.45412431357234]}}], "price": 1.997, "ultima_rilevazione": "06/07/2022 11:53:18"}, {"Gestore": "COSTANTINI CARBURANTI DI GIUSEPPE COSTANTINI S.A.S.", "Bandiera": "Agip Eni", "Tipo impianto": "Altro", "Indirizzo": "LOCALITA' VILLA SANTA MARIA SNC 65010", "Nome impianto": "ENI DI COSTANTINI CARBURANTI SAS", "Comune": "SPOLTORE", "idImpianto": 42357, "points": [{"type": "Feature", "properties": {}, "geometry": {"type": "Point", "coordinates": [14.116366133093834, 42.45884389043248]}}], "price": 2.014, "ultima_rilevazione": "06/07/2022 13:02:03"}, {"Gestore": "IPERSTAROIL S.R.L.", "Bandiera": "Auchan", "Tipo impianto": "Altro", "Indirizzo": "VIA S.P. 602 VIA MAIELLA SNC ", "Nome impianto": "Spoltore", "Comune": "SPOLTORE", "idImpianto": 50295, "points": [{"type": "Feature", "properties": {}, "geometry": {"type": "Point", "coordinates": [14.154336020488088, 42.41729085603188]}}], "price": 1.969, "ultima_rilevazione": "06/07/2022 15:54:09"}, {"Gestore": "PETROLBITUMI - SOCIETA A RESPONSABILITA LIMITATA", "Bandiera": "Agip Eni", "Tipo impianto": "Altro", "Indirizzo": " COLLE FLORIDO SNC 65019", "Nome impianto": "Eni", "Comune": "PIANELLA", "idImpianto": 9672, "points": [{"type": "Feature", "properties": {}, "geometry": {"type": "Point", "coordinates": [14.106577218981895, 42.42603770480892]}}], "price": 1.994, "ultima_rilevazione": "07/07/2022 00:06:08"}, {"Gestore": "PETROLBITUMI - SOCIETA A RESPONSABILITA LIMITATA", "Bandiera": "Q8", "Tipo impianto": "Strada Statale", "Indirizzo": "Statale 16 bis Adriatica, Km. 448 + 4, dir. Nord 65010", "Nome impianto": "Q8", "Comune": "SPOLTORE", "idImpianto": 6297, "points": [{"type": "Feature", "properties": {}, "geometry": {"type": "Point", "coordinates": [14.176399612716637, 42.45435216632234]}}], "price": 1.994, "ultima_rilevazione": "07/07/2022 00:08:12"}, {"Gestore": "GESTIONI INNOVATIVE ITALIA S.R.L.", "Bandiera": "Agip Eni", "Tipo impianto": "Altro", "Indirizzo": "VIA DEL CIRCUITO KM.1+637 136 65121", "Nome impianto": "PV 6861", "Comune": "PESCARA", "idImpianto": 29329, "points": [{"type": "Feature", "properties": {}, "geometry": {"type": "Point", "coordinates": [14.201862215995789, 42.4631099112261]}}], "price": 1.934, "ultima_rilevazione": "07/07/2022 06:04:03"}, {"Gestore": "GESTIONI INNOVATIVE ITALIA S.R.L.", "Bandiera": "Agip Eni", "Tipo impianto": "Altro", "Indirizzo": "via maiella  16 65010", "Nome impianto": "16876", "Comune": "SPOLTORE", "idImpianto": 48091, "points": [{"type": "Feature", "properties": {}, "geometry": {"type": "Point", "coordinates": [14.156715859465118, 42.42062887098436]}}], "price": 1.934, "ultima_rilevazione": "07/07/2022 06:04:09"}], "3": [{"Gestore": "FABIO CAR WASH - DI DI GIAMBATTISTA FABIO", "Bandiera": "Api-Ip", "Tipo impianto": "Altro", "Indirizzo": "VIA BARDET 88 65126", "Nome impianto": "IP - Italiana Petroli", "Comune": "PESCARA", "idImpianto": 45482, "points": [{"type": "Feature", "properties": {}, "geometry": {"type": "Point", "coordinates": [14.222893964633728, 42.46166429131082]}}], "price": 1.689, "ultima_rilevazione": "27/12/2021 07:55:48"}, {"Gestore": "LAURETI OIL SRL", "Bandiera": "Pompe Bianche", "Tipo impianto": "Altro", "Indirizzo": "VIA D'ANNUNZIO-LOC.CONGIUNTI 49 65010", "Nome impianto": "P.V. CONGIUNTI", "Comune": "COLLECORVINO", "idImpianto": 49578, "points": [{"type": "Feature", "properties": {}, "geometry": {"type": "Point", "coordinates": [14.082596368867897, 42.47327195266131]}}], "price": 1.589, "ultima_rilevazione": "28/02/2022 08:02:07"}, {"Gestore": "PETROL VESTINA SOCIETA' A RESPONSABILITA' LIMITATA SEMPLIFICATA", "Bandiera": "Pompe Bianche", "Tipo impianto": "Altro", "Indirizzo": "VIA VESTINA 431 65015", "Nome impianto": "VESTINA CARBURANTI", "Comune": "MONTESILVANO", "idImpianto": 38895, "points": [{"type": "Feature", "properties": {}, "geometry": {"type": "Point", "coordinates": [14.120869573872028, 42.4880696700691]}}], "price": 1.997, "ultima_rilevazione": "16/06/2022 11:41:59"}, {"Gestore": "D'ALESSANDRO ANTONIO", "Bandiera": "Agip Eni", "Tipo impianto": "Altro", "Indirizzo": "VIA TIBURTINA 2 65128", "Nome impianto": "ENI D'ALESSANDRO", "Comune": "PESCARA", "idImpianto": 30131, "points": [{"type": "Feature", "properties": {}, "geometry": {"type": "Point", "coordinates": [14.210392252045494, 42.458752274378696]}}], "price": 2.024, "ultima_rilevazione": "22/06/2022 11:58:59"}, {"Gestore": "BRATTELLI SERGIO", "Bandiera": "Api-Ip", "Tipo impianto": "Altro", "Indirizzo": "VIA TIBURTINA 134 65100", "Nome impianto": "IP  API anonima petroli italiana", "Comune": "PESCARA", "idImpianto": 41661, "points": [{"type": "Feature", "properties": {}, "geometry": {"type": "Point", "coordinates": [14.206780046224594, 42.45382536875599]}}], "price": 2.019, "ultima_rilevazione": "27/06/2022 14:29:02"}, {"Gestore": "CORRADETTI BRUNO EREDI S.N.C. DI CORRADETTI GIANNI E MAURIZIO", "Bandiera": "Esso", "Tipo impianto": "Strada Statale", "Indirizzo": "Statale 5 Via Tiburtina Valeria, Km. civico 152, dir. mare/monti 65128", "Nome impianto": "ESSO 5622", "Comune": "PESCARA", "idImpianto": 16572, "points": [{"type": "Feature", "properties": {}, "geometry": {"type": "Point", "coordinates": [14.205658882856367, 42.45252139759592]}}], "price": 2.029, "ultima_rilevazione": "28/06/2022 06:45:42"}, {"Gestore": "FLORINDI S.A.S. DI FLORINDI GABRIELE & C.", "Bandiera": "Q8", "Tipo impianto": "Altro", "Indirizzo": "VIA DEL CIRCUITO 107 65124", "Nome impianto": "Q8", "Comune": "PESCARA", "idImpianto": 48021, "points": [{"type": "Feature", "properties": {}, "geometry": {"type": "Point", "coordinates": [14.2030946032928, 42.46339696475847]}}], "price": 1.999, "ultima_rilevazione": "30/06/2022 15:26:56"}, {"Gestore": "F.C. TRASPORTI S.R.L.", "Bandiera": "PAD", "Tipo impianto": "Altro", "Indirizzo": "VIA CAVOUR 24 66020", "Nome impianto": "PAD ", "Comune": "SAN GIOVANNI TEATINO", "idImpianto": 50436, "points": [{"type": "Feature", "properties": {}, "geometry": {"type": "Point", "coordinates": [14.192844088400683, 42.42560297474558]}}], "price": 2.027, "ultima_rilevazione": "30/06/2022 20:41:08"}, {"Gestore": "DITTA SOZIO DI PASQUALE & INNOCENZO SOZIO S.N.C.", "Bandiera": "Pompe Bianche", "Tipo impianto": "Altro", "Indirizzo": "VIA BOLZANO S.N.C. 66020", "Nome impianto": "Sozio Carburanti", "Comune": "SAN GIOVANNI TEATINO", "idImpianto": 10692, "points": [{"type": "Feature", "properties": {}, "geometry": {"type": "Point", "coordinates": [14.193034513630664, 42.42990119836992]}}], "price": 1.997, "ultima_rilevazione": "01/07/2022 13:45:11"}, {"Gestore": "D'AMBROSIO CARBURANTI DI D'AMBROSIO MARCO", "Bandiera": "Api-Ip", "Tipo impianto": "Altro", "Indirizzo": "VIA DEL SANTUARIO 188 65125", "Nome impianto": "DAMBROSIO CARBURANTI ", "Comune": "PESCARA", "idImpianto": 14991, "points": [{"type": "Feature", "properties": {}, "geometry": {"type": "Point", "coordinates": [14.192322655155976, 42.46917516983961]}}], "price": 2.024, "ultima_rilevazione": "02/07/2022 09:57:25"}, {"Gestore": "ENERGIA S.N.C. DI AMBROSINI ALESSANDRO & C.", "Bandiera": "Q8", "Tipo impianto": "Altro", "Indirizzo": "via Nazionale snc 65012", "Nome impianto": "Energia", "Comune": "CEPAGATTI", "idImpianto": 41203, "points": [{"type": "Feature", "properties": {}, "geometry": {"type": "Point", "coordinates": [14.13216233253479, 42.39013063478537]}}], "price": 1.997, "ultima_rilevazione": "02/07/2022 11:09:43"}, {"Gestore": "SERVIZI & GESTIONI ITALIA srl", "Bandiera": "Q8", "Tipo impianto": "Altro", "Indirizzo": "S.P. 656 VALPESCARA-CHIETI KM 0+295 SNC 66100", "Nome impianto": "CHIETI S.P. 656 VALPESCARA-CHIETI KM 0+295", "Comune": "CHIETI", "idImpianto": 6667, "points": [{"type": "Feature", "properties": {}, "geometry": {"type": "Point", "coordinates": [14.15877079325412, 42.388735458858186]}}], "price": 1.979, "ultima_rilevazione": "04/07/2022 00:36:01"}, {"Gestore": "SERVIZI & GESTIONI ITALIA srl", "Bandiera": "Q8", "Tipo impianto": "Altro", "Indirizzo": "VIA  TIRINO SNC 65100", "Nome impianto": "PESCARA VIA  TIRINO", "Comune": "PESCARA", "idImpianto": 6674, "points": [{"type": "Feature", "properties": {}, "geometry": {"type": "Point", "coordinates": [14.215495662565672, 42.44459174860404]}}], "price": 1.999, "ultima_rilevazione": "04/07/2022 00:36:02"}, {"Gestore": "D'ORAZIO GABRIELE", "Bandiera": "Pompe Bianche", "Tipo impianto": "Altro", "Indirizzo": "VIA GIOACCHINO DA FIORE SNC 65127", "Nome impianto": "SMART OIL", "Comune": "PESCARA", "idImpianto": 42718, "points": [{"type": "Feature", "properties": {}, "geometry": {"type": "Point", "coordinates": [14.218355418297506, 42.45181531301959]}}], "price": 1.999, "ultima_rilevazione": "04/07/2022 06:39:35"}, {"Gestore": "DI FEDERICO VINCENZO", "Bandiera": "Esso", "Tipo impianto": "Altro", "Indirizzo": "VIA Dei platani 42 65019", "Nome impianto": "Stazione servizio ENI Di Federico Vincenzo", "Comune": "PIANELLA", "idImpianto": 26800, "points": [{"type": "Feature", "properties": {}, "geometry": {"type": "Point", "coordinates": [14.106832198804112, 42.39036931216416]}}], "price": 1.999, "ultima_rilevazione": "04/07/2022 07:21:08"}, {"Gestore": "DI CECCO ROBERTO", "Bandiera": "Agip Eni", "Tipo impianto": "Altro", "Indirizzo": "VIA TIBURTINA VALERIA 362 65128", "Nome impianto": "STAZIONE ENI DI CECCO ROBERTO", "Comune": "PESCARA", "idImpianto": 46263, "points": [{"type": "Feature", "properties": {}, "geometry": {"type": "Point", "coordinates": [14.196078944680153, 42.43971492681314]}}], "price": 1.969, "ultima_rilevazione": "04/07/2022 09:15:34"}, {"Gestore": "DESIDERIO LORELLA", "Bandiera": "Api-Ip", "Tipo impianto": "Altro", "Indirizzo": "VIA DI SOTTO 124/8 65125", "Nome impianto": "STAZIONE DI SERVIZIO IP", "Comune": "PESCARA", "idImpianto": 45048, "points": [{"type": "Feature", "properties": {}, "geometry": {"type": "Point", "coordinates": [14.170490503311155, 42.477172138298776]}}], "price": 2.029, "ultima_rilevazione": "04/07/2022 10:13:43"}, {"Gestore": "FEA S.R.L.", "Bandiera": "Pompe Bianche", "Tipo impianto": "Strada Statale", "Indirizzo": "16 Adriatica, Km. 14+150, nord 65015", "Nome impianto": "OK MONTESILVANO", "Comune": "MONTESILVANO", "idImpianto": 48911, "points": [{"type": "Feature", "properties": {}, "geometry": {"type": "Point", "coordinates": [14.115263898147598, 42.48166389747176]}}], "price": 1.999, "ultima_rilevazione": "04/07/2022 14:00:04"}, {"Gestore": "AMBROSINI NICOLA E FIGLIO - S.N.C.", "Bandiera": "Q8", "Tipo impianto": "Altro", "Indirizzo": "VIALE UNITA' D'ITALIA, 66100  ", "Nome impianto": "q8", "Comune": "CHIETI", "idImpianto": 9569, "points": [{"type": "Feature", "properties": {}, "geometry": {"type": "Point", "coordinates": [14.159298241138458, 42.39005496060944]}}], "price": 1.999, "ultima_rilevazione": "04/07/2022 18:51:38"}, {"Gestore": "DRAGONARA SERVICE SNC DI SANTOLERI CARLO & C.", "Bandiera": "Agip Eni", "Tipo impianto": "Altro", "Indirizzo": "VIA PIETRO NENNI SNC 66020", "Nome impianto": "eni station dragonara", "Comune": "SAN GIOVANNI TEATINO", "idImpianto": 9724, "points": [{"type": "Feature", "properties": {}, "geometry": {"type": "Point", "coordinates": [14.167411923408508, 42.40156394269239]}}], "price": 1.974, "ultima_rilevazione": "04/07/2022 19:45:27"}, {"Gestore": "SAMBENEDETTO MARIO", "Bandiera": "Api-Ip", "Tipo impianto": "Altro", "Indirizzo": "VIA ENZO FERRARI S. 65124", "Nome impianto": "API", "Comune": "PESCARA", "idImpianto": 42057, "points": [{"type": "Feature", "properties": {}, "geometry": {"type": "Point", "coordinates": [14.202182932540836, 42.4690573969664]}}], "price": 1.999, "ultima_rilevazione": "05/07/2022 09:21:14"}, {"Gestore": "CIALINI GIACOMO", "Bandiera": "Api-Ip", "Tipo impianto": "Altro", "Indirizzo": " PAOLUCCI MOLO NORD SNC 65121", "Nome impianto": "IP", "Comune": "PESCARA", "idImpianto": 32382, "points": [{"type": "Feature", "properties": {}, "geometry": {"type": "Point", "coordinates": [14.222286567091942, 42.46662121062956]}}], "price": 2.079, "ultima_rilevazione": "05/07/2022 12:10:01"}, {"Gestore": "CIALINI GIACOMO", "Bandiera": "Agip Eni", "Tipo impianto": "Altro", "Indirizzo": "VIA VALLE ROVETO 29 65124", "Nome impianto": "Eni di Cialini Giacomo", "Comune": "PESCARA", "idImpianto": 43695, "points": [{"type": "Feature", "properties": {}, "geometry": {"type": "Point", "coordinates": [14.20441221586907, 42.46239537001048]}}], "price": 2.099, "ultima_rilevazione": "05/07/2022 12:10:06"}, {"Gestore": "DI IULIO GIUSEPPE", "Bandiera": "Api-Ip", "Tipo impianto": "Altro", "Indirizzo": "Piazza Ovidio 1.2  65100", "Nome impianto": "Ip", "Comune": "PESCARA", "idImpianto": 49242, "points": [{"type": "Feature", "properties": {}, "geometry": {"type": "Point", "coordinates": [14.220435181971752, 42.45306172115843]}}], "price": 1.999, "ultima_rilevazione": "05/07/2022 14:42:27"}, {"Gestore": "DI FELICE GIANCARLO & C. S.N.C.", "Bandiera": "Pompe Bianche", "Tipo impianto": "Altro", "Indirizzo": "VIA E. FERRARI  65124", "Nome impianto": "TIBER PESCARA", "Comune": "PESCARA", "idImpianto": 18374, "points": [{"type": "Feature", "properties": {}, "geometry": {"type": "Point", "coordinates": [14.201663732528688, 42.4695921867424]}}], "price": 2.069, "ultima_rilevazione": "05/07/2022 15:09:40"}, {"Gestore": "PETROL FUEL S.P.A.", "Bandiera": "Q8", "Tipo impianto": "Altro", "Indirizzo": "VIA GUGLIELMO MARCONI 200 65126", "Nome impianto": "PV. G.Marconi 196", "Comune": "PESCARA", "idImpianto": 50390, "points": [{"type": "Feature", "properties": {}, "geometry": {"type": "Point", "coordinates": [14.220650401039498, 42.457713998418726]}}], "price": 1.979, "ultima_rilevazione": "06/07/2022 10:29:02"}, {"Gestore": "DITTA SOZIO DI PASQUALE & INNOCENZO SOZIO S.N.C.", "Bandiera": "Pompe Bianche", "Tipo impianto": "Altro", "Indirizzo": "s.s.5 KM 223+900   66100", "Nome impianto": "SOZIO CARBURANTI s.martino", "Comune": "CHIETI", "idImpianto": 40039, "points": [{"type": "Feature", "properties": {}, "geometry": {"type": "Point", "coordinates": [14.159743576690744, 42.39110191328736]}}], "price": 1.997, "ultima_rilevazione": "06/07/2022 10:36:03"}, {"Gestore": "DITTA SOZIO DI PASQUALE & INNOCENZO SOZIO S.N.C.", "Bandiera": "Pompe Bianche", "Tipo impianto": "Altro", "Indirizzo": "via tiburtina Valeria 125 65125", "Nome impianto": "SOZIO CARBURANTI", "Comune": "PESCARA", "idImpianto": 40712, "points": [{"type": "Feature", "properties": {}, "geometry": {"type": "Point", "coordinates": [14.206822961568832, 42.45348893932121]}}], "price": 1.997, "ultima_rilevazione": "06/07/2022 10:36:42"}, {"Gestore": "PETROLIFERA ADRIATICA S.P.A.", "Bandiera": "Q8", "Tipo impianto": "Altro", "Indirizzo": "Via Tiburtina KM229+ 840 Angolo Fontanelle 386 65129", "Nome impianto": "Q8 PESCARA - TIBURTINA ANG. FONTANELLE", "Comune": "PESCARA", "idImpianto": 46037, "points": [{"type": "Feature", "properties": {}, "geometry": {"type": "Point", "coordinates": [14.194991000123, 42.437580000123]}}], "price": 1.999, "ultima_rilevazione": "06/07/2022 11:03:35"}, {"Gestore": "T.D.M. S.R.L.", "Bandiera": "Tamoil", "Tipo impianto": "Altro", "Indirizzo": "via Rigopiano 61 65124", "Nome impianto": "3862", "Comune": "PESCARA", "idImpianto": 27778, "points": [{"type": "Feature", "properties": {}, "geometry": {"type": "Point", "coordinates": [14.201256993254106, 42.46511008072824]}}], "price": 1.989, "ultima_rilevazione": "06/07/2022 11:16:11"}, {"Gestore": "MED OIL - SOCIETA' A RESPONSABILITA' LIMITATA", "Bandiera": "Api-Ip", "Tipo impianto": "Altro", "Indirizzo": "VIA PO 1 66020", "Nome impianto": "MED OIL 48031 Ipercoop", "Comune": "SAN GIOVANNI TEATINO", "idImpianto": 30065, "points": [{"type": "Feature", "properties": {}, "geometry": {"type": "Point", "coordinates": [14.170339554548264, 42.41612195459429]}}], "price": 1.979, "ultima_rilevazione": "06/07/2022 11:37:18"}, {"Gestore": "LAURETI OIL SRL", "Bandiera": "Pompe Bianche", "Tipo impianto": "Altro", "Indirizzo": "VIA CAVOUR 110 66020", "Nome impianto": "P.V. SAMBUCETO", "Comune": "SAN GIOVANNI TEATINO", "idImpianto": 49580, "points": [{"type": "Feature", "properties": {}, "geometry": {"type": "Point", "coordinates": [14.197054203735192, 42.42887530772557]}}], "price": 2.027, "ultima_rilevazione": "06/07/2022 11:52:49"}, {"Gestore": "SYNERGY S.R.L.", "Bandiera": "Pompe Bianche", "Tipo impianto": "Altro", "Indirizzo": "PIAZZA DUCA DEGLI ABRUZZI  34/36 65124", "Nome impianto": "PESCARA ", "Comune": "PESCARA", "idImpianto": 47416, "points": [{"type": "Feature", "properties": {}, "geometry": {"type": "Point", "coordinates": [14.192089578022328, 42.48159710341432]}}], "price": 1.999, "ultima_rilevazione": "06/07/2022 12:09:40"}, {"Gestore": "IP SERVICES S.R.L.", "Bandiera": "Api-Ip", "Tipo impianto": "Altro", "Indirizzo": "VIALE BOVIO 334 65100", "Nome impianto": "PESCARA - BOVIO 334", "Comune": "PESCARA", "idImpianto": 31028, "points": [{"type": "Feature", "properties": {}, "geometry": {"type": "Point", "coordinates": [14.19662904218842, 42.47814842301728]}}], "price": 1.964, "ultima_rilevazione": "06/07/2022 13:02:14"}, {"Gestore": "IP SERVICES S.R.L.", "Bandiera": "Api-Ip", "Tipo impianto": "Altro", "Indirizzo": "Via Tiburtina Valeria 386 65128", "Nome impianto": "PESCARA", "Comune": "PESCARA", "idImpianto": 5536, "points": [{"type": "Feature", "properties": {}, "geometry": {"type": "Point", "coordinates": [14.185954084655805, 42.42911187863528]}}], "price": 1.964, "ultima_rilevazione": "06/07/2022 13:08:40"}, {"Gestore": "PETROLBITUMI - SOCIETA A RESPONSABILITA LIMITATA", "Bandiera": "Agip Eni", "Tipo impianto": "Altro", "Indirizzo": "RIO SPARTO 12 65129", "Nome impianto": "Eni", "Comune": "PESCARA", "idImpianto": 9670, "points": [{"type": "Feature", "properties": {}, "geometry": {"type": "Point", "coordinates": [14.211847041317014, 42.4463872619189]}}], "price": 2.004, "ultima_rilevazione": "07/07/2022 00:10:15"}, {"Gestore": "GESTIONI INNOVATIVE ITALIA S.R.L.", "Bandiera": "Agip Eni", "Tipo impianto": "Altro", "Indirizzo": "VIA MARCONI ANGOLO VIA PINDARO 356, 65126  ", "Nome impianto": "PV 6896", "Comune": "PESCARA", "idImpianto": 25393, "points": [{"type": "Feature", "properties": {}, "geometry": {"type": "Point", "coordinates": [14.2270427942276, 42.452310432328886]}}], "price": 1.934, "ultima_rilevazione": "07/07/2022 07:34:09"}, {"Gestore": "GESTIONI INNOVATIVE ITALIA S.R.L.", "Bandiera": "Agip Eni", "Tipo impianto": "Altro", "Indirizzo": "viale G. Bovio  414 65123", "Nome impianto": "54443", "Comune": "PESCARA", "idImpianto": 46087, "points": [{"type": "Feature", "properties": {}, "geometry": {"type": "Point", "coordinates": [14.194619000123, 42.479842000123]}}], "price": 1.934, "ultima_rilevazione": "07/07/2022 06:04:03"}, {"Gestore": "FLORIO RAFFAELE", "Bandiera": "Agip Eni", "Tipo impianto": "Altro", "Indirizzo": "VIA MAZZINI 60 66020", "Nome impianto": "Eni PV 26622 Florio Raffaele", "Comune": "SAN GIOVANNI TEATINO", "idImpianto": 23499, "points": [{"type": "Feature", "properties": {}, "geometry": {"type": "Point", "coordinates": [14.183899084655764, 42.41960091672077]}}], "price": 1.964, "ultima_rilevazione": "07/07/2022 07:37:08"}], "5": [{"Gestore": "PETROL VESTINA SOCIETA' A RESPONSABILITA' LIMITATA", "Bandiera": "Pompe Bianche", "Tipo impianto": "Altro", "Indirizzo": "VIA NAZIONALE ADRIATICA NORD 385 65152", "Nome impianto": "LOTOGAS", "Comune": "PESCARA", "idImpianto": 42918, "points": [{"type": "Feature", "properties": {}, "geometry": {"type": "Point", "coordinates": [14.180217728836055, 42.491390044391714]}}], "price": 1.947, "ultima_rilevazione": "13/06/2022 12:34:16"}, {"Gestore": "EVANGELISTA F. & STARINIERI F. S.N.C.", "Bandiera": "Api-Ip", "Tipo impianto": "Altro", "Indirizzo": "VIA CHIARINI sn 65015", "Nome impianto": "SELF AREA IP", "Comune": "MONTESILVANO", "idImpianto": 32464, "points": [{"type": "Feature", "properties": {}, "geometry": {"type": "Point", "coordinates": [14.142814055085182, 42.50497623824829]}}], "price": 2.019, "ultima_rilevazione": "22/06/2022 16:26:43"}, {"Gestore": "AL-GEDI S.R.L.", "Bandiera": "Api-Ip", "Tipo impianto": "Altro", "Indirizzo": "via verrotti 58 65015", "Nome impianto": "IP Montesilvano", "Comune": "MONTESILVANO", "idImpianto": 51038, "points": [{"type": "Feature", "properties": {}, "geometry": {"type": "Point", "coordinates": [14.157444238662714, 42.50716714202031]}}], "price": 1.999, "ultima_rilevazione": "07/07/2022 07:52:24"}, {"Gestore": "SERVIZI & GESTIONI ITALIA S.R.L.", "Bandiera": "Q8", "Tipo impianto": "Altro", "Indirizzo": "VIA ERASMO PIAGGIO  66100", "Nome impianto": "CHIETI VIA ERASMO PIAGGIO", "Comune": "CHIETI", "idImpianto": 10503, "points": [{"type": "Feature", "properties": {}, "geometry": {"type": "Point", "coordinates": [14.13637817116387, 42.36272959706732]}}], "price": 1.979, "ultima_rilevazione": "04/07/2022 00:36:01"}, {"Gestore": "DI MATTEO ALESSIO", "Bandiera": "Agip Eni", "Tipo impianto": "Altro", "Indirizzo": "VIA ALDO MORO 68 65019", "Nome impianto": "Eni", "Comune": "PIANELLA", "idImpianto": 36610, "points": [{"type": "Feature", "properties": {}, "geometry": {"type": "Point", "coordinates": [14.053228944540024, 42.401838459475954]}}], "price": 1.989, "ultima_rilevazione": "04/07/2022 07:24:40"}, {"Gestore": "IMPIANTI CARBURANTI S.N.C. DI SANTOLERI C. & C.", "Bandiera": "Agip Eni", "Tipo impianto": "Altro", "Indirizzo": "VIALE BENEDETTO CROCE 270/B 66013", "Nome impianto": "eni station", "Comune": "CHIETI", "idImpianto": 16074, "points": [{"type": "Feature", "properties": {}, "geometry": {"type": "Point", "coordinates": [14.141329685319532, 42.364167400000014]}}], "price": 1.969, "ultima_rilevazione": "04/07/2022 08:10:59"}, {"Gestore": "P.D.G. SERVICES S.A.S. DI PACE GIULIO & C", "Bandiera": "Agip Eni", "Tipo impianto": "Altro", "Indirizzo": " S.S. 656 KM. 1-896   66100", "Nome impianto": "STAZIONE SERVIZIO ENI", "Comune": "CHIETI", "idImpianto": 23455, "points": [{"type": "Feature", "properties": {}, "geometry": {"type": "Point", "coordinates": [14.154309332370758, 42.375511507222924]}}], "price": 1.974, "ultima_rilevazione": "04/07/2022 09:27:22"}, {"Gestore": "AMBROSINI NICOLA E FIGLIO - S.N.C.", "Bandiera": "Agip Eni", "Tipo impianto": "Altro", "Indirizzo": "VIA MARVIN GELBER SNC, 66100  66100", "Nome impianto": "q8 gelber", "Comune": "CHIETI", "idImpianto": 9570, "points": [{"type": "Feature", "properties": {}, "geometry": {"type": "Point", "coordinates": [14.137620627880096, 42.36296441411552]}}], "price": 1.959, "ultima_rilevazione": "04/07/2022 18:51:18"}, {"Gestore": "DI FELICE GIANCARLO & C. S.N.C.", "Bandiera": "Pompe Bianche", "Tipo impianto": "Altro", "Indirizzo": "VIA ALDO MORO SNC 65015", "Nome impianto": "TIBER MONTESILVANO", "Comune": "MONTESILVANO", "idImpianto": 38433, "points": [{"type": "Feature", "properties": {}, "geometry": {"type": "Point", "coordinates": [14.184498265385628, 42.49432578518668]}}], "price": 2.029, "ultima_rilevazione": "05/07/2022 15:09:53"}, {"Gestore": "PETROL GAMMA S.R.L.", "Bandiera": "Petrol Gamma", "Tipo impianto": "Altro", "Indirizzo": "Strada statale 151 della Valle del Tavo, Km. 12+450 sn 65010", "Nome impianto": "Petrol Gamma collecorvino", "Comune": "COLLECORVINO", "idImpianto": 49065, "points": [{"type": "Feature", "properties": {}, "geometry": {"type": "Point", "coordinates": [14.036095738410944, 42.43639892443602]}}], "price": 1.977, "ultima_rilevazione": "05/07/2022 17:21:42"}, {"Gestore": "AG CARBURANTI DI CORE ANNA GIOIA", "Bandiera": "Api-Ip", "Tipo impianto": "Altro", "Indirizzo": "Via Verrotti 168 65015", "Nome impianto": "TOTALERG", "Comune": "MONTESILVANO", "idImpianto": 37941, "points": [{"type": "Feature", "properties": {}, "geometry": {"type": "Point", "coordinates": [14.168175190643524, 42.498376732014776]}}], "price": 1.989, "ultima_rilevazione": "06/07/2022 10:43:31"}, {"Gestore": "PERSEFONE S.R.L.", "Bandiera": "Pompe Bianche", "Tipo impianto": "Altro", "Indirizzo": "VIA VESTINA 276 65015", "Nome impianto": "LOTOGAS", "Comune": "MONTESILVANO", "idImpianto": 45661, "points": [{"type": "Feature", "properties": {}, "geometry": {"type": "Point", "coordinates": [14.139225000123, 42.506859000123]}}], "price": 1.967, "ultima_rilevazione": "06/07/2022 12:51:31"}, {"Gestore": "IP SERVICES S.R.L.", "Bandiera": "Api-Ip", "Tipo impianto": "Altro", "Indirizzo": "S.S. 16 KM. 442,620 - GEST COMUNE  65015", "Nome impianto": "MONTESILVANO - MAZZOCCA", "Comune": "MONTESILVANO", "idImpianto": 32291, "points": [{"type": "Feature", "properties": {}, "geometry": {"type": "Point", "coordinates": [14.17089463558193, 42.49906044877983]}}], "price": 1.974, "ultima_rilevazione": "06/07/2022 13:02:12"}, {"Gestore": "IP SERVICES S.R.L.", "Bandiera": "Api-Ip", "Tipo impianto": "Altro", "Indirizzo": "VIA VESTINA - S.S. 16 BIS KM. 18,071  65015", "Nome impianto": "MONTESILVANO - SS 16 BIS", "Comune": "MONTESILVANO", "idImpianto": 34232, "points": [{"type": "Feature", "properties": {}, "geometry": {"type": "Point", "coordinates": [14.143002682209044, 42.5098583280203]}}], "price": 1.964, "ultima_rilevazione": "06/07/2022 13:02:15"}, {"Gestore": "IP SERVICES S.R.L.", "Bandiera": "Api-Ip", "Tipo impianto": "Altro", "Indirizzo": "VIA DELLA PINETA 24 65100", "Nome impianto": "PESCARA - PINETA", "Comune": "PESCARA", "idImpianto": 31491, "points": [{"type": "Feature", "properties": {}, "geometry": {"type": "Point", "coordinates": [14.22998256564142, 42.45159901046903]}}], "price": 1.964, "ultima_rilevazione": "06/07/2022 13:02:15"}, {"Gestore": "TIBER S.R.L.", "Bandiera": "Pompe Bianche", "Tipo impianto": "Altro", "Indirizzo": "VIALE RIVIERA 256 65015", "Nome impianto": "Montesilvano Tiber", "Comune": "MONTESILVANO", "idImpianto": 51168, "points": [{"type": "Feature", "properties": {}, "geometry": {"type": "Point", "coordinates": [14.18448894961099, 42.49433228794628]}}], "price": 2.029, "ultima_rilevazione": "06/07/2022 17:16:05"}, {"Gestore": "AREA DI SERVIZIO DAVIDE STARINIERI E ANTONIO BELLANTE S.N.C.", "Bandiera": "Agip Eni", "Tipo impianto": "Altro", "Indirizzo": "VIA GIUSEPPE VERROTTI 21 65015", "Nome impianto": "AREA DI SERVIZIO D. STARINIERI E A. Bellante S.N.C", "Comune": "MONTESILVANO", "idImpianto": 33984, "points": [{"type": "Feature", "properties": {}, "geometry": {"type": "Point", "coordinates": [14.162255121965018, 42.504493504668616]}}], "price": 1.994, "ultima_rilevazione": "06/07/2022 17:23:14"}, {"Gestore": "D.A.M. DI BOCCANERA GIOVANNI & C. S.A.S.", "Bandiera": "Pompe Bianche", "Tipo impianto": "Altro", "Indirizzo": "VIA CERVINO 1 65015", "Nome impianto": "DAM CARBURANTI", "Comune": "MONTESILVANO", "idImpianto": 4825, "points": [{"type": "Feature", "properties": {}, "geometry": {"type": "Point", "coordinates": [14.173233500552328, 42.491865835349095]}}], "price": 1.937, "ultima_rilevazione": "06/07/2022 18:28:19"}, {"Gestore": "PETROLBITUMI - SOCIETA A RESPONSABILITA LIMITATA", "Bandiera": "Agip Eni", "Tipo impianto": "Altro", "Indirizzo": " CORSO UMBERTO I 243 65015", "Nome impianto": "Eni", "Comune": "MONTESILVANO", "idImpianto": 9669, "points": [{"type": "Feature", "properties": {}, "geometry": {"type": "Point", "coordinates": [14.15574354113926, 42.51203970073024]}}], "price": 1.994, "ultima_rilevazione": "07/07/2022 00:10:19"}, {"Gestore": "ENI FUEL S.P.A.", "Bandiera": "Agip Eni", "Tipo impianto": "Altro", "Indirizzo": "VIA TOGLIATTI/VIA FORESTE 13 65015", "Nome impianto": "26874 PESCARA MONTESILVANO", "Comune": "MONTESILVANO", "idImpianto": 26098, "points": [{"type": "Feature", "properties": {}, "geometry": {"type": "Point", "coordinates": [14.13714051246643, 42.50167907701153]}}], "price": 1.974, "ultima_rilevazione": "07/07/2022 00:16:08"}]}, "Metano": {"1": [{"Gestore": "SO.PE.A. - SOCIETA' PETROLI ABRUZZO - DI PARTENZA PAOLA & C. S.A.S.", "Bandiera": "Pompe Bianche", "Tipo impianto": "Altro", "Indirizzo": "STRADA PROVINCIALE 602 KM 6.000    65013", "Nome impianto": "SOPEA CARBURANTI", "Comune": "CEPAGATTI", "idImpianto": 10898, "points": [{"type": "Feature", "properties": {}, "geometry": {"type": "Point", "coordinates": [14.151050448417664, 42.41293734429773]}}], "price": 1.29, "ultima_rilevazione": "04/07/2022 09:31:03"}, {"Gestore": "IPERSTAROIL S.R.L.", "Bandiera": "Auchan", "Tipo impianto": "Altro", "Indirizzo": "VIA S.P. 602 VIA MAIELLA SNC ", "Nome impianto": "Spoltore", "Comune": "SPOLTORE", "idImpianto": 50295, "points": [{"type": "Feature", "properties": {}, "geometry": {"type": "Point", "coordinates": [14.154336020488088, 42.41729085603188]}}], "price": 1.399, "ultima_rilevazione": "06/07/2022 15:54:09"}], "3": [{"Gestore": "DITTA SOZIO DI PASQUALE & INNOCENZO SOZIO S.N.C.", "Bandiera": "Pompe Bianche", "Tipo impianto": "Altro", "Indirizzo": "Via Bolzano  snc 66020", "Nome impianto": "SOZIO CARBURANTI METANO", "Comune": "SAN GIOVANNI TEATINO", "idImpianto": 34584, "points": [{"type": "Feature", "properties": {}, "geometry": {"type": "Point", "coordinates": [14.19206793505714, 42.42877747610566]}}], "price": 1.247, "ultima_rilevazione": "06/07/2022 10:23:01"}], "5": [{"Gestore": "P.D.G. SERVICES S.A.S. DI PACE GIULIO & C", "Bandiera": "Agip Eni", "Tipo impianto": "Altro", "Indirizzo": " S.S. 656 KM. 1-896   66100", "Nome impianto": "STAZIONE SERVIZIO ENI", "Comune": "CHIETI", "idImpianto": 23455, "points": [{"type": "Feature", "properties": {}, "geometry": {"type": "Point", "coordinates": [14.154309332370758, 42.375511507222924]}}], "price": 2.199, "ultima_rilevazione": "04/07/2022 09:27:22"}, {"Gestore": "D.A.M. DI BOCCANERA GIOVANNI & C. S.A.S.", "Bandiera": "Pompe Bianche", "Tipo impianto": "Altro", "Indirizzo": "VIA CERVINO 1 65015", "Nome impianto": "DAM CARBURANTI", "Comune": "MONTESILVANO", "idImpianto": 4825, "points": [{"type": "Feature", "properties": {}, "geometry": {"type": "Point", "coordinates": [14.173233500552328, 42.491865835349095]}}], "price": 1.199, "ultima_rilevazione": "06/07/2022 18:28:19"}]}}