{"area_comune": "[{\"type\": \"Feature\", \"properties\": {}, \"geometry\": {\"type\": \"Polygon\", \"coordinates\": [[[9.004507190309196, 45.53469879864323], [9.005679206200119, 45.53306900777058], [9.004378532215089, 45.53196414323704], [9.005353758329559, 45.53059714004057], [9.007514368519, 45.52853984738502], [8.999848436993814, 45.52066664699121], [8.986869448657744, 45.50961753996568], [8.982075102787721, 45.508150561442], [8.984142901304146, 45.50513811409539], [8.982598941792407, 45.50461229547068], [8.980919414592718, 45.50675592103484], [8.980597879793303, 45.506863263796774], [8.970823656475584, 45.508392457537305], [8.962263071538136, 45.51069790510697], [8.961072425576477, 45.51679528231567], [8.964614704475565, 45.519973316588654], [8.968107087738904, 45.521880616530844], [8.967597572952318, 45.52099143431893], [8.968403835829461, 45.52000939767732], [8.97048156044024, 45.52109981604371], [8.982729357659679, 45.529405080872145], [8.984280158964742, 45.53022059100001], [9.000542382338306, 45.53438014179235], [9.004507190309196, 45.53469879864323]]]}}]", "comune": "vanzago", "buffer_1": "[{\"type\": \"Feature\", \"properties\": {}, \"geometry\": {\"type\": \"Polygon\", \"coordinates\": [[[8.99855433048162, 45.54266868353706], [8.999665935789498, 45.54303214851679], [9.000821913247442, 45.54331925826814], [9.00201166834596, 45.543527381300024], [9.003224296561228, 45.54365461004563], [9.00444868342861, 45.54369977837045], [9.005673606553842, 45.54366247227559], [9.006887838620491, 45.54354303369761], [9.008080250442855, 45.54334255737012], [9.009239913113033, 45.543062880775686], [9.010356198299455, 45.54270656728116], [9.011418875771632, 45.54227688261177], [9.01241820725198, 45.54177776488122], [9.013345035730184, 45.54121378845426], [9.0141908694183, 45.54059012197467], [9.014947959575066, 45.539912480946136], [9.015609371485448, 45.5391870753021], [9.016169047945521, 45.53842055244817], [9.016621864672773, 45.53761993630082], [9.019627876081104, 45.531460669485725], [9.019965223873355, 45.53064613203025], [9.020191959667672, 45.52981288985693], [9.020306074143411, 45.528968345224925], [9.020306558652056, 45.52812000047056], [9.02019341399897, 45.527275391352944], [9.019967650255118, 45.526442020114686], [9.019631277606821, 45.525627288852114], [9.019187288331134, 45.524838433786414], [9.018639630062935, 45.52408246101883], [9.017993170596606, 45.52336608433933], [8.994619502253123, 45.49996647358836], [8.993829237593456, 45.49925385784148], [8.99294136700858, 45.498600552125886], [8.991964840334932, 45.49801313948965], [8.990909499810991, 45.497497538815566], [8.989785980907993, 45.49705894524506], [8.988605605213035, 45.49670177789309], [8.98738026644078, 45.496429635377424], [8.986122310717507, 45.49624525960794], [8.984844412337317, 45.49615050819814], [8.983559446234805, 45.49614633577529], [8.98228035845042, 45.49623278437596], [8.981020035884548, 45.496408983023116], [8.979791176643209, 45.49667315648899], [8.957914198515462, 45.502232123273586], [8.956733586036318, 45.502579814582134], [8.955608239767637, 45.50300866932335], [8.954549408847765, 45.50351440110413], [8.953567678400049, 45.50409195502408], [8.952672863780727, 45.50473555814148], [8.951873912477188, 45.50543877711437], [8.951178814635828, 45.5061945824439], [8.950594523114336, 45.50699541868048], [8.950126883859928, 45.50783327989449], [8.949780577313632, 45.50869978965969], [8.949559071432143, 45.50958628475246], [8.949464586804089, 45.51048390173209], [8.949498074217772, 45.51138366553846], [8.949659204913743, 45.51227657922196], [8.952008832369614, 45.521552246779436], [8.952300063896821, 45.522439218032886], [8.95271725973359, 45.52330097483456], [8.953256158013462, 45.52412870223771], [8.953911251285053, 45.52491393300825], [8.954675842670882, 45.525648634291024], [8.955542114233634, 45.52632528984392], [8.956501206855735, 45.526936976995486], [8.957543310818512, 45.52747743753562], [8.958657766155673, 45.52794114181057], [8.99855433048162, 45.54266868353706]]]}}]", "buffer_3": "[{\"type\": \"Feature\", \"properties\": {}, \"geometry\": {\"type\": \"Polygon\", \"coordinates\": [[[8.986643562579026, 45.55860748861258], [8.989979133801606, 45.559698195745604], [8.993447978592663, 45.560559781460185], [8.997018280037944, 45.56118434189026], [9.000657286645302, 45.56156614732747], [9.004331613954701, 45.561701695002085], [9.008007552076998, 45.561589741353224], [9.01165137628178, 45.56123131348605], [9.015229657724305, 45.560629699708684], [9.018709571400011, 45.559790419237466], [9.022059198442905, 45.55872117135419], [9.025247819940422, 45.55743176449178], [9.028246199521883, 45.555934025911526], [9.031026852089092, 45.55424169281683], [9.03356429619477, 45.552370285920304], [9.035835287735694, 45.55033696664414], [9.037819032810688, 45.54816037928408], [9.039497377796954, 45.5458604796057], [9.04085497491921, 45.543458351465134], [9.043858650969, 45.537298454166006], [9.044869720145261, 45.53485462667208], [9.04554885470141, 45.53235475240831], [9.045890064735827, 45.52982104337937], [9.045890364498165, 45.527276009245135], [9.045549797308542, 45.52474225726507], [9.044871433542523, 45.52224229148219], [9.043861341757577, 45.51979831293011], [9.042528533274133, 45.51743202263388], [9.040884880756968, 45.51516442914729], [9.038945011568574, 45.51301566232511], [9.015566949844153, 45.48962029668216], [9.013195857369961, 45.487482863671595], [9.01053219044589, 45.485523373134974], [9.007602800756535, 45.483761557075475], [9.004437207332398, 45.48221515519544], [9.001067299353823, 45.480899736848244], [8.997527015494656, 45.47982854482736], [8.993852003006294, 45.47901236253772], [8.990079259931074, 45.47845940586241], [8.986246763990058, 45.478175240792], [8.982393091812979, 45.47816272762918], [8.978557032266885, 45.47842199231882], [8.974777197694074, 45.47895042518585], [8.971091636889081, 45.479742707093536], [8.949220359375147, 45.48530002679581], [8.945679379654376, 45.486342797990865], [8.94230400865924, 45.48762900615553], [8.939127967166124, 45.489145806294324], [8.936182992528781, 45.49087804945157], [8.933498522141843, 45.49280843348302], [8.931101399484207, 45.49491767531526], [8.929015605665775, 45.49718470300031], [8.927262019163155, 45.49958686567498], [8.925858206165328, 45.5021001593554], [8.924818243660582, 45.50469946633615], [8.92415257708379, 45.50735880582555], [8.923867914010653, 45.51005159333132], [8.923967155035806, 45.51275090621913], [8.924449362607533, 45.515429752799506], [8.926794977571936, 45.52470593125121], [8.927667559269187, 45.52736703305327], [8.928918165298148, 45.52995256554678], [8.930534050158395, 45.53243607320426], [8.932498724604049, 45.53479214104542], [8.93479212276416, 45.53699665517725], [8.937390806225618, 45.539027050121696], [8.940268203038416, 45.54086254037292], [8.943394879228277, 45.54248433378408], [8.946738840050454, 45.543875824568765], [8.986643562579026, 45.55860748861258]]]}}]", "buffer_5": "[{\"type\": \"Feature\", \"properties\": {}, \"geometry\": {\"type\": \"Polygon\", \"coordinates\": [[[8.974726057272596, 45.574545005689544], [8.980286601956998, 45.57636337176368], [8.986069531605429, 45.57779977586431], [8.992021762305173, 45.578841029182634], [8.99808864492205, 45.57947757048991], [9.004214470108906, 45.579703554537204], [9.010342983390073, 45.57951690610808], [9.016417905429261, 45.578919339210195], [9.022383452533846, 45.57791634122377], [9.028184852445989, 45.576517122157206], [9.033768850520666, 45.5747345294926], [9.039084201491658, 45.572584929429844], [9.044082142177508, 45.570088055656335], [9.04871684067834, 45.56726682707593], [9.052945817858337, 45.564147136221145], [9.056730337194532, 45.56075761034737], [9.060035759396273, 45.557129347459885], [9.062831858557267, 45.553295629754906], [9.06509309698884, 45.549291617160755], [9.068094435339969, 45.54313109021809], [9.069777925602626, 45.53905768646954], [9.070908027510981, 45.53489098386438], [9.071474821406781, 45.530668011078085], [9.071473398071573, 45.526426288578605], [9.070903897878702, 45.52220349504989], [9.06977150501808, 45.51803713270547], [9.068086397005507, 45.51396419446491], [9.065863650082107, 45.510020835937574], [9.063123101492131, 45.50624205510683], [9.059889169996252, 45.50266138252906], [9.036506726716839, 45.47927026203187], [9.032554410198463, 45.47570856396926], [9.028114874828391, 45.472443457145445], [9.023232876909109, 45.4695077997021], [9.017957601925744, 45.466931129616476], [9.012342169747072, 45.46473936908329], [9.006443101359407, 45.46295456523194], [9.000319752420705, 45.461594669712525], [8.99403371921294, 45.4606733593], [8.98764822281071, 45.46019989926313], [8.981227477471817, 45.46017905082639], [8.974836049390998, 45.46061102362398], [8.968538212040384, 45.46149147360733], [8.962397304349347, 45.462811546426316], [8.940531723900193, 45.46836722087391], [8.934631519844208, 45.47010466884939], [8.929007014380142, 45.47224775625257], [8.923714364418355, 45.47477509833888], [8.918806435484253, 45.477661473034395], [8.914332275360552, 45.4808780711831], [8.91033662474815, 45.48439278254392], [8.906859469793721, 45.48817051476027], [8.903935640961143, 45.49217354219558], [8.901594462307644, 45.49636188122894], [8.89985945476738, 45.50069368833487], [8.898748096546893, 45.50512567703539], [8.898271643202593, 45.509613549613576], [8.898435009403478, 45.51411243931643], [8.899236713787378, 45.518577358655534], [8.901578314225505, 45.52785404632415], [8.90303076102359, 45.532289528649315], [8.905113466982074, 45.5365991856956], [8.907805256579927, 45.54073890714192], [8.9110787030922, 45.544666312577284], [8.91490040484803, 45.54834118663482], [8.919231323659522, 45.55172589224726], [8.924027182092495, 45.55478575771772], [8.92923891559953, 45.557489433559205], [8.934813174922118, 45.55980921536194], [8.974726057272596, 45.574545005689544]]]}}]", "centroid": "[{\"type\": \"Feature\", \"properties\": {}, \"geometry\": {\"type\": \"Point\", \"coordinates\": [8.98543916083292, 45.519958113067716]}}]", "Diesel High Quality": {"1": [], "3": [{"Gestore": "SERVIZI & GESTIONI ITALIA S.R.L.", "Bandiera": "Q8", "Tipo impianto": "Altro", "Indirizzo": "SS. 33 DEL SEMPIONE KM.15+660 S/N 20017", "Nome impianto": "RHO-SS. 33 DEL SEMPIONE KM.15+660", "Comune": "RHO", "idImpianto": 11686, "points": [{"type": "Feature", "properties": {}, "geometry": {"type": "Point", "coordinates": [9.02422338161466, 45.540303757278025]}}], "price": 2.159, "ultima_rilevazione": "30/04/2022 07:06:44"}, {"Gestore": "SERVIZI & GESTIONI ITALIA S.R.L.", "Bandiera": "Q8", "Tipo impianto": "Altro", "Indirizzo": "SS. 33 DEL SEMPIONE KM.15+660 S/N 20017", "Nome impianto": "RHO-SS. 33 DEL SEMPIONE KM.15+660", "Comune": "RHO", "idImpianto": 11686, "points": [{"type": "Feature", "properties": {}, "geometry": {"type": "Point", "coordinates": [9.02422338161466, 45.540303757278025]}}], "price": 2.129, "ultima_rilevazione": "30/04/2022 07:06:44"}, {"Gestore": "IP SERVICES S.R.L.", "Bandiera": "Api-Ip", "Tipo impianto": "Altro", "Indirizzo": "via Lainate ang. via Diaz  20017", "Nome impianto": "Rho via Lainate", "Comune": "RHO", "idImpianto": 36451, "points": [{"type": "Feature", "properties": {}, "geometry": {"type": "Point", "coordinates": [9.036739021539688, 45.53643383759013]}}], "price": 1.849, "ultima_rilevazione": "02/05/2022 23:04:59"}, {"Gestore": "NUOVA SIDAP  S.R.L.", "Bandiera": "Esso", "Tipo impianto": "Strada Statale", "Indirizzo": "33 del Sempione, Km. 18+92, Nord 20014", "Nome impianto": "Nerviano", "Comune": "NERVIANO", "idImpianto": 43734, "points": [{"type": "Feature", "properties": {}, "geometry": {"type": "Point", "coordinates": [8.993886113166809, 45.548350551694746]}}], "price": 1.972, "ultima_rilevazione": "03/05/2022 07:03:29"}], "5": [{"Gestore": "Nuova Sidap SRL", "Bandiera": "Q8", "Tipo impianto": "Autostradale", "Indirizzo": "Autostrada A8-A9 MILANO-LAGHI, Km. 7+600, dir. Nord 20020", "Nome impianto": "VILLORESI EST", "Comune": "LAINATE", "idImpianto": 3555, "points": [{"type": "Feature", "properties": {}, "geometry": {"type": "Point", "coordinates": [9.039123033065836, 45.55996995230018]}}], "price": 2.129, "ultima_rilevazione": "29/04/2022 14:00:12"}, {"Gestore": "Nuova Sidap SRL", "Bandiera": "Q8", "Tipo impianto": "Autostradale", "Indirizzo": "Autostrada A8-A9 MILANO-LAGHI, Km. 7+600, dir. Nord 20020", "Nome impianto": "VILLORESI EST", "Comune": "LAINATE", "idImpianto": 3555, "points": [{"type": "Feature", "properties": {}, "geometry": {"type": "Point", "coordinates": [9.039123033065836, 45.55996995230018]}}], "price": 2.169, "ultima_rilevazione": "29/04/2022 14:00:12"}, {"Gestore": "NUOVA SIDAP  S.R.L.", "Bandiera": "Esso", "Tipo impianto": "Altro", "Indirizzo": "VIA ALCIDE DE GASPERI 1 20017", "Nome impianto": "Rho", "Comune": "RHO", "idImpianto": 43733, "points": [{"type": "Feature", "properties": {}, "geometry": {"type": "Point", "coordinates": [9.061585664749146, 45.52971514886303]}}], "price": 2.032, "ultima_rilevazione": "29/04/2022 19:12:57"}, {"Gestore": "SERVIZI & GESTIONI ITALIA S.R.L.", "Bandiera": "Q8", "Tipo impianto": "Altro", "Indirizzo": "S.S. 11 KM 130+776  20019", "Nome impianto": "SETTIMO MILANESE S.S. 11 KM 130+776", "Comune": "SETTIMO MILANESE", "idImpianto": 24383, "points": [{"type": "Feature", "properties": {}, "geometry": {"type": "Point", "coordinates": [9.041356613491873, 45.49012202060383]}}], "price": 2.159, "ultima_rilevazione": "30/04/2022 07:06:39"}, {"Gestore": "SERVIZI & GESTIONI ITALIA S.R.L.", "Bandiera": "Q8", "Tipo impianto": "Altro", "Indirizzo": "S.S. 11 KM 130+776  20019", "Nome impianto": "SETTIMO MILANESE S.S. 11 KM 130+776", "Comune": "SETTIMO MILANESE", "idImpianto": 24383, "points": [{"type": "Feature", "properties": {}, "geometry": {"type": "Point", "coordinates": [9.041356613491873, 45.49012202060383]}}], "price": 2.139, "ultima_rilevazione": "30/04/2022 07:06:39"}, {"Gestore": "GIRIMONTI ANTONIO", "Bandiera": "Q8", "Tipo impianto": "Strada Statale", "Indirizzo": "Statale 11 Padana Superiore, Km. 122+672, dir. Milano 20010", "Nome impianto": "Q8", "Comune": "VITTUONE", "idImpianto": 7359, "points": [{"type": "Feature", "properties": {}, "geometry": {"type": "Point", "coordinates": [8.940785023187232, 45.47993928523622]}}], "price": 2.139, "ultima_rilevazione": "30/04/2022 08:12:16"}, {"Gestore": "GIRIMONTI ANTONIO", "Bandiera": "Q8", "Tipo impianto": "Strada Statale", "Indirizzo": "Statale 11 Padana Superiore, Km. 122+672, dir. Milano 20010", "Nome impianto": "Q8", "Comune": "VITTUONE", "idImpianto": 7359, "points": [{"type": "Feature", "properties": {}, "geometry": {"type": "Point", "coordinates": [8.940785023187232, 45.47993928523622]}}], "price": 2.129, "ultima_rilevazione": "30/04/2022 08:12:16"}, {"Gestore": "SUSANI MARCO", "Bandiera": "Esso", "Tipo impianto": "Altro", "Indirizzo": "VIALE GUGLIELMO MARCONI 66, 20015", "Nome impianto": "STAZIONE DI SERVIZIO CARBURANTI ESSO", "Comune": "PARABIAGO", "idImpianto": 17785, "points": [{"type": "Feature", "properties": {}, "geometry": {"type": "Point", "coordinates": [8.953870765698184, 45.56241016951922]}}], "price": 1.989, "ultima_rilevazione": "30/04/2022 09:05:37"}, {"Gestore": "GE.MAR. SRL", "Bandiera": "Q8", "Tipo impianto": "Autostradale", "Indirizzo": "Autostrada A4 TORINO-MILANO, Km. 119.25, dir. Est ", "Nome impianto": "RHO SUD", "Comune": "RHO", "idImpianto": 3928, "points": [{"type": "Feature", "properties": {}, "geometry": {"type": "Point", "coordinates": [9.040060937404633, 45.50970194291012]}}], "price": 2.169, "ultima_rilevazione": "02/05/2022 09:19:02"}, {"Gestore": "GE.MAR. SRL", "Bandiera": "Q8", "Tipo impianto": "Autostradale", "Indirizzo": "Autostrada A4 TORINO-MILANO, Km. 119.25, dir. Est ", "Nome impianto": "RHO SUD", "Comune": "RHO", "idImpianto": 3928, "points": [{"type": "Feature", "properties": {}, "geometry": {"type": "Point", "coordinates": [9.040060937404633, 45.50970194291012]}}], "price": 2.139, "ultima_rilevazione": "02/05/2022 09:19:02"}, {"Gestore": "IP SERVICES S.R.L.", "Bandiera": "Api-Ip", "Tipo impianto": "Altro", "Indirizzo": "Viale Lombardia  sp 109   ", "Nome impianto": "Parabiago", "Comune": "PARABIAGO", "idImpianto": 10095, "points": [{"type": "Feature", "properties": {}, "geometry": {"type": "Point", "coordinates": [8.932908028364182, 45.54657545332266]}}], "price": 1.799, "ultima_rilevazione": "02/05/2022 23:04:44"}, {"Gestore": "ET CAR SERVICE DI SAMMARCO EMILIANO", "Bandiera": "Q8", "Tipo impianto": "Altro", "Indirizzo": "VIALE DEI FONTANILI ang. Via Vallassa snc 20017", "Nome impianto": "ET CAR SERVICE SUD", "Comune": "RHO", "idImpianto": 46011, "points": [{"type": "Feature", "properties": {}, "geometry": {"type": "Point", "coordinates": [9.041621482519416, 45.51462320631299]}}], "price": 2.169, "ultima_rilevazione": "03/05/2022 07:10:18"}, {"Gestore": "ET CAR SERVICE DI SAMMARCO EMILIANO", "Bandiera": "Q8", "Tipo impianto": "Altro", "Indirizzo": "VIALE DEI FONTANILI ang. Via Vallassa snc 20017", "Nome impianto": "ET CAR SERVICE SUD", "Comune": "RHO", "idImpianto": 46011, "points": [{"type": "Feature", "properties": {}, "geometry": {"type": "Point", "coordinates": [9.041621482519416, 45.51462320631299]}}], "price": 2.139, "ultima_rilevazione": "03/05/2022 07:10:18"}]}, "Blue Diesel": {"1": [], "3": [{"Gestore": "STEFANO CLAUDIO", "Bandiera": "Agip Eni", "Tipo impianto": "Altro", "Indirizzo": "VIA ITALIA 23 20017", "Nome impianto": "Eni di Stefano Claudio", "Comune": "RHO", "idImpianto": 36375, "points": [{"type": "Feature", "properties": {}, "geometry": {"type": "Point", "coordinates": [9.039467324536872, 45.52622836219744]}}], "price": 1.939, "ultima_rilevazione": "28/04/2022 08:17:46"}, {"Gestore": "GUERRA SAVERIO", "Bandiera": "Agip Eni", "Tipo impianto": "Altro", "Indirizzo": "VIA LOMBARDIA  20015", "Nome impianto": "GUERRA SAVERIO IMPIANTO ENI", "Comune": "PARABIAGO", "idImpianto": 10476, "points": [{"type": "Feature", "properties": {}, "geometry": {"type": "Point", "coordinates": [8.956485986709595, 45.54327570741985]}}], "price": 1.959, "ultima_rilevazione": "28/04/2022 17:52:34"}, {"Gestore": "GUERRA SAVERIO", "Bandiera": "Agip Eni", "Tipo impianto": "Altro", "Indirizzo": "VIA LOMBARDIA  20015", "Nome impianto": "GUERRA SAVERIO IMPIANTO ENI", "Comune": "PARABIAGO", "idImpianto": 10476, "points": [{"type": "Feature", "properties": {}, "geometry": {"type": "Point", "coordinates": [8.956485986709595, 45.54327570741985]}}], "price": 1.919, "ultima_rilevazione": "28/04/2022 17:52:34"}, {"Gestore": "ENI FUEL S.P.A.", "Bandiera": "Agip Eni", "Tipo impianto": "Altro", "Indirizzo": "PAPA GIOVANNI XXIII  20014", "Nome impianto": "2514 \u2013 Nerviano", "Comune": "NERVIANO", "idImpianto": 49790, "points": [{"type": "Feature", "properties": {}, "geometry": {"type": "Point", "coordinates": [8.980694983699001, 45.549712309697576]}}], "price": 1.959, "ultima_rilevazione": "03/05/2022 07:08:09"}], "5": [{"Gestore": "AUTOSERVICE LOTTO SRL", "Bandiera": "Agip Eni", "Tipo impianto": "Altro", "Indirizzo": "strada provinciale 101 km. 3+500  20020", "Nome impianto": "Autoservice Lotto srl", "Comune": "LAINATE", "idImpianto": 8061, "points": [{"type": "Feature", "properties": {}, "geometry": {"type": "Point", "coordinates": [9.014978259801865, 45.56237402569371]}}], "price": 1.959, "ultima_rilevazione": "02/05/2022 08:48:27"}, {"Gestore": "AUTOSERVICE LOTTO SRL", "Bandiera": "Agip Eni", "Tipo impianto": "Altro", "Indirizzo": "strada provinciale 101 km. 3+500  20020", "Nome impianto": "Autoservice Lotto srl", "Comune": "LAINATE", "idImpianto": 8061, "points": [{"type": "Feature", "properties": {}, "geometry": {"type": "Point", "coordinates": [9.014978259801865, 45.56237402569371]}}], "price": 1.919, "ultima_rilevazione": "02/05/2022 08:48:27"}, {"Gestore": "ENI FUEL S.P.A.", "Bandiera": "Agip Eni", "Tipo impianto": "Altro", "Indirizzo": "Via Marconi 64 20015", "Nome impianto": "2531 PARABIAGO", "Comune": "PARABIAGO", "idImpianto": 5416, "points": [{"type": "Feature", "properties": {}, "geometry": {"type": "Point", "coordinates": [8.953312818784866, 45.5619190150919]}}], "price": 1.899, "ultima_rilevazione": "02/05/2022 09:04:09"}, {"Gestore": "ENI FUEL S.P.A.", "Bandiera": "Agip Eni", "Tipo impianto": "Altro", "Indirizzo": "VIA ROMA ANGOLO VIA GALLINA SNC 20010", "Nome impianto": "56804 BAREGGIO MILANO", "Comune": "BAREGGIO", "idImpianto": 26126, "points": [{"type": "Feature", "properties": {}, "geometry": {"type": "Point", "coordinates": [8.997810710481986, 45.47890712595467]}}], "price": 1.899, "ultima_rilevazione": "02/05/2022 09:10:01"}, {"Gestore": "ENI FUEL S.P.A.", "Bandiera": "Agip Eni", "Tipo impianto": "Altro", "Indirizzo": "GARIBALDI / BRERA  20010", "Nome impianto": "57560 \u2013 Cornaredo", "Comune": "CORNAREDO", "idImpianto": 49789, "points": [{"type": "Feature", "properties": {}, "geometry": {"type": "Point", "coordinates": [9.026622191118353, 45.49735782137639]}}], "price": 1.919, "ultima_rilevazione": "03/05/2022 07:36:03"}, {"Gestore": "ENI FUEL S.P.A.", "Bandiera": "Agip Eni", "Tipo impianto": "Altro", "Indirizzo": "GARIBALDI / BRERA  20010", "Nome impianto": "57560 \u2013 Cornaredo", "Comune": "CORNAREDO", "idImpianto": 49789, "points": [{"type": "Feature", "properties": {}, "geometry": {"type": "Point", "coordinates": [9.026622191118353, 45.49735782137639]}}], "price": 1.959, "ultima_rilevazione": "03/05/2022 07:36:03"}, {"Gestore": "ZAPPIA SARA", "Bandiera": "Agip Eni", "Tipo impianto": "Altro", "Indirizzo": "VIA PACE 58 20017", "Nome impianto": "STAZIONE DI SERVIZIO ENI", "Comune": "RHO", "idImpianto": 50557, "points": [{"type": "Feature", "properties": {}, "geometry": {"type": "Point", "coordinates": [9.057194292545311, 45.52911650922827]}}], "price": 1.974, "ultima_rilevazione": "03/05/2022 07:12:16"}]}, "Benzina": {"1": [{"Gestore": "SERVIZI & GESTIONI ITALIA srl", "Bandiera": "Q8", "Tipo impianto": "Altro", "Indirizzo": "S.P. 229 KM 6+682 SNC 20010", "Nome impianto": "POGLIANO MILANESE S.P. 229 KM 6+682", "Comune": "POGLIANO MILANESE", "idImpianto": 6831, "points": [{"type": "Feature", "properties": {}, "geometry": {"type": "Point", "coordinates": [9.010794635581988, 45.53944696670913]}}], "price": 1.819, "ultima_rilevazione": "30/04/2022 01:38:04"}, {"Gestore": "AUTORIPARAZIONI RIZZI DI RINALDO RIZZI E C. - S.N.C.", "Bandiera": "OIL ONE", "Tipo impianto": "Altro", "Indirizzo": "VIA GUGLIEIMO MARCONI 32/34/36 20010", "Nome impianto": "Oil One", "Comune": "PREGNANA MILANESE", "idImpianto": 19095, "points": [{"type": "Feature", "properties": {}, "geometry": {"type": "Point", "coordinates": [9.006143106056697, 45.515219533472575]}}], "price": 1.808, "ultima_rilevazione": "02/05/2022 09:13:16"}, {"Gestore": "T.D.M. S.R.L.", "Bandiera": "Tamoil", "Tipo impianto": "Altro", "Indirizzo": "VIA PAPA GIOVANNI XXIII 12 20010", "Nome impianto": "8492", "Comune": "PREGNANA MILANESE", "idImpianto": 48559, "points": [{"type": "Feature", "properties": {}, "geometry": {"type": "Point", "coordinates": [9.006146406686462, 45.513799584179]}}], "price": 1.809, "ultima_rilevazione": "02/05/2022 10:22:13"}, {"Gestore": "GIO & ARI S.N.C. DI GUGLIELMETTI LORENZO & C.", "Bandiera": "Api-Ip", "Tipo impianto": "Altro", "Indirizzo": "via milano 2 20010", "Nome impianto": "gio&ari snc", "Comune": "VANZAGO", "idImpianto": 17510, "points": [{"type": "Feature", "properties": {}, "geometry": {"type": "Point", "coordinates": [8.992369728836024, 45.52500890041976]}}], "price": 1.829, "ultima_rilevazione": "02/05/2022 10:26:45"}], "3": [{"Gestore": "CORNAREDO CARBURANTI S.R.L.", "Bandiera": "Repsol", "Tipo impianto": "Altro", "Indirizzo": "VIA SAN SEBASTIANO - FRAZ. VILLASTANZA 56 20015", "Nome impianto": "CORNAREDO CARBURANTI S.R.L. - PARABIAGO", "Comune": "PARABIAGO", "idImpianto": 32343, "points": [{"type": "Feature", "properties": {}, "geometry": {"type": "Point", "coordinates": [8.951702686979843, 45.54109760028135]}}], "price": 1.759, "ultima_rilevazione": "27/04/2022 10:00:48"}, {"Gestore": "STEFANO CLAUDIO", "Bandiera": "Agip Eni", "Tipo impianto": "Altro", "Indirizzo": "VIA ITALIA 23 20017", "Nome impianto": "Eni di Stefano Claudio", "Comune": "RHO", "idImpianto": 36375, "points": [{"type": "Feature", "properties": {}, "geometry": {"type": "Point", "coordinates": [9.039467324536872, 45.52622836219744]}}], "price": 1.809, "ultima_rilevazione": "28/04/2022 08:17:46"}, {"Gestore": "GALLI MARIO", "Bandiera": "Api-Ip", "Tipo impianto": "Altro", "Indirizzo": "VIA PER CORNAREDO   2 20010", "Nome impianto": "ITALIANA PETROLI DI GALLI MARIO", "Comune": "PREGNANA MILANESE", "idImpianto": 4811, "points": [{"type": "Feature", "properties": {}, "geometry": {"type": "Point", "coordinates": [9.013562875082355, 45.51129001073932]}}], "price": 2.0, "ultima_rilevazione": "28/04/2022 15:32:59"}, {"Gestore": "ENIL SERVICE DI MYRTAJ KASTRIOT", "Bandiera": "Retitalia", "Tipo impianto": "Altro", "Indirizzo": "CORSO EUROPA 255 20017", "Nome impianto": "RETITALIA", "Comune": "RHO", "idImpianto": 51333, "points": [{"type": "Feature", "properties": {}, "geometry": {"type": "Point", "coordinates": [9.032077557564092, 45.53330877054567]}}], "price": 1.739, "ultima_rilevazione": "28/04/2022 17:00:05"}, {"Gestore": "GUERRA SAVERIO", "Bandiera": "Agip Eni", "Tipo impianto": "Altro", "Indirizzo": "VIA LOMBARDIA  20015", "Nome impianto": "GUERRA SAVERIO IMPIANTO ENI", "Comune": "PARABIAGO", "idImpianto": 10476, "points": [{"type": "Feature", "properties": {}, "geometry": {"type": "Point", "coordinates": [8.956485986709595, 45.54327570741985]}}], "price": 1.769, "ultima_rilevazione": "28/04/2022 17:52:34"}, {"Gestore": "SERVIZI & GESTIONI ITALIA S.R.L.", "Bandiera": "Q8", "Tipo impianto": "Altro", "Indirizzo": "SS. 33 SEMPIONE KM.18+600 S/N 20014", "Nome impianto": "NERVIANO-SS. 33 SEMPIONE KM.18+600", "Comune": "NERVIANO", "idImpianto": 11658, "points": [{"type": "Feature", "properties": {}, "geometry": {"type": "Point", "coordinates": [8.989460932540851, 45.55000751325928]}}], "price": 1.819, "ultima_rilevazione": "30/04/2022 01:38:10"}, {"Gestore": "SERVIZI & GESTIONI ITALIA S.R.L.", "Bandiera": "Q8", "Tipo impianto": "Altro", "Indirizzo": "VIA CAPUANA C/O ESSELUNGA CENTRE S/N 20017", "Nome impianto": "RHO -VIA CAPUANA C/O ESSELUNGA CENTRE", "Comune": "RHO", "idImpianto": 11712, "points": [{"type": "Feature", "properties": {}, "geometry": {"type": "Point", "coordinates": [9.021690487861632, 45.53642989217953]}}], "price": 1.819, "ultima_rilevazione": "30/04/2022 01:38:11"}, {"Gestore": "SERVIZI & GESTIONI ITALIA S.R.L.", "Bandiera": "Q8", "Tipo impianto": "Altro", "Indirizzo": "SS. 33 DEL SEMPIONE KM.15+660 S/N 20017", "Nome impianto": "RHO-SS. 33 DEL SEMPIONE KM.15+660", "Comune": "RHO", "idImpianto": 11686, "points": [{"type": "Feature", "properties": {}, "geometry": {"type": "Point", "coordinates": [9.02422338161466, 45.540303757278025]}}], "price": 1.829, "ultima_rilevazione": "30/04/2022 07:06:44"}, {"Gestore": "CARONNI LAURA", "Bandiera": "Api-Ip", "Tipo impianto": "Altro", "Indirizzo": "VIALE DELLA REPUBBLICA 113 20010", "Nome impianto": "IP", "Comune": "CORNAREDO", "idImpianto": 9825, "points": [{"type": "Feature", "properties": {}, "geometry": {"type": "Point", "coordinates": [9.020634635581928, 45.49914899940036]}}], "price": 1.984, "ultima_rilevazione": "02/05/2022 08:31:31"}, {"Gestore": "RAGGI EUGENIO & DAVIDE S.N.C.", "Bandiera": "Api-Ip", "Tipo impianto": "Altro", "Indirizzo": "VIA MAGENTA  49 20010", "Nome impianto": "Totalerg", "Comune": "BAREGGIO", "idImpianto": 35460, "points": [{"type": "Feature", "properties": {}, "geometry": {"type": "Point", "coordinates": [8.991823551451148, 45.48504168897612]}}], "price": 1.799, "ultima_rilevazione": "02/05/2022 08:47:57"}, {"Gestore": "T.D.M. S.R.L.", "Bandiera": "Tamoil", "Tipo impianto": "Altro", "Indirizzo": "Via Rho  20020", "Nome impianto": "3537", "Comune": "LAINATE", "idImpianto": 35445, "points": [{"type": "Feature", "properties": {}, "geometry": {"type": "Point", "coordinates": [9.029793441295624, 45.55220869339715]}}], "price": 1.809, "ultima_rilevazione": "02/05/2022 10:22:14"}, {"Gestore": "IPERSTAROIL S.R.L.", "Bandiera": "Tamoil", "Tipo impianto": "Altro", "Indirizzo": "Via Alcide De Gasperi S/P 109  109 20014", "Nome impianto": "TAMOIL NERVIANO", "Comune": "NERVIANO", "idImpianto": 50914, "points": [{"type": "Feature", "properties": {}, "geometry": {"type": "Point", "coordinates": [8.987627501852401, 45.55416161629161]}}], "price": 1.709, "ultima_rilevazione": "02/05/2022 18:40:08"}, {"Gestore": "GHULAM PAK DI ANWAR SAEED & C. S.A.S.", "Bandiera": "Esso", "Tipo impianto": "Altro", "Indirizzo": "S.S.33 DEL SEMPIONE, KM.16+030  20017", "Nome impianto": "GHULAM PAK", "Comune": "RHO", "idImpianto": 24279, "points": [{"type": "Feature", "properties": {}, "geometry": {"type": "Point", "coordinates": [9.019233584403992, 45.54109280194033]}}], "price": 1.759, "ultima_rilevazione": "02/05/2022 19:45:46"}, {"Gestore": "IP SERVICES S.R.L.", "Bandiera": "Api-Ip", "Tipo impianto": "Altro", "Indirizzo": "VIA LAINATE  20017", "Nome impianto": "RHO - LAINATE", "Comune": "RHO", "idImpianto": 27031, "points": [{"type": "Feature", "properties": {}, "geometry": {"type": "Point", "coordinates": [9.03128583068849, 45.547463865626085]}}], "price": 1.819, "ultima_rilevazione": "02/05/2022 23:02:30"}, {"Gestore": "IP SERVICES S.R.L.", "Bandiera": "Api-Ip", "Tipo impianto": "Strada Statale", "Indirizzo": "Statale 33 del Sempione, Km. 15+580, dir. Nerviano 20017", "Nome impianto": "RHO - SS 33 KM 15+580", "Comune": "RHO", "idImpianto": 23101, "points": [{"type": "Feature", "properties": {}, "geometry": {"type": "Point", "coordinates": [9.02470728836056, 45.54066994198055]}}], "price": 1.819, "ultima_rilevazione": "02/05/2022 23:03:58"}, {"Gestore": "IP SERVICES S.R.L.", "Bandiera": "Api-Ip", "Tipo impianto": "Altro", "Indirizzo": "via Lainate ang. via Diaz  20017", "Nome impianto": "Rho via Lainate", "Comune": "RHO", "idImpianto": 36451, "points": [{"type": "Feature", "properties": {}, "geometry": {"type": "Point", "coordinates": [9.036739021539688, 45.53643383759013]}}], "price": 1.799, "ultima_rilevazione": "02/05/2022 23:04:59"}, {"Gestore": "SERVIZI & GESTIONI ITALIA srl", "Bandiera": "Q8", "Tipo impianto": "Altro", "Indirizzo": "S.S.11 KM 125+476 50 20018", "Nome impianto": "SEDRIANO S.S.11 KM 125+476 50", "Comune": "SEDRIANO", "idImpianto": 6435, "points": [{"type": "Feature", "properties": {}, "geometry": {"type": "Point", "coordinates": [8.976168858860774, 45.48292052238727]}}], "price": 1.799, "ultima_rilevazione": "03/05/2022 02:06:33"}, {"Gestore": "NUOVA SIDAP  S.R.L.", "Bandiera": "Esso", "Tipo impianto": "Strada Statale", "Indirizzo": "33 del Sempione, Km. 18+92, Nord 20014", "Nome impianto": "Nerviano", "Comune": "NERVIANO", "idImpianto": 43734, "points": [{"type": "Feature", "properties": {}, "geometry": {"type": "Point", "coordinates": [8.993886113166809, 45.548350551694746]}}], "price": 1.802, "ultima_rilevazione": "03/05/2022 07:03:29"}, {"Gestore": "ENI FUEL S.P.A.", "Bandiera": "Agip Eni", "Tipo impianto": "Altro", "Indirizzo": "PAPA GIOVANNI XXIII  20014", "Nome impianto": "2514 \u2013 Nerviano", "Comune": "NERVIANO", "idImpianto": 49790, "points": [{"type": "Feature", "properties": {}, "geometry": {"type": "Point", "coordinates": [8.980694983699001, 45.549712309697576]}}], "price": 1.769, "ultima_rilevazione": "03/05/2022 07:08:09"}], "5": [{"Gestore": "Nuova Sidap SRL", "Bandiera": "Q8", "Tipo impianto": "Autostradale", "Indirizzo": "Autostrada A8-A9 MILANO-LAGHI, Km. 7+600, dir. Nord 20020", "Nome impianto": "VILLORESI EST", "Comune": "LAINATE", "idImpianto": 3555, "points": [{"type": "Feature", "properties": {}, "geometry": {"type": "Point", "coordinates": [9.039123033065836, 45.55996995230018]}}], "price": 1.829, "ultima_rilevazione": "29/04/2022 14:00:12"}, {"Gestore": "NUOVA SIDAP  S.R.L.", "Bandiera": "Esso", "Tipo impianto": "Altro", "Indirizzo": "VIA ALCIDE DE GASPERI 1 20017", "Nome impianto": "Rho", "Comune": "RHO", "idImpianto": 43733, "points": [{"type": "Feature", "properties": {}, "geometry": {"type": "Point", "coordinates": [9.061585664749146, 45.52971514886303]}}], "price": 1.872, "ultima_rilevazione": "29/04/2022 19:12:57"}, {"Gestore": "SERVIZI & GESTIONI ITALIA S.R.L.", "Bandiera": "Q8", "Tipo impianto": "Altro", "Indirizzo": "V.LE GIOVANNI XXIII  20010", "Nome impianto": "BAREGGIO V.LE GIOVANNI XXIII", "Comune": "BAREGGIO", "idImpianto": 20036, "points": [{"type": "Feature", "properties": {}, "geometry": {"type": "Point", "coordinates": [9.004018641802986, 45.47633252022859]}}], "price": 1.829, "ultima_rilevazione": "30/04/2022 01:38:03"}, {"Gestore": "SERVIZI & GESTIONI ITALIA S.R.L.", "Bandiera": "Q8", "Tipo impianto": "Altro", "Indirizzo": "S.S. 11 KM 130+776  20019", "Nome impianto": "SETTIMO MILANESE S.S. 11 KM 130+776", "Comune": "SETTIMO MILANESE", "idImpianto": 24383, "points": [{"type": "Feature", "properties": {}, "geometry": {"type": "Point", "coordinates": [9.041356613491873, 45.49012202060383]}}], "price": 1.839, "ultima_rilevazione": "30/04/2022 07:06:39"}, {"Gestore": "GIRIMONTI ANTONIO", "Bandiera": "Q8", "Tipo impianto": "Strada Statale", "Indirizzo": "Statale 11 Padana Superiore, Km. 122+672, dir. Milano 20010", "Nome impianto": "Q8", "Comune": "VITTUONE", "idImpianto": 7359, "points": [{"type": "Feature", "properties": {}, "geometry": {"type": "Point", "coordinates": [8.940785023187232, 45.47993928523622]}}], "price": 1.799, "ultima_rilevazione": "30/04/2022 08:12:16"}, {"Gestore": "SUSANI MARCO", "Bandiera": "Esso", "Tipo impianto": "Altro", "Indirizzo": "VIALE GUGLIELMO MARCONI 66, 20015", "Nome impianto": "STAZIONE DI SERVIZIO CARBURANTI ESSO", "Comune": "PARABIAGO", "idImpianto": 17785, "points": [{"type": "Feature", "properties": {}, "geometry": {"type": "Point", "coordinates": [8.953870765698184, 45.56241016951922]}}], "price": 1.809, "ultima_rilevazione": "30/04/2022 09:05:37"}, {"Gestore": "MC SERVIZI S.A.S. DI FERTONANI CHIARA E C.", "Bandiera": "Api-Ip", "Tipo impianto": "Altro", "Indirizzo": "VIA PER PASSIRANA   20020", "Nome impianto": "MC SERVIZI SAS", "Comune": "ARESE", "idImpianto": 37165, "points": [{"type": "Feature", "properties": {}, "geometry": {"type": "Point", "coordinates": [9.052507728338242, 45.55435987700847]}}], "price": 1.932, "ultima_rilevazione": "02/05/2022 08:40:18"}, {"Gestore": "AUTOSERVICE LOTTO SRL", "Bandiera": "Agip Eni", "Tipo impianto": "Altro", "Indirizzo": "strada provinciale 101 km. 3+500  20020", "Nome impianto": "Autoservice Lotto srl", "Comune": "LAINATE", "idImpianto": 8061, "points": [{"type": "Feature", "properties": {}, "geometry": {"type": "Point", "coordinates": [9.014978259801865, 45.56237402569371]}}], "price": 1.769, "ultima_rilevazione": "02/05/2022 08:48:27"}, {"Gestore": "ENI FUEL S.P.A.", "Bandiera": "Agip Eni", "Tipo impianto": "Altro", "Indirizzo": "Via Marconi 64 20015", "Nome impianto": "2531 PARABIAGO", "Comune": "PARABIAGO", "idImpianto": 5416, "points": [{"type": "Feature", "properties": {}, "geometry": {"type": "Point", "coordinates": [8.953312818784866, 45.5619190150919]}}], "price": 1.769, "ultima_rilevazione": "02/05/2022 09:04:09"}, {"Gestore": "ENI FUEL S.P.A.", "Bandiera": "Agip Eni", "Tipo impianto": "Altro", "Indirizzo": "VIA ROMA ANGOLO VIA GALLINA SNC 20010", "Nome impianto": "56804 BAREGGIO MILANO", "Comune": "BAREGGIO", "idImpianto": 26126, "points": [{"type": "Feature", "properties": {}, "geometry": {"type": "Point", "coordinates": [8.997810710481986, 45.47890712595467]}}], "price": 1.809, "ultima_rilevazione": "02/05/2022 09:10:01"}, {"Gestore": "GE.MAR. SRL", "Bandiera": "Q8", "Tipo impianto": "Autostradale", "Indirizzo": "Autostrada A4 TORINO-MILANO, Km. 119.25, dir. Est ", "Nome impianto": "RHO SUD", "Comune": "RHO", "idImpianto": 3928, "points": [{"type": "Feature", "properties": {}, "geometry": {"type": "Point", "coordinates": [9.040060937404633, 45.50970194291012]}}], "price": 1.839, "ultima_rilevazione": "02/05/2022 09:19:02"}, {"Gestore": "IPER MONTEBELLO S.P.A.", "Bandiera": "Iper Station", "Tipo impianto": "Altro", "Indirizzo": "Via Luraghi sn 20020", "Nome impianto": "Iper Station Arese", "Comune": "ARESE", "idImpianto": 30892, "points": [{"type": "Feature", "properties": {}, "geometry": {"type": "Point", "coordinates": [9.053292274475098, 45.56176087890731]}}], "price": 1.708, "ultima_rilevazione": "02/05/2022 09:35:04"}, {"Gestore": "villoresi di vitale gaetano &c. snc", "Bandiera": "Esso", "Tipo impianto": "Autostradale", "Indirizzo": "Autostrada A8-A9 MILANO-LAGHI, Km. 7+600, dir. Sud 20020", "Nome impianto": "VILLORESI OVEST", "Comune": "LAINATE", "idImpianto": 3927, "points": [{"type": "Feature", "properties": {}, "geometry": {"type": "Point", "coordinates": [9.04014393386842, 45.55834880837939]}}], "price": 2.077, "ultima_rilevazione": "02/05/2022 11:10:20"}, {"Gestore": "IP SERVICES S.R.L.", "Bandiera": "Api-Ip", "Tipo impianto": "Altro", "Indirizzo": "S.S. 33 SEMPIONE KM. 20,532  20014", "Nome impianto": "NERVIANO - S.S. 33 SEMPIONE", "Comune": "NERVIANO", "idImpianto": 32345, "points": [{"type": "Feature", "properties": {}, "geometry": {"type": "Point", "coordinates": [8.97055842576026, 45.56112159635151]}}], "price": 1.749, "ultima_rilevazione": "02/05/2022 12:01:52"}, {"Gestore": "IP SERVICES S.R.L.", "Bandiera": "Api-Ip", "Tipo impianto": "Altro", "Indirizzo": "VIA MARCONI 110 20015", "Nome impianto": "PARABIAGO - MARCONI", "Comune": "PARABIAGO", "idImpianto": 32281, "points": [{"type": "Feature", "properties": {}, "geometry": {"type": "Point", "coordinates": [8.955680100641871, 45.56402185134493]}}], "price": 1.759, "ultima_rilevazione": "02/05/2022 23:03:43"}, {"Gestore": "IP SERVICES S.R.L.", "Bandiera": "Api-Ip", "Tipo impianto": "Altro", "Indirizzo": "Viale Lombardia  sp 109   ", "Nome impianto": "Parabiago", "Comune": "PARABIAGO", "idImpianto": 10095, "points": [{"type": "Feature", "properties": {}, "geometry": {"type": "Point", "coordinates": [8.932908028364182, 45.54657545332266]}}], "price": 1.769, "ultima_rilevazione": "02/05/2022 23:04:44"}, {"Gestore": "ENI FUEL S.P.A.", "Bandiera": "Agip Eni", "Tipo impianto": "Altro", "Indirizzo": "GARIBALDI / BRERA  20010", "Nome impianto": "57560 \u2013 Cornaredo", "Comune": "CORNAREDO", "idImpianto": 49789, "points": [{"type": "Feature", "properties": {}, "geometry": {"type": "Point", "coordinates": [9.026622191118353, 45.49735782137639]}}], "price": 1.809, "ultima_rilevazione": "03/05/2022 07:36:03"}, {"Gestore": "MAURO S.A.S. DI CHIODINI MAURO & C.", "Bandiera": "Api-Ip", "Tipo impianto": "Altro", "Indirizzo": "S.P 34 MILANO/TURBIGO  20010", "Nome impianto": "ITALIANA PETROLI", "Comune": "OSSONA", "idImpianto": 44919, "points": [{"type": "Feature", "properties": {}, "geometry": {"type": "Point", "coordinates": [8.910426497459412, 45.5031538383806]}}], "price": 1.829, "ultima_rilevazione": "03/05/2022 06:46:02"}, {"Gestore": "ET CAR SERVICE DI SAMMARCO EMILIANO", "Bandiera": "Q8", "Tipo impianto": "Altro", "Indirizzo": "VIALE DEI FONTANILI SNC 20017", "Nome impianto": "ET CAR SERVICE DI SAMMARCO EMILIANO", "Comune": "RHO", "idImpianto": 10515, "points": [{"type": "Feature", "properties": {}, "geometry": {"type": "Point", "coordinates": [9.04581935707779, 45.515450649237735]}}], "price": 1.839, "ultima_rilevazione": "03/05/2022 07:09:32"}, {"Gestore": "ET CAR SERVICE DI SAMMARCO EMILIANO", "Bandiera": "Q8", "Tipo impianto": "Altro", "Indirizzo": "VIALE DEI FONTANILI ang. Via Vallassa snc 20017", "Nome impianto": "ET CAR SERVICE SUD", "Comune": "RHO", "idImpianto": 46011, "points": [{"type": "Feature", "properties": {}, "geometry": {"type": "Point", "coordinates": [9.041621482519416, 45.51462320631299]}}], "price": 1.839, "ultima_rilevazione": "03/05/2022 07:10:18"}, {"Gestore": "ZAPPIA SARA", "Bandiera": "Agip Eni", "Tipo impianto": "Altro", "Indirizzo": "VIA PACE 58 20017", "Nome impianto": "STAZIONE DI SERVIZIO ENI", "Comune": "RHO", "idImpianto": 50557, "points": [{"type": "Feature", "properties": {}, "geometry": {"type": "Point", "coordinates": [9.057194292545311, 45.52911650922827]}}], "price": 1.824, "ultima_rilevazione": "03/05/2022 07:12:16"}]}, "Gasolio High Quality": {"1": [], "3": [], "5": [{"Gestore": "villoresi di vitale gaetano &c. snc", "Bandiera": "Esso", "Tipo impianto": "Autostradale", "Indirizzo": "Autostrada A8-A9 MILANO-LAGHI, Km. 7+600, dir. Sud 20020", "Nome impianto": "VILLORESI OVEST", "Comune": "LAINATE", "idImpianto": 3927, "points": [{"type": "Feature", "properties": {}, "geometry": {"type": "Point", "coordinates": [9.04014393386842, 45.55834880837939]}}], "price": 2.272, "ultima_rilevazione": "02/05/2022 11:10:20"}]}, "null": {}, "GPL": {"1": [{"Gestore": "GIO & ARI S.N.C. DI GUGLIELMETTI LORENZO & C.", "Bandiera": "Api-Ip", "Tipo impianto": "Altro", "Indirizzo": "via milano 2 20010", "Nome impianto": "gio&ari snc", "Comune": "VANZAGO", "idImpianto": 17510, "points": [{"type": "Feature", "properties": {}, "geometry": {"type": "Point", "coordinates": [8.992369728836024, 45.52500890041976]}}], "price": 0.889, "ultima_rilevazione": "02/05/2022 10:26:45"}], "3": [{"Gestore": "OFFICINA MGK DI LONGO GIUSEPPE", "Bandiera": "Agip Eni", "Tipo impianto": "Altro", "Indirizzo": "via Trento 80 20017", "Nome impianto": "Brixia", "Comune": "RHO", "idImpianto": 47000, "points": [{"type": "Feature", "properties": {}, "geometry": {"type": "Point", "coordinates": [9.03206993005938, 45.54899381752294]}}], "price": 0.899, "ultima_rilevazione": "22/04/2022 15:57:41"}, {"Gestore": "GHULAM PAK DI ANWAR SAEED & C. S.A.S.", "Bandiera": "Esso", "Tipo impianto": "Altro", "Indirizzo": "S.S.33 DEL SEMPIONE, KM.16+030  20017", "Nome impianto": "GHULAM PAK", "Comune": "RHO", "idImpianto": 24279, "points": [{"type": "Feature", "properties": {}, "geometry": {"type": "Point", "coordinates": [9.019233584403992, 45.54109280194033]}}], "price": 0.829, "ultima_rilevazione": "02/05/2022 19:45:46"}], "5": [{"Gestore": "Nuova Sidap SRL", "Bandiera": "Q8", "Tipo impianto": "Autostradale", "Indirizzo": "Autostrada A8-A9 MILANO-LAGHI, Km. 7+600, dir. Nord 20020", "Nome impianto": "VILLORESI EST", "Comune": "LAINATE", "idImpianto": 3555, "points": [{"type": "Feature", "properties": {}, "geometry": {"type": "Point", "coordinates": [9.039123033065836, 45.55996995230018]}}], "price": 0.86, "ultima_rilevazione": "29/04/2022 14:00:12"}, {"Gestore": "GE.MAR. SRL", "Bandiera": "Q8", "Tipo impianto": "Autostradale", "Indirizzo": "Autostrada A4 TORINO-MILANO, Km. 119.25, dir. Est ", "Nome impianto": "RHO SUD", "Comune": "RHO", "idImpianto": 3928, "points": [{"type": "Feature", "properties": {}, "geometry": {"type": "Point", "coordinates": [9.040060937404633, 45.50970194291012]}}], "price": 0.899, "ultima_rilevazione": "02/05/2022 09:19:02"}, {"Gestore": "villoresi di vitale gaetano &c. snc", "Bandiera": "Esso", "Tipo impianto": "Autostradale", "Indirizzo": "Autostrada A8-A9 MILANO-LAGHI, Km. 7+600, dir. Sud 20020", "Nome impianto": "VILLORESI OVEST", "Comune": "LAINATE", "idImpianto": 3927, "points": [{"type": "Feature", "properties": {}, "geometry": {"type": "Point", "coordinates": [9.04014393386842, 45.55834880837939]}}], "price": 1.129, "ultima_rilevazione": "02/05/2022 11:10:20"}, {"Gestore": "ET CAR SERVICE DI SAMMARCO EMILIANO", "Bandiera": "Q8", "Tipo impianto": "Altro", "Indirizzo": "VIALE DEI FONTANILI ang. Via Vallassa snc 20017", "Nome impianto": "ET CAR SERVICE SUD", "Comune": "RHO", "idImpianto": 46011, "points": [{"type": "Feature", "properties": {}, "geometry": {"type": "Point", "coordinates": [9.041621482519416, 45.51462320631299]}}], "price": 0.889, "ultima_rilevazione": "03/05/2022 07:10:18"}]}, "Gasolio": {"1": [{"Gestore": "SERVIZI & GESTIONI ITALIA srl", "Bandiera": "Q8", "Tipo impianto": "Altro", "Indirizzo": "S.P. 229 KM 6+682 SNC 20010", "Nome impianto": "POGLIANO MILANESE S.P. 229 KM 6+682", "Comune": "POGLIANO MILANESE", "idImpianto": 6831, "points": [{"type": "Feature", "properties": {}, "geometry": {"type": "Point", "coordinates": [9.010794635581988, 45.53944696670913]}}], "price": 1.839, "ultima_rilevazione": "30/04/2022 01:38:04"}, {"Gestore": "AUTORIPARAZIONI RIZZI DI RINALDO RIZZI E C. - S.N.C.", "Bandiera": "OIL ONE", "Tipo impianto": "Altro", "Indirizzo": "VIA GUGLIEIMO MARCONI 32/34/36 20010", "Nome impianto": "Oil One", "Comune": "PREGNANA MILANESE", "idImpianto": 19095, "points": [{"type": "Feature", "properties": {}, "geometry": {"type": "Point", "coordinates": [9.006143106056697, 45.515219533472575]}}], "price": 1.879, "ultima_rilevazione": "02/05/2022 09:13:16"}, {"Gestore": "T.D.M. S.R.L.", "Bandiera": "Tamoil", "Tipo impianto": "Altro", "Indirizzo": "VIA PAPA GIOVANNI XXIII 12 20010", "Nome impianto": "8492", "Comune": "PREGNANA MILANESE", "idImpianto": 48559, "points": [{"type": "Feature", "properties": {}, "geometry": {"type": "Point", "coordinates": [9.006146406686462, 45.513799584179]}}], "price": 1.899, "ultima_rilevazione": "02/05/2022 10:22:13"}, {"Gestore": "GIO & ARI S.N.C. DI GUGLIELMETTI LORENZO & C.", "Bandiera": "Api-Ip", "Tipo impianto": "Altro", "Indirizzo": "via milano 2 20010", "Nome impianto": "gio&ari snc", "Comune": "VANZAGO", "idImpianto": 17510, "points": [{"type": "Feature", "properties": {}, "geometry": {"type": "Point", "coordinates": [8.992369728836024, 45.52500890041976]}}], "price": 1.819, "ultima_rilevazione": "02/05/2022 10:26:45"}], "3": [{"Gestore": "CORNAREDO CARBURANTI S.R.L.", "Bandiera": "Repsol", "Tipo impianto": "Altro", "Indirizzo": "VIA SAN SEBASTIANO - FRAZ. VILLASTANZA 56 20015", "Nome impianto": "CORNAREDO CARBURANTI S.R.L. - PARABIAGO", "Comune": "PARABIAGO", "idImpianto": 32343, "points": [{"type": "Feature", "properties": {}, "geometry": {"type": "Point", "coordinates": [8.951702686979843, 45.54109760028135]}}], "price": 1.839, "ultima_rilevazione": "27/04/2022 10:00:48"}, {"Gestore": "STEFANO CLAUDIO", "Bandiera": "Agip Eni", "Tipo impianto": "Altro", "Indirizzo": "VIA ITALIA 23 20017", "Nome impianto": "Eni di Stefano Claudio", "Comune": "RHO", "idImpianto": 36375, "points": [{"type": "Feature", "properties": {}, "geometry": {"type": "Point", "coordinates": [9.039467324536872, 45.52622836219744]}}], "price": 1.839, "ultima_rilevazione": "28/04/2022 08:17:46"}, {"Gestore": "GALLI MARIO", "Bandiera": "Api-Ip", "Tipo impianto": "Altro", "Indirizzo": "VIA PER CORNAREDO   2 20010", "Nome impianto": "ITALIANA PETROLI DI GALLI MARIO", "Comune": "PREGNANA MILANESE", "idImpianto": 4811, "points": [{"type": "Feature", "properties": {}, "geometry": {"type": "Point", "coordinates": [9.013562875082355, 45.51129001073932]}}], "price": 2.0, "ultima_rilevazione": "28/04/2022 15:32:59"}, {"Gestore": "ENIL SERVICE DI MYRTAJ KASTRIOT", "Bandiera": "Retitalia", "Tipo impianto": "Altro", "Indirizzo": "CORSO EUROPA 255 20017", "Nome impianto": "RETITALIA", "Comune": "RHO", "idImpianto": 51333, "points": [{"type": "Feature", "properties": {}, "geometry": {"type": "Point", "coordinates": [9.032077557564092, 45.53330877054567]}}], "price": 1.769, "ultima_rilevazione": "28/04/2022 17:00:05"}, {"Gestore": "GUERRA SAVERIO", "Bandiera": "Agip Eni", "Tipo impianto": "Altro", "Indirizzo": "VIA LOMBARDIA  20015", "Nome impianto": "GUERRA SAVERIO IMPIANTO ENI", "Comune": "PARABIAGO", "idImpianto": 10476, "points": [{"type": "Feature", "properties": {}, "geometry": {"type": "Point", "coordinates": [8.956485986709595, 45.54327570741985]}}], "price": 1.859, "ultima_rilevazione": "28/04/2022 17:52:34"}, {"Gestore": "SERVIZI & GESTIONI ITALIA S.R.L.", "Bandiera": "Q8", "Tipo impianto": "Altro", "Indirizzo": "SS. 33 SEMPIONE KM.18+600 S/N 20014", "Nome impianto": "NERVIANO-SS. 33 SEMPIONE KM.18+600", "Comune": "NERVIANO", "idImpianto": 11658, "points": [{"type": "Feature", "properties": {}, "geometry": {"type": "Point", "coordinates": [8.989460932540851, 45.55000751325928]}}], "price": 1.839, "ultima_rilevazione": "30/04/2022 01:38:10"}, {"Gestore": "SERVIZI & GESTIONI ITALIA S.R.L.", "Bandiera": "Q8", "Tipo impianto": "Altro", "Indirizzo": "VIA CAPUANA C/O ESSELUNGA CENTRE S/N 20017", "Nome impianto": "RHO -VIA CAPUANA C/O ESSELUNGA CENTRE", "Comune": "RHO", "idImpianto": 11712, "points": [{"type": "Feature", "properties": {}, "geometry": {"type": "Point", "coordinates": [9.021690487861632, 45.53642989217953]}}], "price": 1.839, "ultima_rilevazione": "30/04/2022 01:38:11"}, {"Gestore": "SERVIZI & GESTIONI ITALIA S.R.L.", "Bandiera": "Q8", "Tipo impianto": "Altro", "Indirizzo": "SS. 33 DEL SEMPIONE KM.15+660 S/N 20017", "Nome impianto": "RHO-SS. 33 DEL SEMPIONE KM.15+660", "Comune": "RHO", "idImpianto": 11686, "points": [{"type": "Feature", "properties": {}, "geometry": {"type": "Point", "coordinates": [9.02422338161466, 45.540303757278025]}}], "price": 1.859, "ultima_rilevazione": "30/04/2022 07:06:44"}, {"Gestore": "CARONNI LAURA", "Bandiera": "Api-Ip", "Tipo impianto": "Altro", "Indirizzo": "VIALE DELLA REPUBBLICA 113 20010", "Nome impianto": "IP", "Comune": "CORNAREDO", "idImpianto": 9825, "points": [{"type": "Feature", "properties": {}, "geometry": {"type": "Point", "coordinates": [9.020634635581928, 45.49914899940036]}}], "price": 2.044, "ultima_rilevazione": "02/05/2022 08:31:31"}, {"Gestore": "RAGGI EUGENIO & DAVIDE S.N.C.", "Bandiera": "Api-Ip", "Tipo impianto": "Altro", "Indirizzo": "VIA MAGENTA  49 20010", "Nome impianto": "Totalerg", "Comune": "BAREGGIO", "idImpianto": 35460, "points": [{"type": "Feature", "properties": {}, "geometry": {"type": "Point", "coordinates": [8.991823551451148, 45.48504168897612]}}], "price": 1.799, "ultima_rilevazione": "02/05/2022 08:47:57"}, {"Gestore": "T.D.M. S.R.L.", "Bandiera": "Tamoil", "Tipo impianto": "Altro", "Indirizzo": "Via Rho  20020", "Nome impianto": "3537", "Comune": "LAINATE", "idImpianto": 35445, "points": [{"type": "Feature", "properties": {}, "geometry": {"type": "Point", "coordinates": [9.029793441295624, 45.55220869339715]}}], "price": 1.859, "ultima_rilevazione": "02/05/2022 10:22:14"}, {"Gestore": "IPERSTAROIL S.R.L.", "Bandiera": "Tamoil", "Tipo impianto": "Altro", "Indirizzo": "Via Alcide De Gasperi S/P 109  109 20014", "Nome impianto": "TAMOIL NERVIANO", "Comune": "NERVIANO", "idImpianto": 50914, "points": [{"type": "Feature", "properties": {}, "geometry": {"type": "Point", "coordinates": [8.987627501852401, 45.55416161629161]}}], "price": 1.739, "ultima_rilevazione": "02/05/2022 18:40:08"}, {"Gestore": "GHULAM PAK DI ANWAR SAEED & C. S.A.S.", "Bandiera": "Esso", "Tipo impianto": "Altro", "Indirizzo": "S.S.33 DEL SEMPIONE, KM.16+030  20017", "Nome impianto": "GHULAM PAK", "Comune": "RHO", "idImpianto": 24279, "points": [{"type": "Feature", "properties": {}, "geometry": {"type": "Point", "coordinates": [9.019233584403992, 45.54109280194033]}}], "price": 1.799, "ultima_rilevazione": "02/05/2022 19:45:46"}, {"Gestore": "IP SERVICES S.R.L.", "Bandiera": "Api-Ip", "Tipo impianto": "Altro", "Indirizzo": "VIA LAINATE  20017", "Nome impianto": "RHO - LAINATE", "Comune": "RHO", "idImpianto": 27031, "points": [{"type": "Feature", "properties": {}, "geometry": {"type": "Point", "coordinates": [9.03128583068849, 45.547463865626085]}}], "price": 1.839, "ultima_rilevazione": "02/05/2022 23:02:30"}, {"Gestore": "IP SERVICES S.R.L.", "Bandiera": "Api-Ip", "Tipo impianto": "Strada Statale", "Indirizzo": "Statale 33 del Sempione, Km. 15+580, dir. Nerviano 20017", "Nome impianto": "RHO - SS 33 KM 15+580", "Comune": "RHO", "idImpianto": 23101, "points": [{"type": "Feature", "properties": {}, "geometry": {"type": "Point", "coordinates": [9.02470728836056, 45.54066994198055]}}], "price": 1.839, "ultima_rilevazione": "02/05/2022 23:03:58"}, {"Gestore": "IP SERVICES S.R.L.", "Bandiera": "Api-Ip", "Tipo impianto": "Altro", "Indirizzo": "via Lainate ang. via Diaz  20017", "Nome impianto": "Rho via Lainate", "Comune": "RHO", "idImpianto": 36451, "points": [{"type": "Feature", "properties": {}, "geometry": {"type": "Point", "coordinates": [9.036739021539688, 45.53643383759013]}}], "price": 1.849, "ultima_rilevazione": "02/05/2022 23:04:59"}, {"Gestore": "SERVIZI & GESTIONI ITALIA srl", "Bandiera": "Q8", "Tipo impianto": "Altro", "Indirizzo": "S.S.11 KM 125+476 50 20018", "Nome impianto": "SEDRIANO S.S.11 KM 125+476 50", "Comune": "SEDRIANO", "idImpianto": 6435, "points": [{"type": "Feature", "properties": {}, "geometry": {"type": "Point", "coordinates": [8.976168858860774, 45.48292052238727]}}], "price": 1.819, "ultima_rilevazione": "03/05/2022 02:06:33"}, {"Gestore": "NUOVA SIDAP  S.R.L.", "Bandiera": "Esso", "Tipo impianto": "Strada Statale", "Indirizzo": "33 del Sempione, Km. 18+92, Nord 20014", "Nome impianto": "Nerviano", "Comune": "NERVIANO", "idImpianto": 43734, "points": [{"type": "Feature", "properties": {}, "geometry": {"type": "Point", "coordinates": [8.993886113166809, 45.548350551694746]}}], "price": 1.822, "ultima_rilevazione": "03/05/2022 07:03:29"}, {"Gestore": "ENI FUEL S.P.A.", "Bandiera": "Agip Eni", "Tipo impianto": "Altro", "Indirizzo": "PAPA GIOVANNI XXIII  20014", "Nome impianto": "2514 \u2013 Nerviano", "Comune": "NERVIANO", "idImpianto": 49790, "points": [{"type": "Feature", "properties": {}, "geometry": {"type": "Point", "coordinates": [8.980694983699001, 45.549712309697576]}}], "price": 1.859, "ultima_rilevazione": "03/05/2022 07:08:09"}], "5": [{"Gestore": "Nuova Sidap SRL", "Bandiera": "Q8", "Tipo impianto": "Autostradale", "Indirizzo": "Autostrada A8-A9 MILANO-LAGHI, Km. 7+600, dir. Nord 20020", "Nome impianto": "VILLORESI EST", "Comune": "LAINATE", "idImpianto": 3555, "points": [{"type": "Feature", "properties": {}, "geometry": {"type": "Point", "coordinates": [9.039123033065836, 45.55996995230018]}}], "price": 1.869, "ultima_rilevazione": "29/04/2022 14:00:12"}, {"Gestore": "NUOVA SIDAP  S.R.L.", "Bandiera": "Esso", "Tipo impianto": "Altro", "Indirizzo": "VIA ALCIDE DE GASPERI 1 20017", "Nome impianto": "Rho", "Comune": "RHO", "idImpianto": 43733, "points": [{"type": "Feature", "properties": {}, "geometry": {"type": "Point", "coordinates": [9.061585664749146, 45.52971514886303]}}], "price": 1.882, "ultima_rilevazione": "29/04/2022 19:12:57"}, {"Gestore": "SERVIZI & GESTIONI ITALIA S.R.L.", "Bandiera": "Q8", "Tipo impianto": "Altro", "Indirizzo": "V.LE GIOVANNI XXIII  20010", "Nome impianto": "BAREGGIO V.LE GIOVANNI XXIII", "Comune": "BAREGGIO", "idImpianto": 20036, "points": [{"type": "Feature", "properties": {}, "geometry": {"type": "Point", "coordinates": [9.004018641802986, 45.47633252022859]}}], "price": 1.829, "ultima_rilevazione": "30/04/2022 01:38:03"}, {"Gestore": "SERVIZI & GESTIONI ITALIA S.R.L.", "Bandiera": "Q8", "Tipo impianto": "Altro", "Indirizzo": "S.S. 11 KM 130+776  20019", "Nome impianto": "SETTIMO MILANESE S.S. 11 KM 130+776", "Comune": "SETTIMO MILANESE", "idImpianto": 24383, "points": [{"type": "Feature", "properties": {}, "geometry": {"type": "Point", "coordinates": [9.041356613491873, 45.49012202060383]}}], "price": 1.859, "ultima_rilevazione": "30/04/2022 07:06:39"}, {"Gestore": "GIRIMONTI ANTONIO", "Bandiera": "Q8", "Tipo impianto": "Strada Statale", "Indirizzo": "Statale 11 Padana Superiore, Km. 122+672, dir. Milano 20010", "Nome impianto": "Q8", "Comune": "VITTUONE", "idImpianto": 7359, "points": [{"type": "Feature", "properties": {}, "geometry": {"type": "Point", "coordinates": [8.940785023187232, 45.47993928523622]}}], "price": 1.849, "ultima_rilevazione": "30/04/2022 08:12:16"}, {"Gestore": "SUSANI MARCO", "Bandiera": "Esso", "Tipo impianto": "Altro", "Indirizzo": "VIALE GUGLIELMO MARCONI 66, 20015", "Nome impianto": "STAZIONE DI SERVIZIO CARBURANTI ESSO", "Comune": "PARABIAGO", "idImpianto": 17785, "points": [{"type": "Feature", "properties": {}, "geometry": {"type": "Point", "coordinates": [8.953870765698184, 45.56241016951922]}}], "price": 1.839, "ultima_rilevazione": "30/04/2022 09:05:37"}, {"Gestore": "MC SERVIZI S.A.S. DI FERTONANI CHIARA E C.", "Bandiera": "Api-Ip", "Tipo impianto": "Altro", "Indirizzo": "VIA PER PASSIRANA   20020", "Nome impianto": "MC SERVIZI SAS", "Comune": "ARESE", "idImpianto": 37165, "points": [{"type": "Feature", "properties": {}, "geometry": {"type": "Point", "coordinates": [9.052507728338242, 45.55435987700847]}}], "price": 1.899, "ultima_rilevazione": "02/05/2022 08:40:18"}, {"Gestore": "AUTOSERVICE LOTTO SRL", "Bandiera": "Agip Eni", "Tipo impianto": "Altro", "Indirizzo": "strada provinciale 101 km. 3+500  20020", "Nome impianto": "Autoservice Lotto srl", "Comune": "LAINATE", "idImpianto": 8061, "points": [{"type": "Feature", "properties": {}, "geometry": {"type": "Point", "coordinates": [9.014978259801865, 45.56237402569371]}}], "price": 1.859, "ultima_rilevazione": "02/05/2022 08:48:27"}, {"Gestore": "ENI FUEL S.P.A.", "Bandiera": "Agip Eni", "Tipo impianto": "Altro", "Indirizzo": "Via Marconi 64 20015", "Nome impianto": "2531 PARABIAGO", "Comune": "PARABIAGO", "idImpianto": 5416, "points": [{"type": "Feature", "properties": {}, "geometry": {"type": "Point", "coordinates": [8.953312818784866, 45.5619190150919]}}], "price": 1.799, "ultima_rilevazione": "02/05/2022 09:04:09"}, {"Gestore": "ENI FUEL S.P.A.", "Bandiera": "Agip Eni", "Tipo impianto": "Altro", "Indirizzo": "VIA ROMA ANGOLO VIA GALLINA SNC 20010", "Nome impianto": "56804 BAREGGIO MILANO", "Comune": "BAREGGIO", "idImpianto": 26126, "points": [{"type": "Feature", "properties": {}, "geometry": {"type": "Point", "coordinates": [8.997810710481986, 45.47890712595467]}}], "price": 1.799, "ultima_rilevazione": "02/05/2022 09:10:01"}, {"Gestore": "GE.MAR. SRL", "Bandiera": "Q8", "Tipo impianto": "Autostradale", "Indirizzo": "Autostrada A4 TORINO-MILANO, Km. 119.25, dir. Est ", "Nome impianto": "RHO SUD", "Comune": "RHO", "idImpianto": 3928, "points": [{"type": "Feature", "properties": {}, "geometry": {"type": "Point", "coordinates": [9.040060937404633, 45.50970194291012]}}], "price": 1.869, "ultima_rilevazione": "02/05/2022 09:19:02"}, {"Gestore": "IPER MONTEBELLO S.P.A.", "Bandiera": "Iper Station", "Tipo impianto": "Altro", "Indirizzo": "Via Luraghi sn 20020", "Nome impianto": "Iper Station Arese", "Comune": "ARESE", "idImpianto": 30892, "points": [{"type": "Feature", "properties": {}, "geometry": {"type": "Point", "coordinates": [9.053292274475098, 45.56176087890731]}}], "price": 1.738, "ultima_rilevazione": "02/05/2022 09:35:04"}, {"Gestore": "villoresi di vitale gaetano &c. snc", "Bandiera": "Esso", "Tipo impianto": "Autostradale", "Indirizzo": "Autostrada A8-A9 MILANO-LAGHI, Km. 7+600, dir. Sud 20020", "Nome impianto": "VILLORESI OVEST", "Comune": "LAINATE", "idImpianto": 3927, "points": [{"type": "Feature", "properties": {}, "geometry": {"type": "Point", "coordinates": [9.04014393386842, 45.55834880837939]}}], "price": 2.122, "ultima_rilevazione": "02/05/2022 11:10:20"}, {"Gestore": "IP SERVICES S.R.L.", "Bandiera": "Api-Ip", "Tipo impianto": "Altro", "Indirizzo": "S.S. 33 SEMPIONE KM. 20,532  20014", "Nome impianto": "NERVIANO - S.S. 33 SEMPIONE", "Comune": "NERVIANO", "idImpianto": 32345, "points": [{"type": "Feature", "properties": {}, "geometry": {"type": "Point", "coordinates": [8.97055842576026, 45.56112159635151]}}], "price": 1.779, "ultima_rilevazione": "02/05/2022 12:01:52"}, {"Gestore": "IP SERVICES S.R.L.", "Bandiera": "Api-Ip", "Tipo impianto": "Altro", "Indirizzo": "VIA MARCONI 110 20015", "Nome impianto": "PARABIAGO - MARCONI", "Comune": "PARABIAGO", "idImpianto": 32281, "points": [{"type": "Feature", "properties": {}, "geometry": {"type": "Point", "coordinates": [8.955680100641871, 45.56402185134493]}}], "price": 1.779, "ultima_rilevazione": "02/05/2022 23:03:43"}, {"Gestore": "IP SERVICES S.R.L.", "Bandiera": "Api-Ip", "Tipo impianto": "Altro", "Indirizzo": "Viale Lombardia  sp 109   ", "Nome impianto": "Parabiago", "Comune": "PARABIAGO", "idImpianto": 10095, "points": [{"type": "Feature", "properties": {}, "geometry": {"type": "Point", "coordinates": [8.932908028364182, 45.54657545332266]}}], "price": 1.799, "ultima_rilevazione": "02/05/2022 23:04:44"}, {"Gestore": "ENI FUEL S.P.A.", "Bandiera": "Agip Eni", "Tipo impianto": "Altro", "Indirizzo": "GARIBALDI / BRERA  20010", "Nome impianto": "57560 \u2013 Cornaredo", "Comune": "CORNAREDO", "idImpianto": 49789, "points": [{"type": "Feature", "properties": {}, "geometry": {"type": "Point", "coordinates": [9.026622191118353, 45.49735782137639]}}], "price": 1.819, "ultima_rilevazione": "03/05/2022 07:36:03"}, {"Gestore": "MAURO S.A.S. DI CHIODINI MAURO & C.", "Bandiera": "Api-Ip", "Tipo impianto": "Altro", "Indirizzo": "S.P 34 MILANO/TURBIGO  20010", "Nome impianto": "ITALIANA PETROLI", "Comune": "OSSONA", "idImpianto": 44919, "points": [{"type": "Feature", "properties": {}, "geometry": {"type": "Point", "coordinates": [8.910426497459412, 45.5031538383806]}}], "price": 1.879, "ultima_rilevazione": "03/05/2022 06:46:02"}, {"Gestore": "ET CAR SERVICE DI SAMMARCO EMILIANO", "Bandiera": "Q8", "Tipo impianto": "Altro", "Indirizzo": "VIALE DEI FONTANILI SNC 20017", "Nome impianto": "ET CAR SERVICE DI SAMMARCO EMILIANO", "Comune": "RHO", "idImpianto": 10515, "points": [{"type": "Feature", "properties": {}, "geometry": {"type": "Point", "coordinates": [9.04581935707779, 45.515450649237735]}}], "price": 1.869, "ultima_rilevazione": "03/05/2022 07:09:32"}, {"Gestore": "ET CAR SERVICE DI SAMMARCO EMILIANO", "Bandiera": "Q8", "Tipo impianto": "Altro", "Indirizzo": "VIALE DEI FONTANILI ang. Via Vallassa snc 20017", "Nome impianto": "ET CAR SERVICE SUD", "Comune": "RHO", "idImpianto": 46011, "points": [{"type": "Feature", "properties": {}, "geometry": {"type": "Point", "coordinates": [9.041621482519416, 45.51462320631299]}}], "price": 1.869, "ultima_rilevazione": "03/05/2022 07:10:18"}, {"Gestore": "ZAPPIA SARA", "Bandiera": "Agip Eni", "Tipo impianto": "Altro", "Indirizzo": "VIA PACE 58 20017", "Nome impianto": "STAZIONE DI SERVIZIO ENI", "Comune": "RHO", "idImpianto": 50557, "points": [{"type": "Feature", "properties": {}, "geometry": {"type": "Point", "coordinates": [9.057194292545311, 45.52911650922827]}}], "price": 1.874, "ultima_rilevazione": "03/05/2022 07:12:16"}]}, "Metano": {"1": [], "3": [{"Gestore": "GHULAM PAK DI ANWAR SAEED & C. S.A.S.", "Bandiera": "Esso", "Tipo impianto": "Altro", "Indirizzo": "S.S.33 DEL SEMPIONE, KM.16+030  20017", "Nome impianto": "GHULAM PAK", "Comune": "RHO", "idImpianto": 24279, "points": [{"type": "Feature", "properties": {}, "geometry": {"type": "Point", "coordinates": [9.019233584403992, 45.54109280194033]}}], "price": 1.799, "ultima_rilevazione": "02/05/2022 19:45:46"}], "5": [{"Gestore": "METANO PER AUTO SETTIMO MILANESE M.A.S. SRL", "Bandiera": "Pompe Bianche", "Tipo impianto": "Altro", "Indirizzo": "VIA STRADACCIA  20019", "Nome impianto": "Mas", "Comune": "SETTIMO MILANESE", "idImpianto": 12173, "points": [{"type": "Feature", "properties": {}, "geometry": {"type": "Point", "coordinates": [9.04252991080284, 45.48783673957717]}}], "price": 1.79, "ultima_rilevazione": "29/04/2022 14:14:53"}, {"Gestore": "GE.MAR. SRL", "Bandiera": "Q8", "Tipo impianto": "Autostradale", "Indirizzo": "Autostrada A4 TORINO-MILANO, Km. 119.25, dir. Est ", "Nome impianto": "RHO SUD", "Comune": "RHO", "idImpianto": 3928, "points": [{"type": "Feature", "properties": {}, "geometry": {"type": "Point", "coordinates": [9.040060937404633, 45.50970194291012]}}], "price": 2.829, "ultima_rilevazione": "02/05/2022 09:19:02"}, {"Gestore": "IPER MONTEBELLO S.P.A.", "Bandiera": "Iper Station", "Tipo impianto": "Altro", "Indirizzo": "Via Luraghi sn 20020", "Nome impianto": "Iper Station Arese", "Comune": "ARESE", "idImpianto": 30892, "points": [{"type": "Feature", "properties": {}, "geometry": {"type": "Point", "coordinates": [9.053292274475098, 45.56176087890731]}}], "price": 2.499, "ultima_rilevazione": "02/05/2022 09:35:04"}, {"Gestore": "villoresi di vitale gaetano &c. snc", "Bandiera": "Esso", "Tipo impianto": "Autostradale", "Indirizzo": "Autostrada A8-A9 MILANO-LAGHI, Km. 7+600, dir. Sud 20020", "Nome impianto": "VILLORESI OVEST", "Comune": "LAINATE", "idImpianto": 3927, "points": [{"type": "Feature", "properties": {}, "geometry": {"type": "Point", "coordinates": [9.04014393386842, 45.55834880837939]}}], "price": 3.7, "ultima_rilevazione": "02/05/2022 11:10:20"}, {"Gestore": "ET CAR SERVICE DI SAMMARCO EMILIANO", "Bandiera": "Q8", "Tipo impianto": "Altro", "Indirizzo": "VIALE DEI FONTANILI SNC 20017", "Nome impianto": "ET CAR SERVICE DI SAMMARCO EMILIANO", "Comune": "RHO", "idImpianto": 10515, "points": [{"type": "Feature", "properties": {}, "geometry": {"type": "Point", "coordinates": [9.04581935707779, 45.515450649237735]}}], "price": 2.699, "ultima_rilevazione": "03/05/2022 07:09:32"}]}}