{"area_comune": "[{\"type\": \"Feature\", \"properties\": {}, \"geometry\": {\"type\": \"Polygon\", \"coordinates\": [[[7.635854383707582, 44.973732112655966], [7.6480187986581845, 44.970190519292736], [7.657563496474532, 44.963952299780345], [7.6552058969510774, 44.96064335166569], [7.6525514096378, 44.94953069424448], [7.650914857556715, 44.94057245087003], [7.648294401148809, 44.93851151164717], [7.649249768056956, 44.93660090191552], [7.6477678900186445, 44.92896770613545], [7.639888642634487, 44.925961987756025], [7.637408200597138, 44.92917763288908], [7.626679143131227, 44.93458079989578], [7.617902176029879, 44.938849832505625], [7.607498004475531, 44.943296411199505], [7.601674963034814, 44.94490861874641], [7.600342857094413, 44.94629208490928], [7.599456863273563, 44.948173436302625], [7.600346015877601, 44.95282753913592], [7.6066711478825395, 44.95687474588922], [7.607893825015282, 44.95798788703365], [7.6102733600969295, 44.96105952004178], [7.610145546982812, 44.96136403711149], [7.6083640631382865, 44.96279164224448], [7.603375081131415, 44.96648001862643], [7.600255233501126, 44.96781910769798], [7.6180540486428665, 44.98433832995789], [7.626563915317387, 44.9785177697975], [7.634908902314148, 44.97381083555698], [7.635854383707582, 44.973732112655966]]]}}]", "comune": "vinovo", "buffer_1": "[{\"type\": \"Feature\", \"properties\": {}, \"geometry\": {\"type\": \"Polygon\", \"coordinates\": [[[7.643362077279495, 44.981010638535686], [7.664359058621117, 44.971551071615146], [7.665412473180763, 44.97102102046258], [7.666384464508021, 44.97041766050826], [7.667264952170886, 44.9697472507305], [7.668044805896559, 44.96901674543967], [7.668715940237833, 44.96823372207128], [7.669271398352665, 44.96740630252017], [7.669705424030875, 44.96654306883452], [7.670013521225841, 44.96565297414812], [7.670192500480514, 44.96474524977695], [7.670240511774483, 44.963829309446105], [7.670157063460914, 44.96291465164222], [7.66994302710722, 44.962010761105034], [7.669600628199946, 44.96112701047985], [7.651918615341809, 44.92313845947357], [7.651458849929749, 44.922294877534], [7.650882235839573, 44.92148834074833], [7.650194601064334, 44.92072699427755], [7.649402893987684, 44.9200185265891], [7.648515113094102, 44.919370091871905], [7.647540226117714, 44.91878823785401], [7.646488079448708, 44.9182788397489], [7.645369298712838, 44.917847040994104], [7.644195181526742, 44.91749720137759], [7.6429775835089195, 44.91723285307231], [7.6417287986926326, 44.917056665020304], [7.640461435541949, 44.916970416023666], [7.639188289815346, 44.91697497681193], [7.637922215552131, 44.91707030126585], [7.636675995475381, 44.91725542688523], [7.635462212110694, 44.91752848449625], [7.6342931209130915, 44.91788671710058], [7.63318052667462, 44.91832650767736], [7.632135664453004, 44.9188434156589], [7.591706026334686, 44.941052170624936], [7.590774334708419, 44.9416167083715], [7.5899237005362385, 44.94224247431205], [7.5891620678765985, 44.94292362637625], [7.5884965506381326, 44.943653805214815], [7.587933366102258, 44.94442619352019], [7.587477776782635, 44.94523357962758], [7.5871340411674035, 44.946068424805176], [7.586905373808316, 44.94692293360739], [7.586793915134782, 44.947789126635584], [7.58680071128088, 44.94865891502871], [7.5869257041205485, 44.949524175988955], [7.587167731611332, 44.950376828637786], [7.587524538450847, 44.95120890949395], [7.587992796953766, 44.95201264686823], [7.5885681379612535, 44.9527805334792], [7.5941976295879074, 44.95948951556171], [7.591522179226652, 44.96129431687891], [7.590668332499036, 44.961929323006984], [7.589905664664759, 44.96262036046254], [7.589241432735625, 44.96336085681569], [7.588681958249948, 44.96414376898706], [7.5882325670466, 44.96496165018587], [7.587897538476493, 44.96580672069582], [7.587680064539205, 44.96667094183736], [7.58758221933928, 44.96754609240473], [7.5876049391594105, 44.968423846852126], [7.587748013347443, 44.96929585448632], [7.588010086111774, 44.9701538189126], [7.588388669215889, 44.970989576978496], [7.588880165459098, 44.97179517646347], [7.589479902727304, 44.97256295177459], [7.590182178296436, 44.97328559692643], [7.607979715278244, 44.9898063593998], [7.60880798458109, 44.9904994009184], [7.609730530517266, 44.99112963916125], [7.610737949316502, 44.99169064787315], [7.611819970864997, 44.9921767065105], [7.61296556344493, 44.99258285863707], [7.614163046284628, 44.99290496252593], [7.615400208768032, 44.99313973344823], [7.61666443508237, 44.993284777215074], [7.617942833026056, 44.99333861462808], [7.619222365655196, 44.99330069658739], [7.620489984417205, 44.99317140970211], [7.621732762404528, 44.99295207234516], [7.622938026360022, 44.99264492119334], [7.624093486078739, 44.99225308839021], [7.625187359878058, 44.991780569566515], [7.62620849484933, 44.99123218304609], [7.643362077279495, 44.981010638535686]]]}}]", "buffer_3": "[{\"type\": \"Feature\", \"properties\": {}, \"geometry\": {\"type\": \"Polygon\", \"coordinates\": [[[7.564487391859945, 44.95870378956799], [7.564190900597571, 44.959242978184115], [7.563184836827374, 44.96177796471607], [7.562531334756871, 44.964370473317715], [7.562236657684474, 44.96699584626145], [7.562303657780748, 44.96962910991388], [7.562731747105861, 44.97224521219793], [7.563516901324461, 44.974819260929216], [7.564651696153957, 44.977326760759674], [7.566125376269334, 44.97974384646909], [7.567923956074806, 44.98204751037615], [7.570030351442729, 44.98421582169139], [7.587825326088417, 45.00073966482971], [7.590309916888289, 45.0028192034338], [7.593077579260938, 45.00471034059027], [7.596100100934944, 45.00639378033618], [7.59934666080457, 45.007852344198916], [7.6027841435838495, 45.00907114707022], [7.6063774782751805, 45.01003774965622], [7.610089996965047, 45.010742285919726], [7.6138838102361275, 45.01117756418942], [7.6177201953019, 45.011339140882924], [7.621559992828819, 45.01122536607546], [7.625364008314836, 45.010837400438], [7.629093413842105, 45.01017920336767], [7.632710146017267, 45.00925749243271], [7.636177295954748, 45.0080816745537], [7.639459487246264, 45.006663749636516], [7.642523237992396, 45.00501818765895], [7.65838313649509, 44.99556624936472], [7.677955527949669, 44.98674743492622], [7.681116191235615, 44.98515688461638], [7.684032346153519, 44.983346384922996], [7.686673743953308, 44.98133473017031], [7.689012996558515, 44.97914280090596], [7.691025860447857, 44.97679334655049], [7.692691487458512, 44.974310748690534], [7.693992639935591, 44.971720767503506], [7.694915868040456, 44.96905027397373], [7.695451647439487, 44.96632697070397], [7.695594476019747, 44.96357910423975], [7.695342928713822, 44.960835171906], [7.694699669957842, 44.95812362620628], [7.693671423749518, 44.95547257985334], [7.675975102927977, 44.917487554823815], [7.67459491277757, 44.914957080948575], [7.672864352035355, 44.91253780078218], [7.670800933581279, 44.910254136500534], [7.6684255232313125, 44.9081291383936], [7.665762128040298, 44.906184252719086], [7.662837653285429, 44.904439105811896], [7.659681630605591, 44.90291130660087], [7.656325920045999, 44.90161626949681], [7.6528043890036725, 44.900567059410356], [7.649152571285843, 44.899774260436544], [7.645407309678731, 44.899245869506274], [7.641606385576974, 44.89898721605634], [7.63778813934345, 44.89900090851166], [7.633991085154431, 44.89928680810761], [7.630253524135472, 44.8998420303102], [7.626613159608849, 44.90066097381869], [7.623106718253654, 44.90173537686361], [7.619769580924921, 44.90305440024201], [7.616635426788822, 44.90460473626853], [7.576210075458399, 44.926808106948855], [7.573415201328707, 44.928501324241125], [7.570863278927005, 44.930378218537534], [7.568578141133161, 44.93242127865118], [7.566581138565895, 44.93461144128518], [7.564890939822848, 44.93692826844504], [7.563523356438735, 44.939350137723075], [7.562491194221924, 44.94185444370005], [7.56180413239481, 44.94441780860236], [7.5614686317135735, 44.94701630026447], [7.561487872480565, 44.94962565537468], [7.5618617230895495, 44.95222150592889], [7.562586739462862, 44.954779606782665], [7.5636561954524915, 44.95727606217751], [7.564487391859945, 44.95870378956799]]]}}]", "buffer_5": "[{\"type\": \"Feature\", \"properties\": {}, \"geometry\": {\"type\": \"Polygon\", \"coordinates\": [[[7.5380723984941715, 44.9593412825777], [7.537384754895018, 44.962064490221856], [7.536891724435607, 44.96643997969604], [7.537001458912384, 44.970828752113], [7.537713051792977, 44.97518905407181], [7.539019867634799, 44.97947939365158], [7.540909600102255, 44.98365893550037], [7.543364384238198, 44.98768789002153], [7.546360962105059, 44.99152789292931], [7.549870900385154, 44.99514237152444], [7.567663304666025, 45.01166929564294], [7.571803925859924, 45.01513588356228], [7.5764167361526, 45.01828848320531], [7.581454713606488, 45.021094905928244], [7.586866471844256, 45.02352649282018], [7.592596785191555, 45.02555840897595], [7.598587154152668, 45.027169898658734], [7.604776405351555, 45.02834449866925], [7.611101319674326, 45.02907020767173], [7.617497282022589, 45.02933960968906], [7.623898945835474, 45.02914995046031], [7.630240905365221, 45.02850316585053], [7.636458368599901, 45.027405862009864], [7.642487823718433, 45.02586924748833], [7.648267692037732, 45.02390901802123], [7.653738960568581, 45.0215451951989], [7.658845787533063, 45.01880192072083], [7.673411764430547, 45.010119936448895], [7.691559130170238, 45.00194222228482], [7.696827601155412, 44.99929064316391], [7.70168815988277, 44.996272443542665], [7.7060903794410605, 44.9929189763273], [7.709988617741631, 44.98926507182904], [7.713342490445768, 44.985348674292915], [7.716117288062661, 44.981210446203136], [7.718284332964599, 44.9768933445602], [7.719821272740323, 44.9724421736089], [7.720712307013521, 44.96790311873011], [7.720948345582216, 44.963323266391136], [7.720527096476876, 44.95875011517794], [7.719453083281846, 44.95423108300742], [7.717737591807452, 44.94981301563862], [7.700026976457738, 44.91183152183508], [7.697725171340736, 44.9076145191188], [7.6948397078181365, 44.90358293613227], [7.691399822025646, 44.89977745431192], [7.687440324598453, 44.89623646562664], [7.683001246477957, 44.892995686680905], [7.678127433126282, 44.89008779998931], [7.672868091303274, 44.887542125963904], [7.667276292992087, 44.88538432884266], [7.661408441444337, 44.88363615944615], [7.655323704652172, 44.882315237280935], [7.649083421840919, 44.881434874118575], [7.642750488810868, 44.881003940770746], [7.636388728139555, 44.881026778356215], [7.630062250385668, 44.88150315492206], [7.623834812512264, 44.88242826783773], [7.61776917977002, 44.88379279193635], [7.611926497250659, 44.885582972931374], [7.606365677236724, 44.887780765195934], [7.601142808336864, 44.8903640125589], [7.560721749518901, 44.91256200278725], [7.556063961465963, 44.915383372103705], [7.551810725638166, 44.91851085699922], [7.548001764566355, 44.92191529716861], [7.54467267730215, 44.92556494501364], [7.541854605949774, 44.92942576041691], [7.539573942908143, 44.93346172701897], [7.537852081627426, 44.93763518710465], [7.536705213309341, 44.94190719202639], [7.536144171579032, 44.946237864938695], [7.536174326731503, 44.95058677249404], [7.536795530709983, 44.95491330205608], [7.5380021135111015, 44.95917704092202], [7.5380723984941715, 44.9593412825777]]]}}]", "centroid": "[{\"type\": \"Feature\", \"properties\": {}, \"geometry\": {\"type\": \"Point\", \"coordinates\": [7.6276711568660245, 44.9556088595191]}}]", "Diesel High Quality": {"1": [{"Gestore": "SERVIZI & GESTIONI ITALIA S.R.L.", "Bandiera": "Q8", "Tipo impianto": "Altro", "Indirizzo": "VIA DEL MARE 10 10040", "Nome impianto": "PIOBESI TORINESE-VIA DEL MARE 10", "Comune": "PIOBESI TORINESE", "idImpianto": 11878, "points": [{"type": "Feature", "properties": {}, "geometry": {"type": "Point", "coordinates": [7.623410672283171, 44.92847592146983]}}], "price": 2.229, "ultima_rilevazione": "19/07/2022 07:06:54"}, {"Gestore": "SERVIZI & GESTIONI ITALIA S.R.L.", "Bandiera": "Q8", "Tipo impianto": "Altro", "Indirizzo": "VIA DEL MARE 10 10040", "Nome impianto": "PIOBESI TORINESE-VIA DEL MARE 10", "Comune": "PIOBESI TORINESE", "idImpianto": 11878, "points": [{"type": "Feature", "properties": {}, "geometry": {"type": "Point", "coordinates": [7.623410672283171, 44.92847592146983]}}], "price": 2.249, "ultima_rilevazione": "19/07/2022 07:06:54"}], "3": [{"Gestore": "MONCALIERI CARLO DI GROSSO LUCA & C. S.A.S.", "Bandiera": "Esso", "Tipo impianto": "Altro", "Indirizzo": "STRADA CARIGNANO 74 10024", "Nome impianto": "ESSO", "Comune": "MONCALIERI", "idImpianto": 47500, "points": [{"type": "Feature", "properties": {}, "geometry": {"type": "Point", "coordinates": [7.670100487102527, 44.976985802882695]}}], "price": 2.089, "ultima_rilevazione": "16/07/2022 07:53:25"}, {"Gestore": "DDQ SERVICE DI QUARTARONE DIEGO DOMENICO", "Bandiera": "Esso", "Tipo impianto": "Altro", "Indirizzo": "VIA XXV APRILE 126 10042", "Nome impianto": "Diego Domenico Quartarone", "Comune": "NICHELINO", "idImpianto": 26452, "points": [{"type": "Feature", "properties": {}, "geometry": {"type": "Point", "coordinates": [7.6414455264587104, 45.00191241341997]}}], "price": 2.079, "ultima_rilevazione": "18/07/2022 08:52:40"}], "5": [{"Gestore": "CORONA CARBURANTI S.R.L.", "Bandiera": "Q8", "Tipo impianto": "Altro", "Indirizzo": "via XXV APRILE 74 10042", "Nome impianto": "K0292", "Comune": "NICHELINO", "idImpianto": 47505, "points": [{"type": "Feature", "properties": {}, "geometry": {"type": "Point", "coordinates": [7.6489186287, 45.0020484924]}}], "price": 1.979, "ultima_rilevazione": "16/07/2022 08:17:15"}, {"Gestore": "SERVIZI & GESTIONI ITALIA S.R.L.", "Bandiera": "Q8", "Tipo impianto": "Altro", "Indirizzo": "VIA VIGLIANI, 67 STAZ.Q8  10135", "Nome impianto": "TORINO VIA VIGLIANI, 67 STAZ.Q8", "Comune": "TORINO", "idImpianto": 40637, "points": [{"type": "Feature", "properties": {}, "geometry": {"type": "Point", "coordinates": [7.643126249313354, 45.01930717490191]}}], "price": 2.198, "ultima_rilevazione": "18/07/2022 00:34:55"}, {"Gestore": "SERVIZI & GESTIONI ITALIA S.R.L.", "Bandiera": "Q8", "Tipo impianto": "Altro", "Indirizzo": "VIA VIGLIANI, 67 STAZ.Q8  10135", "Nome impianto": "TORINO VIA VIGLIANI, 67 STAZ.Q8", "Comune": "TORINO", "idImpianto": 40637, "points": [{"type": "Feature", "properties": {}, "geometry": {"type": "Point", "coordinates": [7.643126249313354, 45.01930717490191]}}], "price": 2.228, "ultima_rilevazione": "18/07/2022 00:34:55"}, {"Gestore": "BRUCO SAS DI COPPOLA CLAUDIA", "Bandiera": "Esso", "Tipo impianto": "Altro", "Indirizzo": "via cavour 37 10024", "Nome impianto": "bruco sas", "Comune": "MONCALIERI", "idImpianto": 47575, "points": [{"type": "Feature", "properties": {}, "geometry": {"type": "Point", "coordinates": [7.688609000123, 45.000160000123]}}], "price": 2.079, "ultima_rilevazione": "18/07/2022 08:47:11"}, {"Gestore": "SERVIZI & GESTIONI ITALIA S.R.L.", "Bandiera": "Q8", "Tipo impianto": "Altro", "Indirizzo": "SS 393 KM 3+300 300 10024", "Nome impianto": "MONCALIERI - SS 393 KM3 300", "Comune": "MONCALIERI", "idImpianto": 7266, "points": [{"type": "Feature", "properties": {}, "geometry": {"type": "Point", "coordinates": [7.703556418418884, 44.97914254185535]}}], "price": 2.209, "ultima_rilevazione": "19/07/2022 07:06:53"}, {"Gestore": "SERVIZI & GESTIONI ITALIA S.R.L.", "Bandiera": "Q8", "Tipo impianto": "Altro", "Indirizzo": "SS 393 KM 3+300 300 10024", "Nome impianto": "MONCALIERI - SS 393 KM3 300", "Comune": "MONCALIERI", "idImpianto": 7266, "points": [{"type": "Feature", "properties": {}, "geometry": {"type": "Point", "coordinates": [7.703556418418884, 44.97914254185535]}}], "price": 2.239, "ultima_rilevazione": "19/07/2022 07:06:53"}]}, "Blue Diesel": {"1": [{"Gestore": "ALLERUZZO LUCA", "Bandiera": "Agip Eni", "Tipo impianto": "Altro", "Indirizzo": "VIA TORINO 372 10042", "Nome impianto": "00664", "Comune": "NICHELINO", "idImpianto": 7370, "points": [{"type": "Feature", "properties": {}, "geometry": {"type": "Point", "coordinates": [7.629635041525262, 44.98124253579672]}}], "price": 1.999, "ultima_rilevazione": "18/07/2022 08:28:05"}, {"Gestore": "ALLERUZZO LUCA", "Bandiera": "Agip Eni", "Tipo impianto": "Altro", "Indirizzo": "VIA TORINO 372 10042", "Nome impianto": "00664", "Comune": "NICHELINO", "idImpianto": 7370, "points": [{"type": "Feature", "properties": {}, "geometry": {"type": "Point", "coordinates": [7.629635041525262, 44.98124253579672]}}], "price": 2.139, "ultima_rilevazione": "18/07/2022 08:28:05"}], "3": [{"Gestore": "AUTOLAVAGGIO NINA DI NAPOLI SALVATORE", "Bandiera": "Agip Eni", "Tipo impianto": "Strada Statale", "Indirizzo": "20 del Colle di Tenda e di Valle Roja, Km. 6+035, Carignano 10040", "Nome impianto": "ENI", "Comune": "LA LOGGIA", "idImpianto": 42169, "points": [{"type": "Feature", "properties": {}, "geometry": {"type": "Point", "coordinates": [7.668999001852399, 44.94862787801203]}}], "price": 2.149, "ultima_rilevazione": "11/07/2022 18:08:06"}, {"Gestore": "AUTOLAVAGGIO NINA DI NAPOLI SALVATORE", "Bandiera": "Agip Eni", "Tipo impianto": "Strada Statale", "Indirizzo": "20 del Colle di Tenda e di Valle Roja, Km. 6+035, Carignano 10040", "Nome impianto": "ENI", "Comune": "LA LOGGIA", "idImpianto": 42169, "points": [{"type": "Feature", "properties": {}, "geometry": {"type": "Point", "coordinates": [7.668999001852399, 44.94862787801203]}}], "price": 2.089, "ultima_rilevazione": "11/07/2022 18:08:06"}, {"Gestore": "FI&LO DI LUIGI CARNIGLIA", "Bandiera": "Agip Eni", "Tipo impianto": "Autostradale", "Indirizzo": "A55 TANG.LE DI TORINO, Km. 10+133, milano 10024", "Nome impianto": "NICHELINO NORD", "Comune": "MONCALIERI", "idImpianto": 41432, "points": [{"type": "Feature", "properties": {}, "geometry": {"type": "Point", "coordinates": [7.657635658979416, 44.97581154787802]}}], "price": 2.189, "ultima_rilevazione": "19/07/2022 07:09:11"}, {"Gestore": "CICIRELLO VIRGINIA", "Bandiera": "Agip Eni", "Tipo impianto": "Altro", "Indirizzo": "VIA TORINO 275 10042", "Nome impianto": "Eni - SOCOGAS", "Comune": "NICHELINO", "idImpianto": 46795, "points": [{"type": "Feature", "properties": {}, "geometry": {"type": "Point", "coordinates": [7.635887743014109, 44.985835624575486]}}], "price": 2.124, "ultima_rilevazione": "14/07/2022 08:41:30"}, {"Gestore": "CICIRELLO VIRGINIA", "Bandiera": "Agip Eni", "Tipo impianto": "Altro", "Indirizzo": "VIA TORINO 275 10042", "Nome impianto": "Eni - SOCOGAS", "Comune": "NICHELINO", "idImpianto": 46795, "points": [{"type": "Feature", "properties": {}, "geometry": {"type": "Point", "coordinates": [7.635887743014109, 44.985835624575486]}}], "price": 2.169, "ultima_rilevazione": "14/07/2022 08:41:30"}, {"Gestore": "S.A.G.I. SOCIETA'  A RESPONSABILITA' LIMITATA S.R.L. SIGLABILE S.A.G.I. SRL", "Bandiera": "Agip Eni", "Tipo impianto": "Autostradale", "Indirizzo": "Autostrada A55 TANG.LE DI TORINO, Km. 11.3, dir. Sud", "Nome impianto": "NICHELINO SUD", "Comune": "NICHELINO", "idImpianto": 3626, "points": [{"type": "Feature", "properties": {}, "geometry": {"type": "Point", "coordinates": [7.645269334316254, 44.9812651762777]}}], "price": 2.189, "ultima_rilevazione": "16/07/2022 09:05:11"}, {"Gestore": "S.A.G.I. SOCIETA'  A RESPONSABILITA' LIMITATA S.R.L. SIGLABILE S.A.G.I. SRL", "Bandiera": "Agip Eni", "Tipo impianto": "Autostradale", "Indirizzo": "Autostrada A55 TANG.LE DI TORINO, Km. 11.3, dir. Sud", "Nome impianto": "NICHELINO SUD", "Comune": "NICHELINO", "idImpianto": 3626, "points": [{"type": "Feature", "properties": {}, "geometry": {"type": "Point", "coordinates": [7.645269334316254, 44.9812651762777]}}], "price": 2.287, "ultima_rilevazione": "16/07/2022 09:05:11"}], "5": [{"Gestore": "KICH SERVIZI", "Bandiera": "Agip Eni", "Tipo impianto": "Altro", "Indirizzo": "strada orbassano km 10 620 10092", "Nome impianto": "abdelaziz kich", "Comune": "BEINASCO", "idImpianto": 44511, "points": [{"type": "Feature", "properties": {}, "geometry": {"type": "Point", "coordinates": [7.578066000123, 45.018501000123]}}], "price": 2.109, "ultima_rilevazione": "06/07/2022 19:28:41"}, {"Gestore": "KICH SERVIZI", "Bandiera": "Agip Eni", "Tipo impianto": "Altro", "Indirizzo": "strada orbassano km 10 620 10092", "Nome impianto": "abdelaziz kich", "Comune": "BEINASCO", "idImpianto": 44511, "points": [{"type": "Feature", "properties": {}, "geometry": {"type": "Point", "coordinates": [7.578066000123, 45.018501000123]}}], "price": 2.209, "ultima_rilevazione": "06/07/2022 19:28:41"}, {"Gestore": "CANDIOTTO LUCIANO", "Bandiera": "Agip Eni", "Tipo impianto": "Altro", "Indirizzo": "strada borgaretto 48 10043", "Nome impianto": "eni imp.00677 di candiotto luciano", "Comune": "ORBASSANO", "idImpianto": 19403, "points": [{"type": "Feature", "properties": {}, "geometry": {"type": "Point", "coordinates": [7.594098809192701, 45.007436643886976]}}], "price": 2.039, "ultima_rilevazione": "15/07/2022 08:20:38"}, {"Gestore": "TIEFFE SERVICE S.N.C. DI TEDESCO FEDERICO E FRANCESCO", "Bandiera": "Agip Eni", "Tipo impianto": "Altro", "Indirizzo": "CORSO TRAIANO 119/A  10100", "Nome impianto": "ENI traiano", "Comune": "TORINO", "idImpianto": 46916, "points": [{"type": "Feature", "properties": {}, "geometry": {"type": "Point", "coordinates": [7.651095872364522, 45.02205170825759]}}], "price": 2.024, "ultima_rilevazione": "15/07/2022 18:06:01"}, {"Gestore": "TIEFFE SERVICE S.N.C. DI TEDESCO FEDERICO E FRANCESCO", "Bandiera": "Agip Eni", "Tipo impianto": "Altro", "Indirizzo": "CORSO TRAIANO 119/A  10100", "Nome impianto": "ENI traiano", "Comune": "TORINO", "idImpianto": 46916, "points": [{"type": "Feature", "properties": {}, "geometry": {"type": "Point", "coordinates": [7.651095872364522, 45.02205170825759]}}], "price": 2.164, "ultima_rilevazione": "15/07/2022 18:06:01"}, {"Gestore": "DE.MA. DI DESANTIS ROBERTO E C. SAS", "Bandiera": "Agip Eni", "Tipo impianto": "Autostradale", "Indirizzo": "Autostrada A55 TANG.LE DI TORINO-Dir. Pinerolo, Km. 2.92, dir. Sud", "Nome impianto": "BEINASCO", "Comune": "BEINASCO", "idImpianto": 3742, "points": [{"type": "Feature", "properties": {}, "geometry": {"type": "Point", "coordinates": [7.57856011390686, 45.009953216766114]}}], "price": 2.169, "ultima_rilevazione": "15/07/2022 18:50:42"}, {"Gestore": "DE.MA. DI DESANTIS ROBERTO E C. SAS", "Bandiera": "Agip Eni", "Tipo impianto": "Autostradale", "Indirizzo": "Autostrada A55 TANG.LE DI TORINO-Dir. Pinerolo, Km. 2.92, dir. Sud", "Nome impianto": "BEINASCO", "Comune": "BEINASCO", "idImpianto": 3742, "points": [{"type": "Feature", "properties": {}, "geometry": {"type": "Point", "coordinates": [7.57856011390686, 45.009953216766114]}}], "price": 2.267, "ultima_rilevazione": "15/07/2022 18:50:42"}, {"Gestore": "M.L. SNC DI MICHELE CIUFFI E LIVIO LOGGETTA", "Bandiera": "Agip Eni", "Tipo impianto": "Altro", "Indirizzo": "CORSO TRIESTE ANGOLO CORSO ROMA  10024", "Nome impianto": "00687", "Comune": "MONCALIERI", "idImpianto": 29855, "points": [{"type": "Feature", "properties": {}, "geometry": {"type": "Point", "coordinates": [7.672491073608398, 45.00576987334705]}}], "price": 2.134, "ultima_rilevazione": "17/07/2022 19:25:26"}, {"Gestore": "M.L. SNC DI MICHELE CIUFFI E LIVIO LOGGETTA", "Bandiera": "Agip Eni", "Tipo impianto": "Altro", "Indirizzo": "CORSO TRIESTE ANGOLO CORSO ROMA  10024", "Nome impianto": "00687", "Comune": "MONCALIERI", "idImpianto": 29855, "points": [{"type": "Feature", "properties": {}, "geometry": {"type": "Point", "coordinates": [7.672491073608398, 45.00576987334705]}}], "price": 2.004, "ultima_rilevazione": "17/07/2022 19:25:26"}, {"Gestore": "SIMA S.A.S. DI MOUTH DARIO & C.", "Bandiera": "Agip Eni", "Tipo impianto": "Altro", "Indirizzo": "STRADA DEL DROSSO 101/A 10135", "Nome impianto": "sima s.a.s.", "Comune": "TORINO", "idImpianto": 12346, "points": [{"type": "Feature", "properties": {}, "geometry": {"type": "Point", "coordinates": [7.613047957420349, 45.01623277868544]}}], "price": 1.999, "ultima_rilevazione": "18/07/2022 08:09:53"}, {"Gestore": "CANU GIUSEPPE", "Bandiera": "Agip Eni", "Tipo impianto": "Altro", "Indirizzo": "corso unione sovietica  614 a 10135", "Nome impianto": "stazione di servizio eni", "Comune": "TORINO", "idImpianto": 40152, "points": [{"type": "Feature", "properties": {}, "geometry": {"type": "Point", "coordinates": [7.622725610575799, 45.01221048701624]}}], "price": 1.999, "ultima_rilevazione": "18/07/2022 10:16:50"}, {"Gestore": "CAPECE COSIMO", "Bandiera": "Agip Eni", "Tipo impianto": "Strada Statale", "Indirizzo": "Statale 663 di Saluzzo, Km. 001, dir. Saluzzo\\\\Carmagnola 10041", "Nome impianto": "Stazione ENI Carignano", "Comune": "CARIGNANO", "idImpianto": 35942, "points": [{"type": "Feature", "properties": {}, "geometry": {"type": "Point", "coordinates": [7.66992396198566, 44.89559294893613]}}], "price": 2.144, "ultima_rilevazione": "18/07/2022 11:20:10"}, {"Gestore": "CAPECE COSIMO", "Bandiera": "Agip Eni", "Tipo impianto": "Strada Statale", "Indirizzo": "Statale 663 di Saluzzo, Km. 001, dir. Saluzzo\\\\Carmagnola 10041", "Nome impianto": "Stazione ENI Carignano", "Comune": "CARIGNANO", "idImpianto": 35942, "points": [{"type": "Feature", "properties": {}, "geometry": {"type": "Point", "coordinates": [7.66992396198566, 44.89559294893613]}}], "price": 2.004, "ultima_rilevazione": "18/07/2022 11:20:10"}, {"Gestore": "GESTIONI INNOVATIVE ITALIA S.R.L.", "Bandiera": "Agip Eni", "Tipo impianto": "Altro", "Indirizzo": "CORSO TRAIANO  146 10127", "Nome impianto": "665", "Comune": "TORINO", "idImpianto": 48310, "points": [{"type": "Feature", "properties": {}, "geometry": {"type": "Point", "coordinates": [7.653532999999992, 45.02048749098992]}}], "price": 2.004, "ultima_rilevazione": "19/07/2022 06:04:11"}]}, "Gasolio High Quality": {"1": [], "3": [], "5": [{"Gestore": "DE.MA. DI DESANTIS ROBERTO E C. SAS", "Bandiera": "Agip Eni", "Tipo impianto": "Autostradale", "Indirizzo": "Autostrada A55 TANG.LE DI TORINO-Dir. Pinerolo, Km. 2.92, dir. Sud", "Nome impianto": "BEINASCO", "Comune": "BEINASCO", "idImpianto": 3742, "points": [{"type": "Feature", "properties": {}, "geometry": {"type": "Point", "coordinates": [7.57856011390686, 45.009953216766114]}}], "price": 2.069, "ultima_rilevazione": "15/07/2022 18:50:42"}]}, "Benzina": {"1": [{"Gestore": "SOSTA SICURA SOCIETA' COOPERATIVA", "Bandiera": "Kerotris", "Tipo impianto": "Altro", "Indirizzo": "VIA DEBOUCHE' SN 10042", "Nome impianto": "KEROTRIS - MONDOJUVE", "Comune": "NICHELINO", "idImpianto": 49005, "points": [{"type": "Feature", "properties": {}, "geometry": {"type": "Point", "coordinates": [7.620159115793044, 44.98543782797741]}}], "price": 1.948, "ultima_rilevazione": "15/07/2022 14:52:23"}, {"Gestore": "DIS-CAR DI SARRA PAOLO & C. S.N.C.", "Bandiera": "DIS-CAR", "Tipo impianto": "Altro", "Indirizzo": "Via Torino Ang.Via Vernea  10042", "Nome impianto": "NICHELINO", "Comune": "NICHELINO", "idImpianto": 34189, "points": [{"type": "Feature", "properties": {}, "geometry": {"type": "Point", "coordinates": [7.632060755775456, 44.98279587303752]}}], "price": 1.929, "ultima_rilevazione": "16/07/2022 00:08:34"}, {"Gestore": "BOTTARO PIER ANTONIO", "Bandiera": "Api-Ip", "Tipo impianto": "Altro", "Indirizzo": "VIA PIOBESI 40 10048", "Nome impianto": "bottaro pier antonio", "Comune": "VINOVO", "idImpianto": 14644, "points": [{"type": "Feature", "properties": {}, "geometry": {"type": "Point", "coordinates": [7.624199241399765, 44.940193341807166]}}], "price": 1.999, "ultima_rilevazione": "18/07/2022 08:12:05"}, {"Gestore": "ALLERUZZO LUCA", "Bandiera": "Agip Eni", "Tipo impianto": "Altro", "Indirizzo": "VIA TORINO 372 10042", "Nome impianto": "00664", "Comune": "NICHELINO", "idImpianto": 7370, "points": [{"type": "Feature", "properties": {}, "geometry": {"type": "Point", "coordinates": [7.629635041525262, 44.98124253579672]}}], "price": 1.989, "ultima_rilevazione": "18/07/2022 08:28:05"}, {"Gestore": "IP SERVICES S.R.L.", "Bandiera": "Api-Ip", "Tipo impianto": "Altro", "Indirizzo": "VIA CIRCONVALLAZIONE 38 10048", "Nome impianto": "VINOVO", "Comune": "VINOVO", "idImpianto": 25187, "points": [{"type": "Feature", "properties": {}, "geometry": {"type": "Point", "coordinates": [7.627926822090103, 44.94493417175196]}}], "price": 1.939, "ultima_rilevazione": "18/07/2022 10:01:34"}, {"Gestore": "IP SERVICES S.R.L.", "Bandiera": "Api-Ip", "Tipo impianto": "Altro", "Indirizzo": "STUPINIGI  10048", "Nome impianto": "VINOVO - STUPINIGI", "Comune": "VINOVO", "idImpianto": 36548, "points": [{"type": "Feature", "properties": {}, "geometry": {"type": "Point", "coordinates": [7.625817434358623, 44.95690379606856]}}], "price": 1.969, "ultima_rilevazione": "18/07/2022 10:03:17"}, {"Gestore": "T.D.M. S.R.L.", "Bandiera": "Tamoil", "Tipo impianto": "Altro", "Indirizzo": "SP. 140 DA KM. 6+430 A KM. 6+490  10060", "Nome impianto": "3392", "Comune": "CANDIOLO", "idImpianto": 45742, "points": [{"type": "Feature", "properties": {}, "geometry": {"type": "Point", "coordinates": [7.604451719881126, 44.960996540545416]}}], "price": 1.929, "ultima_rilevazione": "18/07/2022 12:10:22"}, {"Gestore": "IP SERVICES S.R.L.", "Bandiera": "Api-Ip", "Tipo impianto": "Altro", "Indirizzo": "NICHELINO - STRADA DEL DEBOUCHE'  10042", "Nome impianto": "NICHELINO - STRADA DEL DEBOUCHE'", "Comune": "NICHELINO", "idImpianto": 24618, "points": [{"type": "Feature", "properties": {}, "geometry": {"type": "Point", "coordinates": [7.621059008598307, 44.98675691142344]}}], "price": 1.929, "ultima_rilevazione": "18/07/2022 18:01:01"}, {"Gestore": "SERVIZI & GESTIONI ITALIA S.R.L.", "Bandiera": "Q8", "Tipo impianto": "Altro", "Indirizzo": "VIA STUPINIGI 32 10048", "Nome impianto": "VINOVO-VIA STUPINIGI 32", "Comune": "VINOVO", "idImpianto": 11884, "points": [{"type": "Feature", "properties": {}, "geometry": {"type": "Point", "coordinates": [7.627314169311489, 44.95427832850064]}}], "price": 1.939, "ultima_rilevazione": "19/07/2022 01:38:07"}, {"Gestore": "SERVIZI & GESTIONI ITALIA S.R.L.", "Bandiera": "Q8", "Tipo impianto": "Altro", "Indirizzo": "VIA DEL MARE 10 10040", "Nome impianto": "PIOBESI TORINESE-VIA DEL MARE 10", "Comune": "PIOBESI TORINESE", "idImpianto": 11878, "points": [{"type": "Feature", "properties": {}, "geometry": {"type": "Point", "coordinates": [7.623410672283171, 44.92847592146983]}}], "price": 1.949, "ultima_rilevazione": "19/07/2022 07:06:54"}], "3": [{"Gestore": "FRANCHINO S.N.C. DI FRANCHINO ALESSIO, FRANCHINO DANIELE, FRANCHINO DAVIDE E ROSA BRUSIN LAURA", "Bandiera": "Socogas", "Tipo impianto": "Altro", "Indirizzo": "STRADA PER ORBASSANO KM. 6+470  10060", "Nome impianto": "socogas", "Comune": "CANDIOLO", "idImpianto": 4849, "points": [{"type": "Feature", "properties": {}, "geometry": {"type": "Point", "coordinates": [7.570121884346008, 44.96629050944528]}}], "price": 1.975, "ultima_rilevazione": "11/07/2022 10:51:07"}, {"Gestore": "AUTOLAVAGGIO NINA DI NAPOLI SALVATORE", "Bandiera": "Agip Eni", "Tipo impianto": "Strada Statale", "Indirizzo": "20 del Colle di Tenda e di Valle Roja, Km. 6+035, Carignano 10040", "Nome impianto": "ENI", "Comune": "LA LOGGIA", "idImpianto": 42169, "points": [{"type": "Feature", "properties": {}, "geometry": {"type": "Point", "coordinates": [7.668999001852399, 44.94862787801203]}}], "price": 1.999, "ultima_rilevazione": "11/07/2022 18:08:06"}, {"Gestore": "ECONOMY S.R.L.", "Bandiera": "Api-Ip", "Tipo impianto": "Altro", "Indirizzo": "VIA SANTA MARIA 46 10024", "Nome impianto": "Economy-Moncalieri, Borgata Santa Maria", "Comune": "MONCALIERI", "idImpianto": 41402, "points": [{"type": "Feature", "properties": {}, "geometry": {"type": "Point", "coordinates": [7.662206173610684, 44.99062629303088]}}], "price": 2.079, "ultima_rilevazione": "13/07/2022 18:00:02"}, {"Gestore": "FI&LO DI LUIGI CARNIGLIA", "Bandiera": "Agip Eni", "Tipo impianto": "Autostradale", "Indirizzo": "A55 TANG.LE DI TORINO, Km. 10+133, milano 10024", "Nome impianto": "NICHELINO NORD", "Comune": "MONCALIERI", "idImpianto": 41432, "points": [{"type": "Feature", "properties": {}, "geometry": {"type": "Point", "coordinates": [7.657635658979416, 44.97581154787802]}}], "price": 2.137, "ultima_rilevazione": "19/07/2022 07:09:11"}, {"Gestore": "CICIRELLO VIRGINIA", "Bandiera": "Agip Eni", "Tipo impianto": "Altro", "Indirizzo": "VIA TORINO 275 10042", "Nome impianto": "Eni - SOCOGAS", "Comune": "NICHELINO", "idImpianto": 46795, "points": [{"type": "Feature", "properties": {}, "geometry": {"type": "Point", "coordinates": [7.635887743014109, 44.985835624575486]}}], "price": 2.019, "ultima_rilevazione": "14/07/2022 08:41:30"}, {"Gestore": "EUROPAM S.R.L.", "Bandiera": "Europam", "Tipo impianto": "Altro", "Indirizzo": "SP 142 PER ORBASSANO  10041", "Nome impianto": "EUROPAM - CARIGNANO", "Comune": "CARIGNANO", "idImpianto": 43916, "points": [{"type": "Feature", "properties": {}, "geometry": {"type": "Point", "coordinates": [7.6511599533729395, 44.90403034858639]}}], "price": 2.027, "ultima_rilevazione": "15/07/2022 17:45:23"}, {"Gestore": "MONCALIERI CARLO DI GROSSO LUCA & C. S.A.S.", "Bandiera": "Esso", "Tipo impianto": "Altro", "Indirizzo": "STRADA CARIGNANO 74 10024", "Nome impianto": "ESSO", "Comune": "MONCALIERI", "idImpianto": 47500, "points": [{"type": "Feature", "properties": {}, "geometry": {"type": "Point", "coordinates": [7.670100487102527, 44.976985802882695]}}], "price": 1.949, "ultima_rilevazione": "16/07/2022 07:53:25"}, {"Gestore": "S.A.G.I. SOCIETA'  A RESPONSABILITA' LIMITATA S.R.L. SIGLABILE S.A.G.I. SRL", "Bandiera": "Agip Eni", "Tipo impianto": "Autostradale", "Indirizzo": "Autostrada A55 TANG.LE DI TORINO, Km. 11.3, dir. Sud", "Nome impianto": "NICHELINO SUD", "Comune": "NICHELINO", "idImpianto": 3626, "points": [{"type": "Feature", "properties": {}, "geometry": {"type": "Point", "coordinates": [7.645269334316254, 44.9812651762777]}}], "price": 2.137, "ultima_rilevazione": "16/07/2022 09:05:11"}, {"Gestore": "DDQ SERVICE DI QUARTARONE DIEGO DOMENICO", "Bandiera": "Esso", "Tipo impianto": "Altro", "Indirizzo": "VIA XXV APRILE 126 10042", "Nome impianto": "Diego Domenico Quartarone", "Comune": "NICHELINO", "idImpianto": 26452, "points": [{"type": "Feature", "properties": {}, "geometry": {"type": "Point", "coordinates": [7.6414455264587104, 45.00191241341997]}}], "price": 1.939, "ultima_rilevazione": "18/07/2022 08:52:40"}, {"Gestore": "IP SERVICES S.R.L.", "Bandiera": "Api-Ip", "Tipo impianto": "Strada Statale", "Indirizzo": "Statale 20 del Colle di Tenda e di Valle Roja, Km. km 2,229, dir. torino 10024", "Nome impianto": "MONCALIERI - S.S. 20 KM. 2,229", "Comune": "MONCALIERI", "idImpianto": 22891, "points": [{"type": "Feature", "properties": {}, "geometry": {"type": "Point", "coordinates": [7.670443207025528, 44.98222295703064]}}], "price": 1.969, "ultima_rilevazione": "18/07/2022 10:01:12"}, {"Gestore": "T.D.M. S.R.L.", "Bandiera": "Tamoil", "Tipo impianto": "Altro", "Indirizzo": "Corso Unione Sovietica  10135", "Nome impianto": "6223", "Comune": "TORINO", "idImpianto": 39989, "points": [{"type": "Feature", "properties": {}, "geometry": {"type": "Point", "coordinates": [7.6214224845170975, 45.01102561686194]}}], "price": 1.929, "ultima_rilevazione": "18/07/2022 12:20:07"}, {"Gestore": "GS SPA", "Bandiera": "Carrefour", "Tipo impianto": "Altro", "Indirizzo": "VIA CESANA SNC 10042", "Nome impianto": "Carrefour Stazione Nichelino", "Comune": "NICHELINO", "idImpianto": 48739, "points": [{"type": "Feature", "properties": {}, "geometry": {"type": "Point", "coordinates": [7.625866548933362, 45.00463252481773]}}], "price": 1.909, "ultima_rilevazione": "18/07/2022 16:11:01"}, {"Gestore": "CARULLO FILIPPO", "Bandiera": "Api-Ip", "Tipo impianto": "Altro", "Indirizzo": "VIA DEBOUCHE'  50 10042", "Nome impianto": "IP NICHELINO", "Comune": "NICHELINO", "idImpianto": 6024, "points": [{"type": "Feature", "properties": {}, "geometry": {"type": "Point", "coordinates": [7.630719664123717, 44.99819043593735]}}], "price": 1.929, "ultima_rilevazione": "18/07/2022 19:02:55"}], "5": [{"Gestore": "VENNIRO VINCENZO", "Bandiera": "Retitalia", "Tipo impianto": "Altro", "Indirizzo": "STRADA STUPINIGI 115 10043", "Nome impianto": "retitalia", "Comune": "ORBASSANO", "idImpianto": 26381, "points": [{"type": "Feature", "properties": {}, "geometry": {"type": "Point", "coordinates": [7.573364037323017, 44.99692644179663]}}], "price": 1.759, "ultima_rilevazione": "17/11/2021 09:03:47"}, {"Gestore": "AURA PETROLSERVICE S.N.C. DI LANZA BRUNO & C.", "Bandiera": "Api-Ip", "Tipo impianto": "Autostradale", "Indirizzo": "A55 TANG.LE DI TORINO, Km. 4, Savona 10024", "Nome impianto": "BAUDUCCHI OVEST", "Comune": "MONCALIERI", "idImpianto": 51169, "points": [{"type": "Feature", "properties": {}, "geometry": {"type": "Point", "coordinates": [7.700215696606636, 44.977977829079535]}}], "price": 1.943, "ultima_rilevazione": "01/01/2022 11:45:53"}, {"Gestore": "KICH SERVIZI", "Bandiera": "Agip Eni", "Tipo impianto": "Altro", "Indirizzo": "strada orbassano km 10 620 10092", "Nome impianto": "abdelaziz kich", "Comune": "BEINASCO", "idImpianto": 44511, "points": [{"type": "Feature", "properties": {}, "geometry": {"type": "Point", "coordinates": [7.578066000123, 45.018501000123]}}], "price": 2.059, "ultima_rilevazione": "06/07/2022 19:28:41"}, {"Gestore": "ECONOMY S.R.L.", "Bandiera": "Api-Ip", "Tipo impianto": "Altro", "Indirizzo": "VIA SESTRIERE 72 10024", "Nome impianto": "Economy S.r.l-Moncalieri, via sestriere", "Comune": "MONCALIERI", "idImpianto": 33811, "points": [{"type": "Feature", "properties": {}, "geometry": {"type": "Point", "coordinates": [7.661106936245687, 45.01576799656511]}}], "price": 1.959, "ultima_rilevazione": "15/07/2022 07:15:50"}, {"Gestore": "CANDIOTTO LUCIANO", "Bandiera": "Agip Eni", "Tipo impianto": "Altro", "Indirizzo": "strada borgaretto 48 10043", "Nome impianto": "eni imp.00677 di candiotto luciano", "Comune": "ORBASSANO", "idImpianto": 19403, "points": [{"type": "Feature", "properties": {}, "geometry": {"type": "Point", "coordinates": [7.594098809192701, 45.007436643886976]}}], "price": 1.989, "ultima_rilevazione": "15/07/2022 08:20:38"}, {"Gestore": "MUNGO ANGELO", "Bandiera": "DIS-CAR", "Tipo impianto": "Altro", "Indirizzo": "Piazzale Caio Mario  433 10135", "Nome impianto": "Pizzale Caio Mario 433", "Comune": "TORINO", "idImpianto": 20254, "points": [{"type": "Feature", "properties": {}, "geometry": {"type": "Point", "coordinates": [7.635013163754252, 45.02212914964285]}}], "price": 1.969, "ultima_rilevazione": "15/07/2022 09:59:39"}, {"Gestore": "COSTANTIN DISTRIBUZIONE E SERVIZI SRL", "Bandiera": "Costantin", "Tipo impianto": "Altro", "Indirizzo": "CORSO TRAIANO  62 10135", "Nome impianto": "COSTANTIN C. TRAIANO", "Comune": "TORINO", "idImpianto": 35526, "points": [{"type": "Feature", "properties": {}, "geometry": {"type": "Point", "coordinates": [7.644760676968417, 45.02371138253844]}}], "price": 1.937, "ultima_rilevazione": "15/07/2022 10:18:53"}, {"Gestore": "COSTANTIN DISTRIBUZIONE E SERVIZI SRL", "Bandiera": "Costantin", "Tipo impianto": "Altro", "Indirizzo": "strada carignano 7 10024", "Nome impianto": "COSTANTIN MONCALIERI", "Comune": "MONCALIERI", "idImpianto": 37495, "points": [{"type": "Feature", "properties": {}, "geometry": {"type": "Point", "coordinates": [7.671861495700796, 45.00062696485018]}}], "price": 1.967, "ultima_rilevazione": "15/07/2022 10:21:30"}, {"Gestore": "GAS STATION S.R.L.", "Bandiera": "Repsol", "Tipo impianto": "Altro", "Indirizzo": "VIALE FALCONE SNC 10092", "Nome impianto": "Gas Station Beinasco (TO)", "Comune": "BEINASCO", "idImpianto": 14958, "points": [{"type": "Feature", "properties": {}, "geometry": {"type": "Point", "coordinates": [7.593108415603639, 45.02162324376023]}}], "price": 1.929, "ultima_rilevazione": "15/07/2022 11:06:15"}, {"Gestore": "GAS STATION S.R.L.", "Bandiera": "Repsol", "Tipo impianto": "Altro", "Indirizzo": "CORSO SAVONA 24 10024", "Nome impianto": "Gas Station Moncalieri", "Comune": "MONCALIERI", "idImpianto": 45234, "points": [{"type": "Feature", "properties": {}, "geometry": {"type": "Point", "coordinates": [7.686325907707215, 44.996022977084486]}}], "price": 1.929, "ultima_rilevazione": "15/07/2022 11:13:19"}, {"Gestore": "TIEFFE SERVICE S.N.C. DI TEDESCO FEDERICO E FRANCESCO", "Bandiera": "Agip Eni", "Tipo impianto": "Altro", "Indirizzo": "CORSO TRAIANO 119/A  10100", "Nome impianto": "ENI traiano", "Comune": "TORINO", "idImpianto": 46916, "points": [{"type": "Feature", "properties": {}, "geometry": {"type": "Point", "coordinates": [7.651095872364522, 45.02205170825759]}}], "price": 2.014, "ultima_rilevazione": "15/07/2022 18:06:01"}, {"Gestore": "DE.MA. DI DESANTIS ROBERTO E C. SAS", "Bandiera": "Agip Eni", "Tipo impianto": "Autostradale", "Indirizzo": "Autostrada A55 TANG.LE DI TORINO-Dir. Pinerolo, Km. 2.92, dir. Sud", "Nome impianto": "BEINASCO", "Comune": "BEINASCO", "idImpianto": 3742, "points": [{"type": "Feature", "properties": {}, "geometry": {"type": "Point", "coordinates": [7.57856011390686, 45.009953216766114]}}], "price": 2.117, "ultima_rilevazione": "15/07/2022 18:50:42"}, {"Gestore": "DIS-CAR DI SARRA PAOLO & C. S.N.C.", "Bandiera": "DIS-CAR", "Tipo impianto": "Altro", "Indirizzo": "VIA MADRE TERESA DI CALCUTTA SNC 10024", "Nome impianto": "LE PORTE ", "Comune": "MONCALIERI", "idImpianto": 36055, "points": [{"type": "Feature", "properties": {}, "geometry": {"type": "Point", "coordinates": [7.707066974804661, 44.982600448192905]}}], "price": 1.929, "ultima_rilevazione": "15/07/2022 23:53:47"}, {"Gestore": "CORONA CARBURANTI S.R.L.", "Bandiera": "Q8", "Tipo impianto": "Altro", "Indirizzo": "via XXV APRILE 74 10042", "Nome impianto": "K0292", "Comune": "NICHELINO", "idImpianto": 47505, "points": [{"type": "Feature", "properties": {}, "geometry": {"type": "Point", "coordinates": [7.6489186287, 45.0020484924]}}], "price": 1.959, "ultima_rilevazione": "16/07/2022 08:17:15"}, {"Gestore": "M.L. SNC DI MICHELE CIUFFI E LIVIO LOGGETTA", "Bandiera": "Agip Eni", "Tipo impianto": "Altro", "Indirizzo": "CORSO TRIESTE ANGOLO CORSO ROMA  10024", "Nome impianto": "00687", "Comune": "MONCALIERI", "idImpianto": 29855, "points": [{"type": "Feature", "properties": {}, "geometry": {"type": "Point", "coordinates": [7.672491073608398, 45.00576987334705]}}], "price": 1.984, "ultima_rilevazione": "17/07/2022 19:25:26"}, {"Gestore": "SERVIZI & GESTIONI ITALIA S.R.L.", "Bandiera": "Q8", "Tipo impianto": "Altro", "Indirizzo": "Via TORINO 76 10042", "Nome impianto": "Via TORINO 76 - NICHELINO", "Comune": "NICHELINO", "idImpianto": 30113, "points": [{"type": "Feature", "properties": {}, "geometry": {"type": "Point", "coordinates": [7.653248619049009, 45.00030794557587]}}], "price": 1.939, "ultima_rilevazione": "18/07/2022 00:34:54"}, {"Gestore": "SERVIZI & GESTIONI ITALIA S.R.L.", "Bandiera": "Q8", "Tipo impianto": "Altro", "Indirizzo": "VIA VIGLIANI, 67 STAZ.Q8  10135", "Nome impianto": "TORINO VIA VIGLIANI, 67 STAZ.Q8", "Comune": "TORINO", "idImpianto": 40637, "points": [{"type": "Feature", "properties": {}, "geometry": {"type": "Point", "coordinates": [7.643126249313354, 45.01930717490191]}}], "price": 1.928, "ultima_rilevazione": "18/07/2022 00:34:55"}, {"Gestore": "SIMA S.A.S. DI MOUTH DARIO & C.", "Bandiera": "Agip Eni", "Tipo impianto": "Altro", "Indirizzo": "STRADA DEL DROSSO 101/A 10135", "Nome impianto": "sima s.a.s.", "Comune": "TORINO", "idImpianto": 12346, "points": [{"type": "Feature", "properties": {}, "geometry": {"type": "Point", "coordinates": [7.613047957420349, 45.01623277868544]}}], "price": 1.989, "ultima_rilevazione": "18/07/2022 08:09:53"}, {"Gestore": "BRUCO SAS DI COPPOLA CLAUDIA", "Bandiera": "Esso", "Tipo impianto": "Altro", "Indirizzo": "via cavour 37 10024", "Nome impianto": "bruco sas", "Comune": "MONCALIERI", "idImpianto": 47575, "points": [{"type": "Feature", "properties": {}, "geometry": {"type": "Point", "coordinates": [7.688609000123, 45.000160000123]}}], "price": 1.949, "ultima_rilevazione": "18/07/2022 08:47:11"}, {"Gestore": "IP SERVICES S.R.L.", "Bandiera": "Api-Ip", "Tipo impianto": "Altro", "Indirizzo": "VIA ONORATO VIGLIANI 74 10135", "Nome impianto": "TORINO - ONORATO VIGLIANI 74", "Comune": "TORINO", "idImpianto": 31168, "points": [{"type": "Feature", "properties": {}, "geometry": {"type": "Point", "coordinates": [7.641062449073843, 45.019988624322735]}}], "price": 1.929, "ultima_rilevazione": "18/07/2022 09:02:10"}, {"Gestore": "IP SERVICES S.R.L.", "Bandiera": "Api-Ip", "Tipo impianto": "Altro", "Indirizzo": "via Postiglione 27 10024", "Nome impianto": "Moncalieri Postiglione", "Comune": "MONCALIERI", "idImpianto": 39836, "points": [{"type": "Feature", "properties": {}, "geometry": {"type": "Point", "coordinates": [7.713160067796707, 44.97569922117869]}}], "price": 1.939, "ultima_rilevazione": "18/07/2022 10:03:57"}, {"Gestore": "CANU GIUSEPPE", "Bandiera": "Agip Eni", "Tipo impianto": "Altro", "Indirizzo": "corso unione sovietica  614 a 10135", "Nome impianto": "stazione di servizio eni", "Comune": "TORINO", "idImpianto": 40152, "points": [{"type": "Feature", "properties": {}, "geometry": {"type": "Point", "coordinates": [7.622725610575799, 45.01221048701624]}}], "price": 1.989, "ultima_rilevazione": "18/07/2022 10:16:50"}, {"Gestore": "RR DI MAGLIONE FRANCO TEODORO", "Bandiera": "Api-Ip", "Tipo impianto": "Autostradale", "Indirizzo": "A55 TANG.LE DI TORINO-Dir. Pinerolo, Km. 2+670 , dir. Nord 10092", "Nome impianto": "BEINASCO NORD", "Comune": "BEINASCO", "idImpianto": 49146, "points": [{"type": "Feature", "properties": {}, "geometry": {"type": "Point", "coordinates": [7.581468819018551, 45.01229802192051]}}], "price": 2.199, "ultima_rilevazione": "18/07/2022 11:10:36"}, {"Gestore": "CAPECE COSIMO", "Bandiera": "Agip Eni", "Tipo impianto": "Strada Statale", "Indirizzo": "Statale 663 di Saluzzo, Km. 001, dir. Saluzzo\\\\Carmagnola 10041", "Nome impianto": "Stazione ENI Carignano", "Comune": "CARIGNANO", "idImpianto": 35942, "points": [{"type": "Feature", "properties": {}, "geometry": {"type": "Point", "coordinates": [7.66992396198566, 44.89559294893613]}}], "price": 1.994, "ultima_rilevazione": "18/07/2022 11:20:10"}, {"Gestore": "FC SAVONA S.A.S. DI CIRILLO PIETRO & C.", "Bandiera": "Esso", "Tipo impianto": "Altro", "Indirizzo": "CORSO SAVONA 46 10024", "Nome impianto": "FC SAVONA SAS", "Comune": "MONCALIERI", "idImpianto": 45766, "points": [{"type": "Feature", "properties": {}, "geometry": {"type": "Point", "coordinates": [7.692165780872642, 44.99485708338513]}}], "price": 1.956, "ultima_rilevazione": "18/07/2022 11:20:42"}, {"Gestore": "T.D.M. S.R.L.", "Bandiera": "Tamoil", "Tipo impianto": "Altro", "Indirizzo": "via Pellico 75 10041", "Nome impianto": "6214", "Comune": "CARIGNANO", "idImpianto": 25375, "points": [{"type": "Feature", "properties": {}, "geometry": {"type": "Point", "coordinates": [7.671996771377621, 44.90127690605022]}}], "price": 1.939, "ultima_rilevazione": "18/07/2022 12:10:15"}, {"Gestore": "M.C. PETROLI SRL", "Bandiera": "MC petroli", "Tipo impianto": "Altro", "Indirizzo": "Corso Trieste  sn 10024", "Nome impianto": "MC PETROLI MONCALIERI", "Comune": "MONCALIERI", "idImpianto": 29488, "points": [{"type": "Feature", "properties": {}, "geometry": {"type": "Point", "coordinates": [7.676525115966797, 45.00225835960855]}}], "price": 1.939, "ultima_rilevazione": "18/07/2022 18:05:53"}, {"Gestore": "EUROFUEL DI CONCETTA MEDURI", "Bandiera": "Api-Ip", "Tipo impianto": "Altro", "Indirizzo": "VIA PIO VII 131 10127", "Nome impianto": "Stazione IP Via PIO VII Angolo Via DUINO", "Comune": "TORINO", "idImpianto": 50363, "points": [{"type": "Feature", "properties": {}, "geometry": {"type": "Point", "coordinates": [7.649747872352597, 45.01998672837631]}}], "price": 1.929, "ultima_rilevazione": "18/07/2022 18:10:08"}, {"Gestore": "SERVIZI & GESTIONI ITALIA S.R.L.", "Bandiera": "Q8", "Tipo impianto": "Altro", "Indirizzo": "CORSO ROMA 43 10024", "Nome impianto": "MONCALIERI CORSO ROMA, 43", "Comune": "MONCALIERI", "idImpianto": 22909, "points": [{"type": "Feature", "properties": {}, "geometry": {"type": "Point", "coordinates": [7.665984653442365, 45.01082087560908]}}], "price": 1.959, "ultima_rilevazione": "19/07/2022 01:37:49"}, {"Gestore": "SERVIZI & GESTIONI ITALIA srl", "Bandiera": "Q8", "Tipo impianto": "Altro", "Indirizzo": "VIA PASTRENGO 25 10024", "Nome impianto": "MONCALIERI PASTRENGO 25", "Comune": "MONCALIERI", "idImpianto": 6399, "points": [{"type": "Feature", "properties": {}, "geometry": {"type": "Point", "coordinates": [7.666485359524586, 45.00307345576897]}}], "price": 1.959, "ultima_rilevazione": "19/07/2022 01:37:57"}, {"Gestore": "SERVIZI & GESTIONI ITALIA S.R.L.", "Bandiera": "Q8", "Tipo impianto": "Altro", "Indirizzo": "P.ZA CAIO MARIO  / SETTEMBRINI 430 00135", "Nome impianto": "TORINO-P.ZA CAIO MARIO 430 / SETTEMBRIN", "Comune": "TORINO", "idImpianto": 11856, "points": [{"type": "Feature", "properties": {}, "geometry": {"type": "Point", "coordinates": [7.634330262565641, 45.02251375188011]}}], "price": 1.929, "ultima_rilevazione": "19/07/2022 01:38:07"}, {"Gestore": "SERVIZI & GESTIONI ITALIA S.R.L.", "Bandiera": "Q8", "Tipo impianto": "Altro", "Indirizzo": "STRADA DEL DROSSO ANG.VIA NEGARVILL S/N 10135", "Nome impianto": "TORINO-STRADA DEL DROSSO ANG.VIA NEGARVILL", "Comune": "TORINO", "idImpianto": 11865, "points": [{"type": "Feature", "properties": {}, "geometry": {"type": "Point", "coordinates": [7.610394582152367, 45.01684046614229]}}], "price": 1.949, "ultima_rilevazione": "19/07/2022 01:38:07"}, {"Gestore": "GESTIONI INNOVATIVE ITALIA S.R.L.", "Bandiera": "Agip Eni", "Tipo impianto": "Altro", "Indirizzo": "CORSO TRAIANO  146 10127", "Nome impianto": "665", "Comune": "TORINO", "idImpianto": 48310, "points": [{"type": "Feature", "properties": {}, "geometry": {"type": "Point", "coordinates": [7.653532999999992, 45.02048749098992]}}], "price": 1.974, "ultima_rilevazione": "19/07/2022 06:04:11"}, {"Gestore": "SERVIZI & GESTIONI ITALIA S.R.L.", "Bandiera": "Q8", "Tipo impianto": "Altro", "Indirizzo": "SS 393 KM 3+300 300 10024", "Nome impianto": "MONCALIERI - SS 393 KM3 300", "Comune": "MONCALIERI", "idImpianto": 7266, "points": [{"type": "Feature", "properties": {}, "geometry": {"type": "Point", "coordinates": [7.703556418418884, 44.97914254185535]}}], "price": 1.939, "ultima_rilevazione": "19/07/2022 07:06:53"}, {"Gestore": "BRUS.CA. S.N.C. DI BRUSSINO GIANPIERO E C.", "Bandiera": "Tamoil", "Tipo impianto": "Altro", "Indirizzo": "c.so savona 22 10024", "Nome impianto": "tamoil", "Comune": "MONCALIERI", "idImpianto": 17176, "points": [{"type": "Feature", "properties": {}, "geometry": {"type": "Point", "coordinates": [7.687427092674397, 44.99578411890521]}}], "price": 1.919, "ultima_rilevazione": "19/07/2022 07:38:05"}, {"Gestore": "BRUS.CA. S.N.C. DI BRUSSINO GIANPIERO E C.", "Bandiera": "Tamoil", "Tipo impianto": "Altro", "Indirizzo": "c.so savona 22 10024", "Nome impianto": "tamoil", "Comune": "MONCALIERI", "idImpianto": 17176, "points": [{"type": "Feature", "properties": {}, "geometry": {"type": "Point", "coordinates": [7.687427092674397, 44.99578411890521]}}], "price": 2.069, "ultima_rilevazione": "19/07/2022 07:38:05"}]}, "null": {}, "GPL": {"1": [{"Gestore": "SOSTA SICURA SOCIETA' COOPERATIVA", "Bandiera": "Kerotris", "Tipo impianto": "Altro", "Indirizzo": "VIA DEBOUCHE' SN 10042", "Nome impianto": "KEROTRIS - MONDOJUVE", "Comune": "NICHELINO", "idImpianto": 49005, "points": [{"type": "Feature", "properties": {}, "geometry": {"type": "Point", "coordinates": [7.620159115793044, 44.98543782797741]}}], "price": 0.798, "ultima_rilevazione": "15/07/2022 14:52:23"}, {"Gestore": "DIS-CAR DI SARRA PAOLO & C. S.N.C.", "Bandiera": "DIS-CAR", "Tipo impianto": "Altro", "Indirizzo": "Via Torino Ang.Via Vernea  10042", "Nome impianto": "NICHELINO", "Comune": "NICHELINO", "idImpianto": 34189, "points": [{"type": "Feature", "properties": {}, "geometry": {"type": "Point", "coordinates": [7.632060755775456, 44.98279587303752]}}], "price": 0.789, "ultima_rilevazione": "16/07/2022 00:08:34"}, {"Gestore": "VITAGLIANO S.N.C. DI VITAGLIANO ANTONIO E F.LLI", "Bandiera": "Pompe Bianche", "Tipo impianto": "Altro", "Indirizzo": "VIA XXV APRILE  25 10040", "Nome impianto": "VTG", "Comune": "PIOBESI TORINESE", "idImpianto": 44321, "points": [{"type": "Feature", "properties": {}, "geometry": {"type": "Point", "coordinates": [7.616615295410156, 44.93354448535791]}}], "price": 0.825, "ultima_rilevazione": "18/07/2022 09:52:46"}], "3": [{"Gestore": "CORLEONE S.A.S. DI CORLEONE SILVESTRO & C.", "Bandiera": "Q8", "Tipo impianto": "Strada Statale", "Indirizzo": "Statale 20 del Colle di Tenda e di Valle Roja, Km. 2.200, dir. torino 10024", "Nome impianto": "kuwait", "Comune": "MONCALIERI", "idImpianto": 33827, "points": [{"type": "Feature", "properties": {}, "geometry": {"type": "Point", "coordinates": [7.671100348234177, 44.98285524503359]}}], "price": 0.819, "ultima_rilevazione": "22/06/2022 16:40:54"}, {"Gestore": "FRANCHINO S.N.C. DI FRANCHINO ALESSIO, FRANCHINO DANIELE, FRANCHINO DAVIDE E ROSA BRUSIN LAURA", "Bandiera": "Socogas", "Tipo impianto": "Altro", "Indirizzo": "STRADA PER ORBASSANO KM. 6+470  10060", "Nome impianto": "socogas", "Comune": "CANDIOLO", "idImpianto": 4849, "points": [{"type": "Feature", "properties": {}, "geometry": {"type": "Point", "coordinates": [7.570121884346008, 44.96629050944528]}}], "price": 0.798, "ultima_rilevazione": "11/07/2022 10:51:07"}, {"Gestore": "CICIRELLO VIRGINIA", "Bandiera": "Agip Eni", "Tipo impianto": "Altro", "Indirizzo": "VIA TORINO 275 10042", "Nome impianto": "Eni - SOCOGAS", "Comune": "NICHELINO", "idImpianto": 46795, "points": [{"type": "Feature", "properties": {}, "geometry": {"type": "Point", "coordinates": [7.635887743014109, 44.985835624575486]}}], "price": 0.788, "ultima_rilevazione": "14/07/2022 08:41:30"}, {"Gestore": "EUROPAM S.R.L.", "Bandiera": "Europam", "Tipo impianto": "Altro", "Indirizzo": "SP 142 PER ORBASSANO  10041", "Nome impianto": "EUROPAM - CARIGNANO", "Comune": "CARIGNANO", "idImpianto": 43916, "points": [{"type": "Feature", "properties": {}, "geometry": {"type": "Point", "coordinates": [7.6511599533729395, 44.90403034858639]}}], "price": 0.867, "ultima_rilevazione": "15/07/2022 17:45:23"}, {"Gestore": "MONCALIERI CARLO DI GROSSO LUCA & C. S.A.S.", "Bandiera": "Esso", "Tipo impianto": "Altro", "Indirizzo": "STRADA CARIGNANO 74 10024", "Nome impianto": "ESSO", "Comune": "MONCALIERI", "idImpianto": 47500, "points": [{"type": "Feature", "properties": {}, "geometry": {"type": "Point", "coordinates": [7.670100487102527, 44.976985802882695]}}], "price": 0.819, "ultima_rilevazione": "16/07/2022 07:53:25"}, {"Gestore": "CARULLO FILIPPO", "Bandiera": "Api-Ip", "Tipo impianto": "Altro", "Indirizzo": "VIA DEBOUCHE'  50 10042", "Nome impianto": "IP NICHELINO", "Comune": "NICHELINO", "idImpianto": 6024, "points": [{"type": "Feature", "properties": {}, "geometry": {"type": "Point", "coordinates": [7.630719664123717, 44.99819043593735]}}], "price": 0.829, "ultima_rilevazione": "18/07/2022 19:02:55"}], "5": [{"Gestore": "VENNIRO VINCENZO", "Bandiera": "Retitalia", "Tipo impianto": "Altro", "Indirizzo": "STRADA STUPINIGI 115 10043", "Nome impianto": "retitalia", "Comune": "ORBASSANO", "idImpianto": 26381, "points": [{"type": "Feature", "properties": {}, "geometry": {"type": "Point", "coordinates": [7.573364037323017, 44.99692644179663]}}], "price": 0.804, "ultima_rilevazione": "17/11/2021 09:03:47"}, {"Gestore": "LONGOBARDI ANDREA", "Bandiera": "Socogas", "Tipo impianto": "Altro", "Indirizzo": "STRADA ORBASSANO KM17+810 10041", "Nome impianto": "SOCOGAS Carignano", "Comune": "CARIGNANO", "idImpianto": 40555, "points": [{"type": "Feature", "properties": {}, "geometry": {"type": "Point", "coordinates": [7.672717720270157, 44.890839266468745]}}], "price": 0.829, "ultima_rilevazione": "12/07/2022 07:52:08"}, {"Gestore": "DE.MA. DI DESANTIS ROBERTO E C. SAS", "Bandiera": "Agip Eni", "Tipo impianto": "Autostradale", "Indirizzo": "Autostrada A55 TANG.LE DI TORINO-Dir. Pinerolo, Km. 2.92, dir. Sud", "Nome impianto": "BEINASCO", "Comune": "BEINASCO", "idImpianto": 3742, "points": [{"type": "Feature", "properties": {}, "geometry": {"type": "Point", "coordinates": [7.57856011390686, 45.009953216766114]}}], "price": 0.802, "ultima_rilevazione": "15/07/2022 18:50:42"}, {"Gestore": "DIS-CAR DI SARRA PAOLO & C. S.N.C.", "Bandiera": "DIS-CAR", "Tipo impianto": "Altro", "Indirizzo": "VIA MADRE TERESA DI CALCUTTA SNC 10024", "Nome impianto": "LE PORTE ", "Comune": "MONCALIERI", "idImpianto": 36055, "points": [{"type": "Feature", "properties": {}, "geometry": {"type": "Point", "coordinates": [7.707066974804661, 44.982600448192905]}}], "price": 0.799, "ultima_rilevazione": "15/07/2022 23:53:47"}, {"Gestore": "SIMA S.A.S. DI MOUTH DARIO & C.", "Bandiera": "Agip Eni", "Tipo impianto": "Altro", "Indirizzo": "STRADA DEL DROSSO 101/A 10135", "Nome impianto": "sima s.a.s.", "Comune": "TORINO", "idImpianto": 12346, "points": [{"type": "Feature", "properties": {}, "geometry": {"type": "Point", "coordinates": [7.613047957420349, 45.01623277868544]}}], "price": 0.799, "ultima_rilevazione": "18/07/2022 08:09:53"}, {"Gestore": "RR DI MAGLIONE FRANCO TEODORO", "Bandiera": "Api-Ip", "Tipo impianto": "Autostradale", "Indirizzo": "A55 TANG.LE DI TORINO-Dir. Pinerolo, Km. 2+670 , dir. Nord 10092", "Nome impianto": "BEINASCO NORD", "Comune": "BEINASCO", "idImpianto": 49146, "points": [{"type": "Feature", "properties": {}, "geometry": {"type": "Point", "coordinates": [7.581468819018551, 45.01229802192051]}}], "price": 0.95, "ultima_rilevazione": "18/07/2022 11:10:36"}, {"Gestore": "SERVIZI & GESTIONI ITALIA S.R.L.", "Bandiera": "Q8", "Tipo impianto": "Altro", "Indirizzo": "SS 393 KM 3+300 300 10024", "Nome impianto": "MONCALIERI - SS 393 KM3 300", "Comune": "MONCALIERI", "idImpianto": 7266, "points": [{"type": "Feature", "properties": {}, "geometry": {"type": "Point", "coordinates": [7.703556418418884, 44.97914254185535]}}], "price": 0.809, "ultima_rilevazione": "19/07/2022 07:06:53"}]}, "Gasolio": {"1": [{"Gestore": "SOSTA SICURA SOCIETA' COOPERATIVA", "Bandiera": "Kerotris", "Tipo impianto": "Altro", "Indirizzo": "VIA DEBOUCHE' SN 10042", "Nome impianto": "KEROTRIS - MONDOJUVE", "Comune": "NICHELINO", "idImpianto": 49005, "points": [{"type": "Feature", "properties": {}, "geometry": {"type": "Point", "coordinates": [7.620159115793044, 44.98543782797741]}}], "price": 1.918, "ultima_rilevazione": "15/07/2022 14:52:23"}, {"Gestore": "DIS-CAR DI SARRA PAOLO & C. S.N.C.", "Bandiera": "DIS-CAR", "Tipo impianto": "Altro", "Indirizzo": "Via Torino Ang.Via Vernea  10042", "Nome impianto": "NICHELINO", "Comune": "NICHELINO", "idImpianto": 34189, "points": [{"type": "Feature", "properties": {}, "geometry": {"type": "Point", "coordinates": [7.632060755775456, 44.98279587303752]}}], "price": 1.899, "ultima_rilevazione": "16/07/2022 00:08:34"}, {"Gestore": "BOTTARO PIER ANTONIO", "Bandiera": "Api-Ip", "Tipo impianto": "Altro", "Indirizzo": "VIA PIOBESI 40 10048", "Nome impianto": "bottaro pier antonio", "Comune": "VINOVO", "idImpianto": 14644, "points": [{"type": "Feature", "properties": {}, "geometry": {"type": "Point", "coordinates": [7.624199241399765, 44.940193341807166]}}], "price": 1.969, "ultima_rilevazione": "18/07/2022 08:12:05"}, {"Gestore": "ALLERUZZO LUCA", "Bandiera": "Agip Eni", "Tipo impianto": "Altro", "Indirizzo": "VIA TORINO 372 10042", "Nome impianto": "00664", "Comune": "NICHELINO", "idImpianto": 7370, "points": [{"type": "Feature", "properties": {}, "geometry": {"type": "Point", "coordinates": [7.629635041525262, 44.98124253579672]}}], "price": 1.899, "ultima_rilevazione": "18/07/2022 08:28:05"}, {"Gestore": "IP SERVICES S.R.L.", "Bandiera": "Api-Ip", "Tipo impianto": "Altro", "Indirizzo": "VIA CIRCONVALLAZIONE 38 10048", "Nome impianto": "VINOVO", "Comune": "VINOVO", "idImpianto": 25187, "points": [{"type": "Feature", "properties": {}, "geometry": {"type": "Point", "coordinates": [7.627926822090103, 44.94493417175196]}}], "price": 1.929, "ultima_rilevazione": "18/07/2022 10:01:34"}, {"Gestore": "IP SERVICES S.R.L.", "Bandiera": "Api-Ip", "Tipo impianto": "Altro", "Indirizzo": "STUPINIGI  10048", "Nome impianto": "VINOVO - STUPINIGI", "Comune": "VINOVO", "idImpianto": 36548, "points": [{"type": "Feature", "properties": {}, "geometry": {"type": "Point", "coordinates": [7.625817434358623, 44.95690379606856]}}], "price": 1.929, "ultima_rilevazione": "18/07/2022 10:03:17"}, {"Gestore": "T.D.M. S.R.L.", "Bandiera": "Tamoil", "Tipo impianto": "Altro", "Indirizzo": "SP. 140 DA KM. 6+430 A KM. 6+490  10060", "Nome impianto": "3392", "Comune": "CANDIOLO", "idImpianto": 45742, "points": [{"type": "Feature", "properties": {}, "geometry": {"type": "Point", "coordinates": [7.604451719881126, 44.960996540545416]}}], "price": 1.899, "ultima_rilevazione": "18/07/2022 12:10:22"}, {"Gestore": "IP SERVICES S.R.L.", "Bandiera": "Api-Ip", "Tipo impianto": "Altro", "Indirizzo": "NICHELINO - STRADA DEL DEBOUCHE'  10042", "Nome impianto": "NICHELINO - STRADA DEL DEBOUCHE'", "Comune": "NICHELINO", "idImpianto": 24618, "points": [{"type": "Feature", "properties": {}, "geometry": {"type": "Point", "coordinates": [7.621059008598307, 44.98675691142344]}}], "price": 1.909, "ultima_rilevazione": "18/07/2022 18:01:01"}, {"Gestore": "SERVIZI & GESTIONI ITALIA S.R.L.", "Bandiera": "Q8", "Tipo impianto": "Altro", "Indirizzo": "VIA STUPINIGI 32 10048", "Nome impianto": "VINOVO-VIA STUPINIGI 32", "Comune": "VINOVO", "idImpianto": 11884, "points": [{"type": "Feature", "properties": {}, "geometry": {"type": "Point", "coordinates": [7.627314169311489, 44.95427832850064]}}], "price": 1.919, "ultima_rilevazione": "19/07/2022 01:38:07"}, {"Gestore": "SERVIZI & GESTIONI ITALIA S.R.L.", "Bandiera": "Q8", "Tipo impianto": "Altro", "Indirizzo": "VIA DEL MARE 10 10040", "Nome impianto": "PIOBESI TORINESE-VIA DEL MARE 10", "Comune": "PIOBESI TORINESE", "idImpianto": 11878, "points": [{"type": "Feature", "properties": {}, "geometry": {"type": "Point", "coordinates": [7.623410672283171, 44.92847592146983]}}], "price": 1.929, "ultima_rilevazione": "19/07/2022 07:06:54"}], "3": [{"Gestore": "FRANCHINO S.N.C. DI FRANCHINO ALESSIO, FRANCHINO DANIELE, FRANCHINO DAVIDE E ROSA BRUSIN LAURA", "Bandiera": "Socogas", "Tipo impianto": "Altro", "Indirizzo": "STRADA PER ORBASSANO KM. 6+470  10060", "Nome impianto": "socogas", "Comune": "CANDIOLO", "idImpianto": 4849, "points": [{"type": "Feature", "properties": {}, "geometry": {"type": "Point", "coordinates": [7.570121884346008, 44.96629050944528]}}], "price": 1.939, "ultima_rilevazione": "11/07/2022 10:51:07"}, {"Gestore": "AUTOLAVAGGIO NINA DI NAPOLI SALVATORE", "Bandiera": "Agip Eni", "Tipo impianto": "Strada Statale", "Indirizzo": "20 del Colle di Tenda e di Valle Roja, Km. 6+035, Carignano 10040", "Nome impianto": "ENI", "Comune": "LA LOGGIA", "idImpianto": 42169, "points": [{"type": "Feature", "properties": {}, "geometry": {"type": "Point", "coordinates": [7.668999001852399, 44.94862787801203]}}], "price": 1.989, "ultima_rilevazione": "11/07/2022 18:08:06"}, {"Gestore": "ECONOMY S.R.L.", "Bandiera": "Api-Ip", "Tipo impianto": "Altro", "Indirizzo": "VIA SANTA MARIA 46 10024", "Nome impianto": "Economy-Moncalieri, Borgata Santa Maria", "Comune": "MONCALIERI", "idImpianto": 41402, "points": [{"type": "Feature", "properties": {}, "geometry": {"type": "Point", "coordinates": [7.662206173610684, 44.99062629303088]}}], "price": 2.049, "ultima_rilevazione": "13/07/2022 18:00:02"}, {"Gestore": "FI&LO DI LUIGI CARNIGLIA", "Bandiera": "Agip Eni", "Tipo impianto": "Autostradale", "Indirizzo": "A55 TANG.LE DI TORINO, Km. 10+133, milano 10024", "Nome impianto": "NICHELINO NORD", "Comune": "MONCALIERI", "idImpianto": 41432, "points": [{"type": "Feature", "properties": {}, "geometry": {"type": "Point", "coordinates": [7.657635658979416, 44.97581154787802]}}], "price": 2.089, "ultima_rilevazione": "19/07/2022 07:09:11"}, {"Gestore": "CICIRELLO VIRGINIA", "Bandiera": "Agip Eni", "Tipo impianto": "Altro", "Indirizzo": "VIA TORINO 275 10042", "Nome impianto": "Eni - SOCOGAS", "Comune": "NICHELINO", "idImpianto": 46795, "points": [{"type": "Feature", "properties": {}, "geometry": {"type": "Point", "coordinates": [7.635887743014109, 44.985835624575486]}}], "price": 1.914, "ultima_rilevazione": "14/07/2022 08:41:30"}, {"Gestore": "EUROPAM S.R.L.", "Bandiera": "Europam", "Tipo impianto": "Altro", "Indirizzo": "SP 142 PER ORBASSANO  10041", "Nome impianto": "EUROPAM - CARIGNANO", "Comune": "CARIGNANO", "idImpianto": 43916, "points": [{"type": "Feature", "properties": {}, "geometry": {"type": "Point", "coordinates": [7.6511599533729395, 44.90403034858639]}}], "price": 1.937, "ultima_rilevazione": "15/07/2022 17:45:23"}, {"Gestore": "MONCALIERI CARLO DI GROSSO LUCA & C. S.A.S.", "Bandiera": "Esso", "Tipo impianto": "Altro", "Indirizzo": "STRADA CARIGNANO 74 10024", "Nome impianto": "ESSO", "Comune": "MONCALIERI", "idImpianto": 47500, "points": [{"type": "Feature", "properties": {}, "geometry": {"type": "Point", "coordinates": [7.670100487102527, 44.976985802882695]}}], "price": 1.939, "ultima_rilevazione": "16/07/2022 07:53:25"}, {"Gestore": "S.A.G.I. SOCIETA'  A RESPONSABILITA' LIMITATA S.R.L. SIGLABILE S.A.G.I. SRL", "Bandiera": "Agip Eni", "Tipo impianto": "Autostradale", "Indirizzo": "Autostrada A55 TANG.LE DI TORINO, Km. 11.3, dir. Sud", "Nome impianto": "NICHELINO SUD", "Comune": "NICHELINO", "idImpianto": 3626, "points": [{"type": "Feature", "properties": {}, "geometry": {"type": "Point", "coordinates": [7.645269334316254, 44.9812651762777]}}], "price": 2.089, "ultima_rilevazione": "16/07/2022 09:05:11"}, {"Gestore": "DDQ SERVICE DI QUARTARONE DIEGO DOMENICO", "Bandiera": "Esso", "Tipo impianto": "Altro", "Indirizzo": "VIA XXV APRILE 126 10042", "Nome impianto": "Diego Domenico Quartarone", "Comune": "NICHELINO", "idImpianto": 26452, "points": [{"type": "Feature", "properties": {}, "geometry": {"type": "Point", "coordinates": [7.6414455264587104, 45.00191241341997]}}], "price": 1.929, "ultima_rilevazione": "18/07/2022 08:52:40"}, {"Gestore": "IP SERVICES S.R.L.", "Bandiera": "Api-Ip", "Tipo impianto": "Strada Statale", "Indirizzo": "Statale 20 del Colle di Tenda e di Valle Roja, Km. km 2,229, dir. torino 10024", "Nome impianto": "MONCALIERI - S.S. 20 KM. 2,229", "Comune": "MONCALIERI", "idImpianto": 22891, "points": [{"type": "Feature", "properties": {}, "geometry": {"type": "Point", "coordinates": [7.670443207025528, 44.98222295703064]}}], "price": 1.949, "ultima_rilevazione": "18/07/2022 10:01:12"}, {"Gestore": "T.D.M. S.R.L.", "Bandiera": "Tamoil", "Tipo impianto": "Altro", "Indirizzo": "Corso Unione Sovietica  10135", "Nome impianto": "6223", "Comune": "TORINO", "idImpianto": 39989, "points": [{"type": "Feature", "properties": {}, "geometry": {"type": "Point", "coordinates": [7.6214224845170975, 45.01102561686194]}}], "price": 1.909, "ultima_rilevazione": "18/07/2022 12:20:07"}, {"Gestore": "GS SPA", "Bandiera": "Carrefour", "Tipo impianto": "Altro", "Indirizzo": "VIA CESANA SNC 10042", "Nome impianto": "Carrefour Stazione Nichelino", "Comune": "NICHELINO", "idImpianto": 48739, "points": [{"type": "Feature", "properties": {}, "geometry": {"type": "Point", "coordinates": [7.625866548933362, 45.00463252481773]}}], "price": 1.899, "ultima_rilevazione": "18/07/2022 16:11:01"}, {"Gestore": "CARULLO FILIPPO", "Bandiera": "Api-Ip", "Tipo impianto": "Altro", "Indirizzo": "VIA DEBOUCHE'  50 10042", "Nome impianto": "IP NICHELINO", "Comune": "NICHELINO", "idImpianto": 6024, "points": [{"type": "Feature", "properties": {}, "geometry": {"type": "Point", "coordinates": [7.630719664123717, 44.99819043593735]}}], "price": 1.909, "ultima_rilevazione": "18/07/2022 19:02:55"}], "5": [{"Gestore": "VENNIRO VINCENZO", "Bandiera": "Retitalia", "Tipo impianto": "Altro", "Indirizzo": "STRADA STUPINIGI 115 10043", "Nome impianto": "retitalia", "Comune": "ORBASSANO", "idImpianto": 26381, "points": [{"type": "Feature", "properties": {}, "geometry": {"type": "Point", "coordinates": [7.573364037323017, 44.99692644179663]}}], "price": 1.629, "ultima_rilevazione": "17/11/2021 09:03:47"}, {"Gestore": "AURA PETROLSERVICE S.N.C. DI LANZA BRUNO & C.", "Bandiera": "Api-Ip", "Tipo impianto": "Autostradale", "Indirizzo": "A55 TANG.LE DI TORINO, Km. 4, Savona 10024", "Nome impianto": "BAUDUCCHI OVEST", "Comune": "MONCALIERI", "idImpianto": 51169, "points": [{"type": "Feature", "properties": {}, "geometry": {"type": "Point", "coordinates": [7.700215696606636, 44.977977829079535]}}], "price": 1.863, "ultima_rilevazione": "01/01/2022 11:45:53"}, {"Gestore": "KICH SERVIZI", "Bandiera": "Agip Eni", "Tipo impianto": "Altro", "Indirizzo": "strada orbassano km 10 620 10092", "Nome impianto": "abdelaziz kich", "Comune": "BEINASCO", "idImpianto": 44511, "points": [{"type": "Feature", "properties": {}, "geometry": {"type": "Point", "coordinates": [7.578066000123, 45.018501000123]}}], "price": 2.009, "ultima_rilevazione": "06/07/2022 19:28:41"}, {"Gestore": "ECONOMY S.R.L.", "Bandiera": "Api-Ip", "Tipo impianto": "Altro", "Indirizzo": "VIA SESTRIERE 72 10024", "Nome impianto": "Economy S.r.l-Moncalieri, via sestriere", "Comune": "MONCALIERI", "idImpianto": 33811, "points": [{"type": "Feature", "properties": {}, "geometry": {"type": "Point", "coordinates": [7.661106936245687, 45.01576799656511]}}], "price": 1.928, "ultima_rilevazione": "15/07/2022 07:15:50"}, {"Gestore": "CANDIOTTO LUCIANO", "Bandiera": "Agip Eni", "Tipo impianto": "Altro", "Indirizzo": "strada borgaretto 48 10043", "Nome impianto": "eni imp.00677 di candiotto luciano", "Comune": "ORBASSANO", "idImpianto": 19403, "points": [{"type": "Feature", "properties": {}, "geometry": {"type": "Point", "coordinates": [7.594098809192701, 45.007436643886976]}}], "price": 1.939, "ultima_rilevazione": "15/07/2022 08:20:38"}, {"Gestore": "MUNGO ANGELO", "Bandiera": "DIS-CAR", "Tipo impianto": "Altro", "Indirizzo": "Piazzale Caio Mario  433 10135", "Nome impianto": "Pizzale Caio Mario 433", "Comune": "TORINO", "idImpianto": 20254, "points": [{"type": "Feature", "properties": {}, "geometry": {"type": "Point", "coordinates": [7.635013163754252, 45.02212914964285]}}], "price": 1.929, "ultima_rilevazione": "15/07/2022 09:59:39"}, {"Gestore": "COSTANTIN DISTRIBUZIONE E SERVIZI SRL", "Bandiera": "Costantin", "Tipo impianto": "Altro", "Indirizzo": "CORSO TRAIANO  62 10135", "Nome impianto": "COSTANTIN C. TRAIANO", "Comune": "TORINO", "idImpianto": 35526, "points": [{"type": "Feature", "properties": {}, "geometry": {"type": "Point", "coordinates": [7.644760676968417, 45.02371138253844]}}], "price": 1.917, "ultima_rilevazione": "15/07/2022 10:18:53"}, {"Gestore": "COSTANTIN DISTRIBUZIONE E SERVIZI SRL", "Bandiera": "Costantin", "Tipo impianto": "Altro", "Indirizzo": "strada carignano 7 10024", "Nome impianto": "COSTANTIN MONCALIERI", "Comune": "MONCALIERI", "idImpianto": 37495, "points": [{"type": "Feature", "properties": {}, "geometry": {"type": "Point", "coordinates": [7.671861495700796, 45.00062696485018]}}], "price": 1.937, "ultima_rilevazione": "15/07/2022 10:21:30"}, {"Gestore": "GAS STATION S.R.L.", "Bandiera": "Repsol", "Tipo impianto": "Altro", "Indirizzo": "VIALE FALCONE SNC 10092", "Nome impianto": "Gas Station Beinasco (TO)", "Comune": "BEINASCO", "idImpianto": 14958, "points": [{"type": "Feature", "properties": {}, "geometry": {"type": "Point", "coordinates": [7.593108415603639, 45.02162324376023]}}], "price": 1.919, "ultima_rilevazione": "15/07/2022 11:06:15"}, {"Gestore": "GAS STATION S.R.L.", "Bandiera": "Repsol", "Tipo impianto": "Altro", "Indirizzo": "CORSO SAVONA 24 10024", "Nome impianto": "Gas Station Moncalieri", "Comune": "MONCALIERI", "idImpianto": 45234, "points": [{"type": "Feature", "properties": {}, "geometry": {"type": "Point", "coordinates": [7.686325907707215, 44.996022977084486]}}], "price": 1.919, "ultima_rilevazione": "15/07/2022 11:13:19"}, {"Gestore": "TIEFFE SERVICE S.N.C. DI TEDESCO FEDERICO E FRANCESCO", "Bandiera": "Agip Eni", "Tipo impianto": "Altro", "Indirizzo": "CORSO TRAIANO 119/A  10100", "Nome impianto": "ENI traiano", "Comune": "TORINO", "idImpianto": 46916, "points": [{"type": "Feature", "properties": {}, "geometry": {"type": "Point", "coordinates": [7.651095872364522, 45.02205170825759]}}], "price": 1.924, "ultima_rilevazione": "15/07/2022 18:06:01"}, {"Gestore": "DE.MA. DI DESANTIS ROBERTO E C. SAS", "Bandiera": "Agip Eni", "Tipo impianto": "Autostradale", "Indirizzo": "Autostrada A55 TANG.LE DI TORINO-Dir. Pinerolo, Km. 2.92, dir. Sud", "Nome impianto": "BEINASCO", "Comune": "BEINASCO", "idImpianto": 3742, "points": [{"type": "Feature", "properties": {}, "geometry": {"type": "Point", "coordinates": [7.57856011390686, 45.009953216766114]}}], "price": 2.069, "ultima_rilevazione": "15/07/2022 18:50:42"}, {"Gestore": "DIS-CAR DI SARRA PAOLO & C. S.N.C.", "Bandiera": "DIS-CAR", "Tipo impianto": "Altro", "Indirizzo": "VIA MADRE TERESA DI CALCUTTA SNC 10024", "Nome impianto": "LE PORTE ", "Comune": "MONCALIERI", "idImpianto": 36055, "points": [{"type": "Feature", "properties": {}, "geometry": {"type": "Point", "coordinates": [7.707066974804661, 44.982600448192905]}}], "price": 1.899, "ultima_rilevazione": "15/07/2022 23:53:47"}, {"Gestore": "CORONA CARBURANTI S.R.L.", "Bandiera": "Q8", "Tipo impianto": "Altro", "Indirizzo": "via XXV APRILE 74 10042", "Nome impianto": "K0292", "Comune": "NICHELINO", "idImpianto": 47505, "points": [{"type": "Feature", "properties": {}, "geometry": {"type": "Point", "coordinates": [7.6489186287, 45.0020484924]}}], "price": 1.939, "ultima_rilevazione": "16/07/2022 08:17:15"}, {"Gestore": "M.L. SNC DI MICHELE CIUFFI E LIVIO LOGGETTA", "Bandiera": "Agip Eni", "Tipo impianto": "Altro", "Indirizzo": "CORSO TRIESTE ANGOLO CORSO ROMA  10024", "Nome impianto": "00687", "Comune": "MONCALIERI", "idImpianto": 29855, "points": [{"type": "Feature", "properties": {}, "geometry": {"type": "Point", "coordinates": [7.672491073608398, 45.00576987334705]}}], "price": 1.904, "ultima_rilevazione": "17/07/2022 19:25:26"}, {"Gestore": "SERVIZI & GESTIONI ITALIA S.R.L.", "Bandiera": "Q8", "Tipo impianto": "Altro", "Indirizzo": "Via TORINO 76 10042", "Nome impianto": "Via TORINO 76 - NICHELINO", "Comune": "NICHELINO", "idImpianto": 30113, "points": [{"type": "Feature", "properties": {}, "geometry": {"type": "Point", "coordinates": [7.653248619049009, 45.00030794557587]}}], "price": 1.919, "ultima_rilevazione": "18/07/2022 00:34:54"}, {"Gestore": "SERVIZI & GESTIONI ITALIA S.R.L.", "Bandiera": "Q8", "Tipo impianto": "Altro", "Indirizzo": "VIA VIGLIANI, 67 STAZ.Q8  10135", "Nome impianto": "TORINO VIA VIGLIANI, 67 STAZ.Q8", "Comune": "TORINO", "idImpianto": 40637, "points": [{"type": "Feature", "properties": {}, "geometry": {"type": "Point", "coordinates": [7.643126249313354, 45.01930717490191]}}], "price": 1.898, "ultima_rilevazione": "18/07/2022 00:34:55"}, {"Gestore": "SIMA S.A.S. DI MOUTH DARIO & C.", "Bandiera": "Agip Eni", "Tipo impianto": "Altro", "Indirizzo": "STRADA DEL DROSSO 101/A 10135", "Nome impianto": "sima s.a.s.", "Comune": "TORINO", "idImpianto": 12346, "points": [{"type": "Feature", "properties": {}, "geometry": {"type": "Point", "coordinates": [7.613047957420349, 45.01623277868544]}}], "price": 1.899, "ultima_rilevazione": "18/07/2022 08:09:53"}, {"Gestore": "BRUCO SAS DI COPPOLA CLAUDIA", "Bandiera": "Esso", "Tipo impianto": "Altro", "Indirizzo": "via cavour 37 10024", "Nome impianto": "bruco sas", "Comune": "MONCALIERI", "idImpianto": 47575, "points": [{"type": "Feature", "properties": {}, "geometry": {"type": "Point", "coordinates": [7.688609000123, 45.000160000123]}}], "price": 1.929, "ultima_rilevazione": "18/07/2022 08:47:11"}, {"Gestore": "IP SERVICES S.R.L.", "Bandiera": "Api-Ip", "Tipo impianto": "Altro", "Indirizzo": "VIA ONORATO VIGLIANI 74 10135", "Nome impianto": "TORINO - ONORATO VIGLIANI 74", "Comune": "TORINO", "idImpianto": 31168, "points": [{"type": "Feature", "properties": {}, "geometry": {"type": "Point", "coordinates": [7.641062449073843, 45.019988624322735]}}], "price": 1.899, "ultima_rilevazione": "18/07/2022 09:02:10"}, {"Gestore": "IP SERVICES S.R.L.", "Bandiera": "Api-Ip", "Tipo impianto": "Altro", "Indirizzo": "via Postiglione 27 10024", "Nome impianto": "Moncalieri Postiglione", "Comune": "MONCALIERI", "idImpianto": 39836, "points": [{"type": "Feature", "properties": {}, "geometry": {"type": "Point", "coordinates": [7.713160067796707, 44.97569922117869]}}], "price": 1.909, "ultima_rilevazione": "18/07/2022 10:03:57"}, {"Gestore": "CANU GIUSEPPE", "Bandiera": "Agip Eni", "Tipo impianto": "Altro", "Indirizzo": "corso unione sovietica  614 a 10135", "Nome impianto": "stazione di servizio eni", "Comune": "TORINO", "idImpianto": 40152, "points": [{"type": "Feature", "properties": {}, "geometry": {"type": "Point", "coordinates": [7.622725610575799, 45.01221048701624]}}], "price": 1.899, "ultima_rilevazione": "18/07/2022 10:16:50"}, {"Gestore": "RR DI MAGLIONE FRANCO TEODORO", "Bandiera": "Api-Ip", "Tipo impianto": "Autostradale", "Indirizzo": "A55 TANG.LE DI TORINO-Dir. Pinerolo, Km. 2+670 , dir. Nord 10092", "Nome impianto": "BEINASCO NORD", "Comune": "BEINASCO", "idImpianto": 49146, "points": [{"type": "Feature", "properties": {}, "geometry": {"type": "Point", "coordinates": [7.581468819018551, 45.01229802192051]}}], "price": 2.199, "ultima_rilevazione": "18/07/2022 11:10:36"}, {"Gestore": "CAPECE COSIMO", "Bandiera": "Agip Eni", "Tipo impianto": "Strada Statale", "Indirizzo": "Statale 663 di Saluzzo, Km. 001, dir. Saluzzo\\\\Carmagnola 10041", "Nome impianto": "Stazione ENI Carignano", "Comune": "CARIGNANO", "idImpianto": 35942, "points": [{"type": "Feature", "properties": {}, "geometry": {"type": "Point", "coordinates": [7.66992396198566, 44.89559294893613]}}], "price": 1.904, "ultima_rilevazione": "18/07/2022 11:20:10"}, {"Gestore": "FC SAVONA S.A.S. DI CIRILLO PIETRO & C.", "Bandiera": "Esso", "Tipo impianto": "Altro", "Indirizzo": "CORSO SAVONA 46 10024", "Nome impianto": "FC SAVONA SAS", "Comune": "MONCALIERI", "idImpianto": 45766, "points": [{"type": "Feature", "properties": {}, "geometry": {"type": "Point", "coordinates": [7.692165780872642, 44.99485708338513]}}], "price": 1.936, "ultima_rilevazione": "18/07/2022 11:20:42"}, {"Gestore": "T.D.M. S.R.L.", "Bandiera": "Tamoil", "Tipo impianto": "Altro", "Indirizzo": "via Pellico 75 10041", "Nome impianto": "6214", "Comune": "CARIGNANO", "idImpianto": 25375, "points": [{"type": "Feature", "properties": {}, "geometry": {"type": "Point", "coordinates": [7.671996771377621, 44.90127690605022]}}], "price": 1.899, "ultima_rilevazione": "18/07/2022 12:10:15"}, {"Gestore": "M.C. PETROLI SRL", "Bandiera": "MC petroli", "Tipo impianto": "Altro", "Indirizzo": "Corso Trieste  sn 10024", "Nome impianto": "MC PETROLI MONCALIERI", "Comune": "MONCALIERI", "idImpianto": 29488, "points": [{"type": "Feature", "properties": {}, "geometry": {"type": "Point", "coordinates": [7.676525115966797, 45.00225835960855]}}], "price": 1.899, "ultima_rilevazione": "18/07/2022 18:05:53"}, {"Gestore": "EUROFUEL DI CONCETTA MEDURI", "Bandiera": "Api-Ip", "Tipo impianto": "Altro", "Indirizzo": "VIA PIO VII 131 10127", "Nome impianto": "Stazione IP Via PIO VII Angolo Via DUINO", "Comune": "TORINO", "idImpianto": 50363, "points": [{"type": "Feature", "properties": {}, "geometry": {"type": "Point", "coordinates": [7.649747872352597, 45.01998672837631]}}], "price": 1.899, "ultima_rilevazione": "18/07/2022 18:10:08"}, {"Gestore": "SERVIZI & GESTIONI ITALIA S.R.L.", "Bandiera": "Q8", "Tipo impianto": "Altro", "Indirizzo": "CORSO ROMA 43 10024", "Nome impianto": "MONCALIERI CORSO ROMA, 43", "Comune": "MONCALIERI", "idImpianto": 22909, "points": [{"type": "Feature", "properties": {}, "geometry": {"type": "Point", "coordinates": [7.665984653442365, 45.01082087560908]}}], "price": 1.928, "ultima_rilevazione": "19/07/2022 01:37:49"}, {"Gestore": "SERVIZI & GESTIONI ITALIA srl", "Bandiera": "Q8", "Tipo impianto": "Altro", "Indirizzo": "VIA PASTRENGO 25 10024", "Nome impianto": "MONCALIERI PASTRENGO 25", "Comune": "MONCALIERI", "idImpianto": 6399, "points": [{"type": "Feature", "properties": {}, "geometry": {"type": "Point", "coordinates": [7.666485359524586, 45.00307345576897]}}], "price": 1.928, "ultima_rilevazione": "19/07/2022 01:37:57"}, {"Gestore": "SERVIZI & GESTIONI ITALIA S.R.L.", "Bandiera": "Q8", "Tipo impianto": "Altro", "Indirizzo": "P.ZA CAIO MARIO  / SETTEMBRINI 430 00135", "Nome impianto": "TORINO-P.ZA CAIO MARIO 430 / SETTEMBRIN", "Comune": "TORINO", "idImpianto": 11856, "points": [{"type": "Feature", "properties": {}, "geometry": {"type": "Point", "coordinates": [7.634330262565641, 45.02251375188011]}}], "price": 1.899, "ultima_rilevazione": "19/07/2022 01:38:07"}, {"Gestore": "SERVIZI & GESTIONI ITALIA S.R.L.", "Bandiera": "Q8", "Tipo impianto": "Altro", "Indirizzo": "STRADA DEL DROSSO ANG.VIA NEGARVILL S/N 10135", "Nome impianto": "TORINO-STRADA DEL DROSSO ANG.VIA NEGARVILL", "Comune": "TORINO", "idImpianto": 11865, "points": [{"type": "Feature", "properties": {}, "geometry": {"type": "Point", "coordinates": [7.610394582152367, 45.01684046614229]}}], "price": 1.929, "ultima_rilevazione": "19/07/2022 01:38:07"}, {"Gestore": "GESTIONI INNOVATIVE ITALIA S.R.L.", "Bandiera": "Agip Eni", "Tipo impianto": "Altro", "Indirizzo": "CORSO TRAIANO  146 10127", "Nome impianto": "665", "Comune": "TORINO", "idImpianto": 48310, "points": [{"type": "Feature", "properties": {}, "geometry": {"type": "Point", "coordinates": [7.653532999999992, 45.02048749098992]}}], "price": 1.904, "ultima_rilevazione": "19/07/2022 06:04:11"}, {"Gestore": "SERVIZI & GESTIONI ITALIA S.R.L.", "Bandiera": "Q8", "Tipo impianto": "Altro", "Indirizzo": "SS 393 KM 3+300 300 10024", "Nome impianto": "MONCALIERI - SS 393 KM3 300", "Comune": "MONCALIERI", "idImpianto": 7266, "points": [{"type": "Feature", "properties": {}, "geometry": {"type": "Point", "coordinates": [7.703556418418884, 44.97914254185535]}}], "price": 1.909, "ultima_rilevazione": "19/07/2022 07:06:53"}, {"Gestore": "BRUS.CA. S.N.C. DI BRUSSINO GIANPIERO E C.", "Bandiera": "Tamoil", "Tipo impianto": "Altro", "Indirizzo": "c.so savona 22 10024", "Nome impianto": "tamoil", "Comune": "MONCALIERI", "idImpianto": 17176, "points": [{"type": "Feature", "properties": {}, "geometry": {"type": "Point", "coordinates": [7.687427092674397, 44.99578411890521]}}], "price": 1.909, "ultima_rilevazione": "19/07/2022 07:38:05"}]}, "Metano": {"1": [], "3": [{"Gestore": "CICIRELLO VIRGINIA", "Bandiera": "Agip Eni", "Tipo impianto": "Altro", "Indirizzo": "VIA TORINO 275 10042", "Nome impianto": "Eni - SOCOGAS", "Comune": "NICHELINO", "idImpianto": 46795, "points": [{"type": "Feature", "properties": {}, "geometry": {"type": "Point", "coordinates": [7.635887743014109, 44.985835624575486]}}], "price": 3.499, "ultima_rilevazione": "14/07/2022 08:41:30"}, {"Gestore": "S.A.G.I. SOCIETA'  A RESPONSABILITA' LIMITATA S.R.L. SIGLABILE S.A.G.I. SRL", "Bandiera": "Agip Eni", "Tipo impianto": "Autostradale", "Indirizzo": "Autostrada A55 TANG.LE DI TORINO, Km. 11.3, dir. Sud", "Nome impianto": "NICHELINO SUD", "Comune": "NICHELINO", "idImpianto": 3626, "points": [{"type": "Feature", "properties": {}, "geometry": {"type": "Point", "coordinates": [7.645269334316254, 44.9812651762777]}}], "price": 2.292, "ultima_rilevazione": "16/07/2022 09:05:11"}, {"Gestore": "FI&LO DI LUIGI CARNIGLIA", "Bandiera": "Agip Eni", "Tipo impianto": "Autostradale", "Indirizzo": "A55 TANG.LE DI TORINO, Km. 10+133, milano 10024", "Nome impianto": "NICHELINO NORD", "Comune": "MONCALIERI", "idImpianto": 41432, "points": [{"type": "Feature", "properties": {}, "geometry": {"type": "Point", "coordinates": [7.657635658979416, 44.97581154787802]}}], "price": 2.292, "ultima_rilevazione": "19/07/2022 07:09:11"}], "5": [{"Gestore": "SIMA S.A.S. DI MOUTH DARIO & C.", "Bandiera": "Agip Eni", "Tipo impianto": "Altro", "Indirizzo": "STRADA DEL DROSSO 101/A 10135", "Nome impianto": "sima s.a.s.", "Comune": "TORINO", "idImpianto": 12346, "points": [{"type": "Feature", "properties": {}, "geometry": {"type": "Point", "coordinates": [7.613047957420349, 45.01623277868544]}}], "price": 3.499, "ultima_rilevazione": "18/07/2022 08:09:53"}]}}